search_spot_lat,search_spot_lon,search_radius,id,Name,Latitude,Longitude,Category
19.49740192,-99.06926688,666.6666666666666,4fdbfb9fe4b05be235c731d8,Taquería “El Güero”,19.497500913752823,-99.07404556644555,Taco Place
19.49740192,-99.06926688,666.6666666666666,50eb8794e4b0ad5f84549687,Pozolería Solis,19.495126404869534,-99.06745906551957,Mexican Restaurant
19.49740192,-99.06926688,666.6666666666666,4f3b4ea2e4b03c21a6ce46dd,"Tacos ""El Vaquero""",19.494185214551045,-99.06477693628949,Taco Place
19.49740192,-99.06926688,666.6666666666666,55a466d2498e3436eed1ae8a,Mara Sport,19.49394053866986,-99.06588656550487,Gymnastics Gym
19.49740192,-99.06926688,666.6666666666666,4f962258e4b042e856485b7c,Domino's Pizza,19.498411377557108,-99.06590165258504,Pizza Place
19.49740192,-99.06926688,666.6666666666666,57d30def498ed490d3bae62b,"Antojitos Mexicanos ""Hilda""",19.497313,-99.066414,Food Court
19.49740192,-99.06926688,666.6666666666666,4dd27b101838a751965bed7b,CS1,19.497024056288033,-99.06337266355999,Gym Pool
19.49740192,-99.06926688,666.6666666666666,54e7b1fc498ef548643f3eae,"Carnitas ""Los Garcia""",19.495298180703333,-99.07261903344529,Taco Place
19.49740192,-99.06926688,666.6666666666666,56ef6d14498ef04878e9bcd3,Hamburguesas y Crepas,19.496558605706028,-99.063031524686,Burger Joint
19.50189792,-99.07658694240499,666.6666666666666,5102818be4b0cd9a7970f8d7,Power Gym,19.498541145057416,-99.07622036183626,Gym
19.50189792,-99.07658694240499,666.6666666666666,505f7b25e4b05a5f271e3dd4,"Cervecentro ""El Oasis"" (Micheladas)",19.49790187486575,-99.0732494574309,Beer Garden
19.50189792,-99.07658694240499,666.6666666666666,53f673b4498e43f6d687e024,Krispy Kreme Wal Mart Eduardo Molina,19.49821382582844,-99.07762503923344,Donut Shop
19.50189792,-99.07658694240499,666.6666666666666,508c9283e4b066b587ed02c5,Salon Ciara,19.50054096133644,-99.07114483291407,Lounge
19.49740192,-99.08390700480996,666.6666666666666,4e5d2c9a88771beefa955b92,Queso Carnes El Taque,19.49764056938449,-99.08778382498264,Taco Place
19.49740192,-99.08390700480996,666.6666666666666,52feeb9f11d208d8fa988486,TACOS EL PAISA (los quemados),19.495359420776367,-99.08090209960938,Mexican Restaurant
19.49740192,-99.08390700480996,666.6666666666666,4e19ec59e4cd49a7e3f7c868,Mercado  Vicente Guerrero,19.501758695485414,-99.08754617775651,Food
19.49740192,-99.08390700480996,666.6666666666666,4fa1be2dc2eee30a9a80eaf5,"FYNSA, SA DE CV",19.494553186895274,-99.07940624367662,Pet Store
19.49740192,-99.08390700480996,666.6666666666666,4e872530e5faa573684a2c70,"Barbacoa "" Baron """,19.501329658744634,-99.08631094963307,Mexican Restaurant
19.49740192,-99.08390700480996,666.6666666666666,4e8f8ae2f5b9f8967c5574f3,"Marisqueria Y Ostioneria "" El Portal """,19.50188470411928,-99.08551286816389,Seafood Restaurant
19.49740192,-99.08390700480996,666.6666666666666,4ef7240330f894d8683a3848,Tianguis San Felipe de Jesús (Domingo),19.491678,-99.08241,Flea Market
19.49740192,-99.08390700480996,666.6666666666666,5099c634e4b01cd804967290,Mi Ranchito Birria Y Pozole,19.502378320316616,-99.08379484055517,Mexican Restaurant
19.49740192,-99.08390700480996,666.6666666666666,554d707a498e1f4802fd9ec4,ME&VI,19.50130050421869,-99.08581785563356,Pizza Place
19.49740192,-99.08390700480996,666.6666666666666,4ddd6eff7d8bb03c069d97b7,Loncheria Ojo De Agua,19.49737651482629,-99.08925185191697,Taco Place
19.49740192,-99.08390700480996,666.6666666666666,4edbc83f722e1da303eb911d,Mariscos El tiburon,19.494243013629315,-99.07885628580367,Seafood Restaurant
19.49740192,-99.08390700480996,666.6666666666666,4f1ef72ee4b07fde7f187603,Gym Body Sport,19.501036122217116,-99.0864611124878,Gym
19.49740192,-99.08390700480996,666.6666666666666,50d75eaee4b00f9f17bc249d,Tianguis de San Felipe del Hierro,19.49522438965853,-99.08388974054793,Department Store
19.49740192,-99.08390700480996,666.6666666666666,5310009e498e11e84db2810c,la canchita,19.49988722588076,-99.08326482894692,Soccer Stadium
19.49740192,-99.08390700480996,666.6666666666666,5173e439e4b09fc93fb29f71,"tacos y tortas ""el rafa""",19.49439488823933,-99.07919622042603,Mexican Restaurant
19.49740192,-99.08390700480996,666.6666666666666,4f5faef5e4b0949d41ee5406,Nueva Atzacoalco,19.49609386249929,-99.08851837543891,Garden
19.49740192,-99.08390700480996,666.6666666666666,51339661e4b0c9fcdea38dce,Carnes Asadas Moy,19.494277954101562,-99.0837173461914,Steakhouse
19.49740192,-99.08390700480996,666.6666666666666,4ef6dc09e30093066fb19f37,Papeleria Burbuja,19.497052991095554,-99.08743815652458,Paper / Office Supplies Store
19.49740192,-99.08390700480996,666.6666666666666,4eb5cfc9722e578a4fa24ed5,Pozoleria Jalisco,19.494673292042588,-99.07920736981403,Mexican Restaurant
19.49740192,-99.08390700480996,666.6666666666666,50ad681fe4b0029e737a970b,CANCHA DE FUTBOL VILLA DE AYALA,19.492028615145262,-99.0833010536528,Athletics & Sports
19.50189792,-99.09122706721494,666.6666666666666,563e2cdecd10564a7e7194a4,Smart Fit,19.49749498624073,-99.09055196756218,Gymnastics Gym
19.50189792,-99.09122706721494,666.6666666666666,502bbdaae4b0fe00a36eca4e,Las Migas,19.507325366670543,-99.09082344151228,Mexican Restaurant
19.50189792,-99.09122706721494,666.6666666666666,4f8adf5fe4b01f95a430c3b6,Adiestramiento Canino ORFEGUS,19.49619325952477,-99.09047015622862,Dog Run
19.50189792,-99.09122706721494,666.6666666666666,4ff25fd0e4b021f31d92fe45,restaurant la pasadita,19.507233055682004,-99.09065269223981,Mexican Restaurant
19.50189792,-99.09122706721494,666.6666666666666,515c39a0e4b0527088b1d6ca,Acuática Dos Naciones,19.49954883460377,-99.09243429184518,Gym Pool
19.50189792,-99.09122706721494,666.6666666666666,59bad3320f013c7ac2dee1a8,Deportivo Nueva Atzacoalco,19.501564,-99.088223,Sports Club
19.50189792,-99.09122706721494,666.6666666666666,56b3a0a0498ea78eae31de08,Memorial New's Divine,19.499903658634327,-99.08852057777206,Memorial Site
19.50189792,-99.09122706721494,666.6666666666666,4e4ac41a922e67bd4a0843b3,Mercado Juan González Romero,19.50664701958079,-99.09086432226235,Farmers Market
19.50189792,-99.09122706721494,666.6666666666666,55a42b97498e308b927178cd,Farmacia San Pablo Eduardo Molina,19.497343589915616,-99.09054750812011,Pharmacy
19.50189792,-99.09122706721494,666.6666666666666,4f09d823e4b0fcefa9f596aa,Puerto Escondido,19.49764056938449,-99.08944197423226,Seafood Restaurant
19.50189792,-99.09122706721494,666.6666666666666,53136a4b498e35fffae91b4e,Barbacoa Vasco de Quiroga,19.49616445568788,-99.0910245397575,Mexican Restaurant
19.49740192,-99.09854712961992,666.6666666666666,4ec6739c0e017e2f98a1d246,Las margaritas,19.494538489166818,-99.09625930803159,Mexican Restaurant
19.49740192,-99.09854712961992,666.6666666666666,521a630a7e48aa38c3398e10,Taquería Casa Yañez,19.494458127711894,-99.09596085548401,Taco Place
19.49740192,-99.09854712961992,666.6666666666666,50b1566fe4b004e6d31bce8b,Cinepolis Aragón,19.493619577275556,-99.09637740909105,Indie Movie Theater
19.49740192,-99.09854712961992,666.6666666666666,4b59201df964a520ef7d28e3,Starbucks,19.49374148088252,-99.09354698735646,Coffee Shop
19.49740192,-99.09854712961992,666.6666666666666,4ed30ad7b634dd2994aba113,Mercado Vasco de Quiroga,19.49417121937337,-99.09446218572118,Hobby Shop
19.49740192,-99.09854712961992,666.6666666666666,542d5883498e2e6afd48008c,"Sopes ""Doña Pelos Cristy""",19.494198659363484,-99.09539431228231,Mexican Restaurant
19.50189792,-99.1058671920249,666.6666666666666,4db190890cb6442b2ecbb5da,Parque Nacional El Tepeyac,19.49901,-99.105863,Park
19.50189792,-99.1058671920249,666.6666666666666,4fc245b4e4b06f6d23802ebe,tianguis.tola,19.50008277103054,-99.1113900472058,Flea Market
19.50189792,-99.1058671920249,666.6666666666666,4e2b605c483bb05f059e5e5e,Faro indios verdes,19.503311526994445,-99.1115639862881,Performing Arts Venue
19.50189792,-99.1058671920249,666.6666666666666,4f66399ee4b0c65cc5e11364,Mercado Tola domingos,19.500326192772594,-99.11135222844626,Flea Market
19.50189792,-99.1058671920249,666.6666666666666,530eaa59498e0e89c2c9f0b5,Fábrica de Artes y Oficios Indios Verdes / FARO,19.50324,-99.11143,Movie Theater
19.50189792,-99.1058671920249,666.6666666666666,4f1211d2e4b01eefeee37bff,Jardin Sta. Isabel Tola,19.50106115352855,-99.11175743037411,State / Provincial Park
19.49740192,-99.11318725442987,666.6666666666666,4d8cdd58c479a35d8b872097,Taquería El Alazan,19.50050557324465,-99.11286674697594,Taco Place
19.49740192,-99.11318725442987,666.6666666666666,511d907be4b0c45835124d0f,"Tacos de Cochinita ""Don Alfre""",19.493380096927503,-99.11459930437555,Taco Place
19.49740192,-99.11318725442987,666.6666666666666,4e46b7ba7d8b91a06592b5ff,Los Tacos de Homero,19.495182647746145,-99.11352017276646,Taco Place
19.49740192,-99.11318725442987,666.6666666666666,525da6ef11d2506771bb2a86,Tianguis Martes Tola,19.49409144004209,-99.11666864131273,Flea Market
19.49740192,-99.11318725442987,666.6666666666666,51431a4de4b079325682c4b5,Deportivo Santa Isabel Tola,19.496575325618924,-99.11373026488549,Athletics & Sports
19.49740192,-99.11318725442987,666.6666666666666,4dc2014c1838ada6b25a364d,Parque del Mestizaje,19.500345929890262,-99.1162613486106,Park
19.49740192,-99.11318725442987,666.6666666666666,4f669e9fe4b036e3e9fd021d,Bodega Aurrera (Tola),19.501717785393975,-99.11547641805093,Shopping Mall
19.49740192,-99.11318725442987,666.6666666666666,556f9d82498efe4ed1c18ac3,Diablo Wings,19.496440882237405,-99.11879705125793,Diner
19.49740192,-99.11318725442987,666.6666666666666,4fa9ccfde4b00ffffd5c8aef,kamele,19.496098193048287,-99.1143507714327,Café
19.49740192,-99.11318725442987,666.6666666666666,56a698d7498e34f33c0e15e1,CROSS LONDON GYM,19.498196896554038,-99.11221706930226,Gym / Fitness Center
19.49740192,-99.11318725442987,666.6666666666666,548919c6498e812f84147836,Make up Hair and More,19.49824859585546,-99.11205504437082,Health & Beauty Service
19.49740192,-99.11318725442987,666.6666666666666,4efa402b775b54cdb6f0067c,Mercado 12 de Octubre,19.498885172241746,-99.11695373158624,Miscellaneous Shop
19.49740192,-99.11318725442987,666.6666666666666,5339a12b498ed7ec621b832f,Los Arcos,19.49382357997805,-99.11415987035952,Outdoor Sculpture
19.49740192,-99.11318725442987,666.6666666666666,4f6bfef7e4b03cbd0ee600ce,El Fogon,19.50214385986328,-99.11228942871094,Fast Food Restaurant
19.50189792,-99.12050731683486,666.6666666666666,5b8949a7acb37f002c319d6d,La Casa de Toño,19.502135677223364,-99.12137881265448,Mexican Restaurant
19.50189792,-99.12050731683486,666.6666666666666,5b85fd75356b49002c656568,Chedraui Vista Norte,19.501943703309,-99.12139540416929,Supermarket
19.50189792,-99.12050731683486,666.6666666666666,4d043e4637036dcbbab50ffb,Tacos La Esquinita,19.505130407678912,-99.1245671012679,Mexican Restaurant
19.50189792,-99.12050731683486,666.6666666666666,4f8c9b39e4b07efba0c8453d,Carnitas Los Chenchos,19.501581982149936,-99.1253314413248,Taco Place
19.50189792,-99.12050731683486,666.6666666666666,4e93a744f5b95fb5b062945e,Zacatenco,19.50730476964937,-99.12307210424632,University
19.50189792,-99.12050731683486,666.6666666666666,4f944602e4b00fe65fb77f11,Tianguis de los domingos,19.50132124931213,-99.12271487033233,Flea Market
19.50189792,-99.12050731683486,666.6666666666666,4d4eeaef8975a35daba613a8,"Tacos de Birria ""El Güero""",19.505301477590702,-99.1251408612208,Taco Place
19.50189792,-99.12050731683486,666.6666666666666,4d4dac5c9aaab60ca7ec3a29,"Lienzo Charro ""La Villa""",19.501558195605327,-99.11810586249825,Scenic Lookout
19.50189792,-99.12050731683486,666.6666666666666,56904673498ef54848c28217,DHL,19.50174743703944,-99.12663248541827,Shipping Store
19.50189792,-99.12050731683486,666.6666666666666,4c72f617376da09301dba7c6,Mercado de Zacatenco,19.505356367838257,-99.1250643029625,Grocery Store
19.50189792,-99.12050731683486,666.6666666666666,4e1dabc66284d5831b3c9850,Tianguis de Los Miercoles Zacatenco,19.50732536823524,-99.1230872227894,Flea Market
19.50189792,-99.12050731683486,666.6666666666666,5420c746498e2b7ff8e46949,seven eleven ticoman,19.501883925381758,-99.12678270701434,Convenience Store
19.50189792,-99.12050731683486,666.6666666666666,5137cc5de4b032c75a5b21bc,Healt & Fitness,19.50391944508098,-99.12056917424086,Gym / Fitness Center
19.50189792,-99.12050731683486,666.6666666666666,4e90af37b63456ab958ad4ca,Salon De Fiestas Confetiland,19.499135372638236,-99.12508549576057,Event Space
19.50189792,-99.12050731683486,666.6666666666666,4ed6ebd302d57802e542717f,LeCaroz,19.505208414231088,-99.12390904118266,Bakery
19.50189792,-99.12050731683486,666.6666666666666,4f999a0fe4b01d520d579a96,Michelandia,19.50192266251465,-99.12661825077076,Brewery
19.50189792,-99.12050731683486,666.6666666666666,4d3cafc614aa8cfa6c2aac5e,LeCaroz,19.5050596421431,-99.12499675230991,Bakery
19.50189792,-99.12050731683486,666.6666666666666,4d2d0e7e69f42d4327edac8a,Oxxo La Rioja,19.505107600644365,-99.12532567977905,Convenience Store
19.50189792,-99.12050731683486,666.6666666666666,503a6f8ae4b0b7a03c368d2a,Deportivo Vicente Guerrero,19.50569018967607,-99.12321198906045,Soccer Field
19.50189792,-99.12050731683486,666.6666666666666,4ed1a92493ad987b4ea0d07e,Postres Ali,19.505305192420355,-99.12514645876833,Food Truck
19.50189792,-99.12050731683486,666.6666666666666,502ec9d9e4b064863757f6c4,Las Alitas de Meme,19.507293658478904,-99.12312012993203,Wings Joint
19.49740192,-99.12782737923985,666.6666666666666,4cf297f688de370478fa792b,Barbacoa Paty's,19.498395960087226,-99.12840712064462,Mexican Restaurant
19.49740192,-99.12782737923985,666.6666666666666,4c090e15f23f95214f8f9628,Smile Centro Odontológico,19.49621657521094,-99.12763054827188,Dentist's Office
19.49740192,-99.12782737923985,666.6666666666666,5206b87a498e5fe09019732c,Papeleria El Arbol,19.496991355909636,-99.12724868304953,Paper / Office Supplies Store
19.49740192,-99.12782737923985,666.6666666666666,522cce8d11d2d2dda454af98,Lo Del Che,19.49721477741395,-99.12732438096714,Argentinian Restaurant
19.49740192,-99.12782737923985,666.6666666666666,53dd30ae498eb78b8c329ab3,De Miel Amores,19.49485265246147,-99.12809914639584,Organic Grocery
19.49740192,-99.12782737923985,666.6666666666666,5750f522498e7c81efefcb28,Hair and Makeup By Gina,19.499191,-99.126912,Nail Salon
19.49740192,-99.12782737923985,666.6666666666666,526af4c4498e60aab49e1cce,Pizza Sale e Pepe,19.49411903481773,-99.12757211941309,Pizza Place
19.49740192,-99.12782737923985,666.6666666666666,4ef8fa989911b01ddcd63c71,Pozoleria La Guerrerense,19.494845998060494,-99.12496877800986,Mexican Restaurant
19.49740192,-99.12782737923985,666.6666666666666,51831bc0498e3fca5fbd8a56,Las Quecas de Sarita,19.497849,-99.1278,Taco Place
19.49740192,-99.12782737923985,666.6666666666666,4bf860614a67c9283e5325cf,Tommy Pizzas,19.494417806782085,-99.12482963608943,Pizza Place
19.49740192,-99.12782737923985,666.6666666666666,4ce1c4d1aba88cfaae4557d7,Las Memelas De Sierravista,19.498025903194343,-99.12807800086642,Mexican Restaurant
19.49740192,-99.12782737923985,666.6666666666666,4bcdebbb0687ef3b7ab7e1cc,Parque Miguel Alemán,19.49386141286168,-99.12860870361328,Park
19.49740192,-99.12782737923985,666.6666666666666,4d615990d7206ea8414dfff1,Los Picos de Europa,19.49893216233243,-99.12908138593939,Spanish Restaurant
19.49740192,-99.12782737923985,666.6666666666666,5646aa77498e6fcc4014a778,Sando Café,19.500225937537486,-99.1302734580423,Breakfast Spot
19.49740192,-99.12782737923985,666.6666666666666,50941a50e4b0abc855986f4b,Fruti Lunch,19.497009191802174,-99.12714120553696,Sandwich Place
19.49740192,-99.12782737923985,666.6666666666666,568358fb498e1753ae673678,1301 crossfit,19.49253790148368,-99.12590734166479,Gym / Fitness Center
19.49740192,-99.12782737923985,666.6666666666666,4ef66fc7c512f22777da8103,Pizzas 2000,19.495764212626657,-99.12300665703688,Pizza Place
19.49740192,-99.12782737923985,666.6666666666666,5116bdade4b066680cab1b5a,Squash Evolution,19.49555881703044,-99.12316854542239,Athletics & Sports
19.49740192,-99.12782737923985,666.6666666666666,4ceedaf44cd4236a83c0af63,Cafe Javier's,19.49609096823045,-99.12632106322725,Coffee Shop
19.49740192,-99.12782737923985,666.6666666666666,5b538727dff815002caea52c,Alingo Lingo,19.495707,-99.126051,Mexican Restaurant
19.49740192,-99.12782737923985,666.6666666666666,4e3a01fd483b3f951fc28de2,LeCaroz,19.495105482967507,-99.12532053824467,Bakery
19.49740192,-99.12782737923985,666.6666666666666,4d701215b73bb1f7cee1b372,Tianguis de los Jueves (Lindavista),19.493873630282156,-99.12832924967434,Market
19.49740192,-99.12782737923985,666.6666666666666,4cf15d29899c6ea83023f0c1,Arracheras La Silla,19.495346079910135,-99.12546493829247,Steakhouse
19.49740192,-99.12782737923985,666.6666666666666,592de5a5d0a1495f696ab029,Waikiki's,19.49493,-99.124765,Burger Joint
19.49740192,-99.12782737923985,666.6666666666666,5b36e623135b39002cdd1582,La Octava Café,19.494043,-99.127342,Café
19.49740192,-99.12782737923985,666.6666666666666,4f08e50ae4b071c57608958a,Restaurante King's,19.499437,-99.127099,Chinese Restaurant
19.49740192,-99.12782737923985,666.6666666666666,56c379c2cd10588a1308018b,El Punto Cubano,19.495286775039254,-99.12542859018524,Caribbean Restaurant
19.49740192,-99.12782737923985,666.6666666666666,55f4a95f498e478fc74b04b6,Cherry cakes,19.495708545324586,-99.12582649548771,Deli / Bodega
19.49740192,-99.12782737923985,666.6666666666666,562a91e3498e20b9ac5dbf19,"Family Beto's & Moncho's Grill, Beer And Snack House",19.49523707619915,-99.12528852603148,BBQ Joint
19.49740192,-99.12782737923985,666.6666666666666,545900bb498eeacb314b1a99,Spa Santè,19.4923177215732,-99.1254813002877,Spa
19.49740192,-99.12782737923985,666.6666666666666,5318e3a5498ebf83e8b7b41f,El Maná,19.494976095056153,-99.12536348943624,Diner
19.49740192,-99.12782737923985,666.6666666666666,4ebf5c26d3e3700a5b5bbd12,Tortas Las Regias,19.500946795438175,-99.13100612416645,Sandwich Place
19.49740192,-99.12782737923985,666.6666666666666,51f720aa498e4d377b7f409b,"""Los Hojaldres"" Empanadas y café",19.494169508072034,-99.12756423836002,Tea Room
19.49740192,-99.12782737923985,666.6666666666666,4f6cb714e4b0e3b3bc431d9b,Cocina Laurita,19.493587955104537,-99.12386846135786,Restaurant
19.49740192,-99.12782737923985,666.6666666666666,4e7ccc3f45dd8fb5f2d59138,Armonía Café,19.500207636431824,-99.13171207085216,Diner
19.49740192,-99.12782737923985,666.6666666666666,4e335518d164be7ec599322e,Pays Coronado,19.49591760464412,-99.13350968933212,Bakery
19.49740192,-99.12782737923985,666.6666666666666,50393344e4b021b4797734e5,Los Pollos del Poli,19.49539702197069,-99.13274093921648,Fried Chicken Joint
19.49740192,-99.12782737923985,666.6666666666666,4dc071cd93a0b5a1562c4cde,Vegetariano Lindavista,19.49393435947428,-99.13297558905403,Vegetarian / Vegan Restaurant
19.49740192,-99.12782737923985,666.6666666666666,5057a42fe4b01ed4df2ad81f,Cafeteria Hospital Mig,19.491628026254794,-99.12657795982581,Coffee Shop
19.49740192,-99.12782737923985,666.6666666666666,4f639b1fe4b02ac2c4410b23,Tianguis lindavista,19.502377427646298,-99.13106363306547,Ice Cream Shop
19.49740192,-99.12782737923985,666.6666666666666,4d758e9c04666ea811f03db6,Fitness & Beauty Studio,19.492394417922185,-99.12583996927631,Yoga Studio
19.50189792,-99.13514744164482,666.6666666666666,4e838c50d3e3c0c16a5a3a9c,Alberca IPN Zacatenco,19.50009232237145,-99.13784595597242,Pool
19.50189792,-99.13514744164482,666.6666666666666,4e727352d1648a7bec96a85a,La Michoacana,19.50576760974364,-99.13450841262542,Ice Cream Shop
19.50189792,-99.13514744164482,666.6666666666666,4ce0725a70bba1cd8f6b6cc4,Centro Cultural Jaime Torres Bodet,19.496067394953474,-99.13524104360161,Cultural Center
19.50189792,-99.13514744164482,666.6666666666666,4ce6eb5cf3bda143e7c8aee4,kftria 4,19.49980823544187,-99.13362979888916,College Cafeteria
19.50189792,-99.13514744164482,666.6666666666666,4f2b51a6e4b071decfe94c44,Las Aplastadas,19.50458307954289,-99.1344341693186,Taco Place
19.50189792,-99.13514744164482,666.6666666666666,5097e65ce4b08c7bed27dc5a,Cafeteria 4,19.49920546545976,-99.134206359572,Coffee Shop
19.50189792,-99.13514744164482,666.6666666666666,563d0478cd10f3a32468239b,Lost Arrachera,19.502086,-99.13117,BBQ Joint
19.50189792,-99.13514744164482,666.6666666666666,4bf1480ca09076b046d429d4,Hamburguesas al carbon (SERVISNTE),19.502723869469136,-99.13066740254926,Burger Joint
19.50189792,-99.13514744164482,666.6666666666666,4ebac2d88231b64f34e9abbd,Plaza Lázaro Cárdenas - IPN Zacatenco,19.49593357267867,-99.13487895668938,College Quad
19.50189792,-99.13514744164482,666.6666666666666,4f0c8e3be4b0c67b4506f66a,Auditorio Jaime Torres Bodet,19.49621379209204,-99.13501406355445,Indie Theater
19.50189792,-99.13514744164482,666.6666666666666,4d04df32a2685481eb23babd,Auditorio El Queso,19.496150736173757,-99.135301482502,Theater
19.50189792,-99.13514744164482,666.6666666666666,4d7d385a79c4b1f7537c09f3,Sushi Itto,19.50374355061386,-99.1378243380933,Sushi Restaurant
19.50189792,-99.13514744164482,666.6666666666666,508f1c2ee4b0d3ece74f1245,Domino's Pizza,19.499125737664105,-99.13371164288085,Pizza Place
19.50189792,-99.13514744164482,666.6666666666666,53c03507498e95ba02818d60,Tacos de Arrachera,19.502071018248895,-99.13118211570271,BBQ Joint
19.50189792,-99.13514744164482,666.6666666666666,4fb6bef8e4b0cb2f0b983630,Cafetería  ESIQIE,19.50143763167767,-99.13396564026834,Diner
19.50189792,-99.13514744164482,666.6666666666666,4d62b13029ef236a4accbe59,Kftria4 EZ,19.49917980803491,-99.13422890289335,Fast Food Restaurant
19.50189792,-99.13514744164482,666.6666666666666,4d21008bdd6a236aab323c38,Domino's Pizza,19.497896554647618,-99.13051242572428,Pizza Place
19.50189792,-99.13514744164482,666.6666666666666,50facde5e4b0c86728a39dea,Tocheros 5,19.503808171120397,-99.13797025889079,Football Stadium
19.50189792,-99.13514744164482,666.6666666666666,4eed6b0ab634f754434c78e4,Centro Cultural Y Deportivo SEGOB,19.506719063163306,-99.1355904347852,Event Space
19.50189792,-99.13514744164482,666.6666666666666,52a362ca11d21f22e44ebd8b,Canchas de Futbol 7 Zacatenco,19.501396053884324,-99.13661915057358,Soccer Field
19.50189792,-99.13514744164482,666.6666666666666,4ea867ba2c5b8e25be764fc2,B-sutto Sushi,19.49663620295295,-99.13240071527433,Sushi Restaurant
19.50189792,-99.13514744164482,666.6666666666666,4b05870bf964a5200e7d22e3,Funny Land,19.500942020464905,-99.1312401938988,Gaming Cafe
19.50189792,-99.13514744164482,666.6666666666666,4ea72956b8f7ff211a5b9407,Barras Zacatenco,19.499238421606982,-99.13802300664446,Gym
19.50189792,-99.13514744164482,666.6666666666666,517098e3e4b0bd1115f8bd07,Campo de Pieles Rojas,19.503631982142334,-99.1388133620436,Football Stadium
19.50189792,-99.13514744164482,666.6666666666666,4f14810ee4b0865b0aa75e55,Garnachas De La Esquina,19.50652528791498,-99.13148514712606,Taco Place
19.50189792,-99.13514744164482,666.6666666666666,4d2a4ddf77a2a1cd958973b7,Domino's Pizza,19.496895053003318,-99.13234264987568,Pizza Place
19.49740192,-99.1424675040498,666.6666666666666,4d488151b07c59419f5e555b,La Puerta Negra,19.498340629522012,-99.14569487932386,Mexican Restaurant
19.49740192,-99.1424675040498,666.6666666666666,5439a900498e06241fe7c4f2,La Mesa de Mosha,19.498109165575936,-99.14547443389893,Restaurant
19.49740192,-99.1424675040498,666.6666666666666,51b28952498ee77be35206a5,Quesadillas Señora Gloria,19.493003902723068,-99.14334761987986,Taco Place
19.49740192,-99.1424675040498,666.6666666666666,5170891a498ebc99d217cd8c,Pan & Kfé,19.498791304627083,-99.14666890442159,Coffee Shop
19.49740192,-99.1424675040498,666.6666666666666,504cb22fe4b0985ffe31cefa,Edificio Constelaciones,19.496644580455367,-99.13963485571314,Planetarium
19.49740192,-99.1424675040498,666.6666666666666,4c0bfd5a7e3fc9285c23f682,Planetario Luis Enrique Erro,19.496583189972092,-99.1398715879155,Planetarium
19.49740192,-99.1424675040498,666.6666666666666,51f92091498e60539b223289,Crossfit 13CEROUNO,19.492882257067418,-99.14400398569235,Athletics & Sports
19.49740192,-99.1424675040498,666.6666666666666,5104153be4b0584e2a1386e8,Don Chema,19.49311585775127,-99.14265645756784,Mexican Restaurant
19.49740192,-99.1424675040498,666.6666666666666,4c5797606418a59320e07f0e,Chato Chelas,19.492645800090177,-99.14345900525177,Beer Garden
19.49740192,-99.1424675040498,666.6666666666666,4d2a0040ec272d43a2b2374c,Hamburguesas al Carbon,19.4930404539152,-99.14666731018946,Burger Joint
19.49740192,-99.1424675040498,666.6666666666666,521b6c6611d21bc0900238f5,Planetario Lus Enrique Ero,19.495926418290292,-99.13958621440567,Planetarium
19.49740192,-99.1424675040498,666.6666666666666,4cd4e0e82944b1f72af859ec,El Desván,19.493161319835284,-99.14520808437022,Bar
19.49740192,-99.1424675040498,666.6666666666666,4ea1e139722ec75ade0c2f5d,Mar Azul DUKA,19.492994792811608,-99.14384358614744,Seafood Restaurant
19.49740192,-99.1424675040498,666.6666666666666,527fd8ed11d2a61a99e62d02,Pancita Mary,19.493002296982898,-99.14211560160396,Mexican Restaurant
19.49740192,-99.1424675040498,666.6666666666666,4c549d464623be9a51020df3,El gusto jarocho,19.49400575861429,-99.14587840782879,Seafood Restaurant
19.49740192,-99.1424675040498,666.6666666666666,4eda86530aaf49e029bfd3b2,Birriería La Jalisciense,19.49228479760147,-99.14079459811748,Mexican Restaurant
19.49740192,-99.1424675040498,666.6666666666666,50a6a5d3e4b0921697089962,Taquería El May,19.493722579176744,-99.14549603181365,Taco Place
19.49740192,-99.1424675040498,666.6666666666666,558190e0498eda267da9e24d,Vista Fitness Center,19.492948600969942,-99.14399938984005,Athletics & Sports
19.49740192,-99.1424675040498,666.6666666666666,4d45e8d23616b60cd705f3c2,Camellon Wilfrido Massieu,19.493639353741212,-99.13970991954687,Dog Run
19.49740192,-99.1424675040498,666.6666666666666,4d6fca939aac224b7d2d32ed,Parque Atepehuacan (Lindavista),19.49630408680715,-99.14586659218968,Park
19.49740192,-99.1424675040498,666.6666666666666,4bdd4079ea279c744a3be22b,Hiperlumen,19.494242391489294,-99.14774693385125,Paper / Office Supplies Store
19.49740192,-99.1424675040498,666.6666666666666,4c420846e26920a1ef695fe7,Mercado San Bartolo Atepehuacan,19.491857362790064,-99.1406039539651,Farmers Market
19.49740192,-99.1424675040498,666.6666666666666,567f6f07498e759f8d40ebeb,Wing Stop Lindavista,19.496318702698634,-99.14243988779619,Wings Joint
19.49740192,-99.1424675040498,666.6666666666666,4ce300fef4d78eec29738ce5,El Rincón Poblano,19.497654744332234,-99.1460554101897,Mexican Restaurant
19.49740192,-99.1424675040498,666.6666666666666,4f09c771e4b0596c9005b30a,Los ahuehuetes,19.493607151558145,-99.14551759693899,Mexican Restaurant
19.49740192,-99.1424675040498,666.6666666666666,4ce850f6f3bda143d7beb8e4,La Reyna de Montevideo,19.493186874939497,-99.14571448486936,Taco Place
19.49740192,-99.1424675040498,666.6666666666666,4c718224fa49a1cd0d24a9e3,El Campirano,19.492943380106052,-99.1454974453515,Mexican Restaurant
19.49740192,-99.1424675040498,666.6666666666666,500470fbe4b0a7c213cc1e91,Gooldy Gym,19.492883240098713,-99.143953656528,Gym
19.49740192,-99.1424675040498,666.6666666666666,4be7867a0e5a9c74dac38eea,Charco de las Ranas,19.493327543107792,-99.14556142756764,Taco Place
19.49740192,-99.1424675040498,666.6666666666666,4d375cb595c7b60c3eb7d695,La Vache,19.49514995445605,-99.13745516562552,Molecular Gastronomy Restaurant
19.49740192,-99.1424675040498,666.6666666666666,4e299dc318384dd0a0ecfdeb,Birrieria la jalisience,19.492787570927327,-99.14569592808064,Mexican Restaurant
19.49740192,-99.1424675040498,666.6666666666666,4d8d65e6d4ec8cfaf6875989,Billar Guadalajara,19.492077268573794,-99.14084667795902,Sports Bar
19.49740192,-99.1424675040498,666.6666666666666,4f2ebb92e4b040ea008a9235,La Barbacha,19.496496263477376,-99.14642871543295,Taco Place
19.49740192,-99.1424675040498,666.6666666666666,508003c8e4b0761d0b357174,Oxxo 17 De Mayo,19.492760103292166,-99.1425614160658,Shopping Mall
19.50189792,-99.14978756645478,666.6666666666666,4e74d650aeb780be09f12426,Tianguis de los Sabados,19.49930161330421,-99.15114205789348,Farmers Market
19.50189792,-99.14978756645478,666.6666666666666,519da45a501935d16b68148a,Fitness District Lindavista,19.505659999808426,-99.14994631086367,Gym
19.50189792,-99.14978756645478,666.6666666666666,4d36165b48cdb1f7da14f037,Hamburguesas Al Carbón,19.506414711938824,-99.1468256600537,Burger Joint
19.50189792,-99.14978756645478,666.6666666666666,4b9288b3f964a520d90134e3,Honda Vallejo,19.50413931593122,-99.14980694304914,Automotive Shop
19.50189792,-99.14978756645478,666.6666666666666,55f6cdc2498e91b1b046060d,LUMA Training Center,19.50564241484481,-99.1499265700451,Gym
19.50189792,-99.14978756645478,666.6666666666666,53a4941b498ebd730db60c10,Los Tacos ALPURA,19.498687695984625,-99.15321774621815,BBQ Joint
19.50189792,-99.14978756645478,666.6666666666666,4f0114de29c201c6fe8143b2,Toks,19.506953921820024,-99.14716427169924,Mexican Restaurant
19.50189792,-99.14978756645478,666.6666666666666,504e0429e4b03e4ada546815,Cafetería CIC,19.50325739536036,-99.14745110143937,Coffee Shop
19.50189792,-99.14978756645478,666.6666666666666,55665fa7498eec45a3bdf1a9,v+ bouldering & sport center,19.506515834981407,-99.14786909403617,Mountain
19.50189792,-99.14978756645478,666.6666666666666,4db1ebcffc60cfe27fbe2bc8,Galerías El Triunfo,19.50631398866592,-99.14738865815436,Furniture / Home Store
19.50189792,-99.14978756645478,666.6666666666666,51211274e4b0db6203b722da,"Mercado Lindavista, Vallejo y Patera",19.500922228867477,-99.15284476700829,Market
19.50189792,-99.14978756645478,666.6666666666666,4c13a58b77cea593481dcf60,Star Futbol,19.497927139596968,-99.15231135850162,Soccer Field
19.50189792,-99.14978756645478,666.6666666666666,4cb4750bb4b0a35d215467ce,Los Bisquets Bisquets Obregón,19.505629603381877,-99.15009755420853,Mexican Restaurant
19.50189792,-99.14978756645478,666.6666666666666,51aa46da498e6daa6d08d6ed,Tacos De ESCOM,19.50640288252097,-99.14676382924426,Taco Place
19.50189792,-99.14978756645478,666.6666666666666,54498d02498e2082d833a9de,Italianni's Pasta Pizza & Vino,19.506502644387673,-99.14585837165714,Italian Restaurant
19.50189792,-99.14978756645478,666.6666666666666,51408dd9e4b0a8ecaab2a7a9,Nueva Cafetería ESCOM,19.50453146469108,-99.14747730203084,Coffee Shop
19.50189792,-99.14978756645478,666.6666666666666,4fbc2dade4b04d6c37ac37d7,Av. Miguel Othon,19.50512162909699,-99.15349342761978,Park
19.50189792,-99.14978756645478,666.6666666666666,4fc038c5e4b0a06f8e13703d,Antojitos Los Cuervos,19.504096033802597,-99.15319612418755,Mexican Restaurant
19.50189792,-99.14978756645478,666.6666666666666,4d7ba85334f7721e6e60b625,Mercado Magdalena De La Salinas,19.5049758105066,-99.15359869617542,Deli / Bodega
19.50189792,-99.14978756645478,666.6666666666666,4c9909b578fc236a3f8d2997,Vips,19.506715700421406,-99.1460941063593,Diner
19.49740192,-99.15710762885976,666.6666666666666,4e666c7efa7673d513027a7c,Tacos Vallejo,19.49669277937685,-99.15887395062516,Taco Place
19.49740192,-99.15710762885976,666.6666666666666,532e2b94498e5257cf228899,Hamburguesas al Carbón,19.50262302690968,-99.1573103636466,Burger Joint
19.49740192,-99.15710762885976,666.6666666666666,51141e12e889c419c7d5f7d6,ADAM Lindavista GYM,19.495027225429148,-99.15183327865597,Martial Arts School
19.49740192,-99.15710762885976,666.6666666666666,4bf43fe0e5eba593d76f1f90,Cambalache,19.492937133039252,-99.15987071418688,Argentinian Restaurant
19.49740192,-99.15710762885976,666.6666666666666,4e3d5e231495bf24a5d91e36,Andrea,19.502234322510574,-99.15649123253186,Shoe Store
19.49740192,-99.15710762885976,666.6666666666666,574a51f638faad9e97849ba1,Restaurante Mamma Bella,19.496277,-99.154121,Restaurant
19.49740192,-99.15710762885976,666.6666666666666,4d0d56ea3bbaa143a8423cda,Salon del Sancho,19.494855481015367,-99.15183521992992,Bar
19.49740192,-99.15710762885976,666.6666666666666,511acf0ee4b09aa6f9bfefee,Casanova Rent,19.494571616692166,-99.15943840615512,Rental Car Location
19.49740192,-99.15710762885976,666.6666666666666,5005c5cbe4b06cd60c1452d1,Yves Rocher,19.500602562171107,-99.15792453457304,Cosmetics Shop
19.49740192,-99.15710762885976,666.6666666666666,4e30777ca809711248fea568,Office Depot,19.49389135711187,-99.15307504201502,Paper / Office Supplies Store
19.49740192,-99.15710762885976,666.6666666666666,4eed1f310e01899eff5d3517,Ostioneria Los Cuñados,19.49691947501,-99.15881575115276,Seafood Restaurant
19.49740192,-99.15710762885976,666.6666666666666,4ebf108f77c885a64e20cfd0,Steren,19.500400320119994,-99.15793689400552,Electronics Store
19.49740192,-99.15710762885976,666.6666666666666,5298b8d411d248487712fff6,Price Shoes Vallejo,19.501301772940256,-99.15764497989309,Department Store
19.49740192,-99.15710762885976,666.6666666666666,4edaa07b46907c1b42f7bc65,Levi's Outlet,19.501078705858003,-99.15785287852962,Clothing Store
19.49740192,-99.15710762885976,666.6666666666666,57095275cd1032278a288436,Mara Sport (Gym & Fitness),19.50195267301296,-99.15618170994766,Gymnastics Gym
19.49740192,-99.15710762885976,666.6666666666666,4ce96998e1eeb60c89e3a8ae,Outlet Sears,19.49691804306212,-99.15875573083481,Department Store
19.49740192,-99.15710762885976,666.6666666666666,52a2062511d2b83129aa0c83,Ferrebaños,19.49269728969619,-99.15341316737047,Hardware Store
19.49740192,-99.15710762885976,666.6666666666666,53d3a53a498e891029826352,7- Eleven,19.502145363834742,-99.1575692986301,Convenience Store
19.49740192,-99.15710762885976,666.6666666666666,51c9d652498eba1e4f3c1d9c,Don Gato,19.495890582017836,-99.15152122775696,Brewery
19.49740192,-99.15710762885976,666.6666666666666,508838cae4b0e8252a891ae0,Ofix,19.492921184005933,-99.15984517356154,Paper / Office Supplies Store
19.49740192,-99.15710762885976,666.6666666666666,4d87b2fc76e1236ab5ece242,Handbags Chenson,19.500122464333984,-99.15807455844887,Department Store
19.49740192,-99.15710762885976,666.6666666666666,521a786e11d2b33a469cf93c,Burger King,19.50212146014148,-99.15907753156431,Fast Food Restaurant
19.49740192,-99.15710762885976,666.6666666666666,4edd14916c2547bc65d90df3,Burger King,19.501994559722235,-99.15751524062885,Fast Food Restaurant
19.49740192,-99.15710762885976,666.6666666666666,4d363d2eedbd3704c18968e3,Andre badi@ price center,19.500921618042803,-99.15783958918324,Accessories Store
19.49740192,-99.15710762885976,666.6666666666666,4fccfd4fe4b0b7d24370ddf0,Plaza Punto Vallejo,19.500668494074343,-99.16151022512948,Shopping Mall
19.49740192,-99.15710762885976,666.6666666666666,4c780ec397028cfa6f7ed6fe,OXXO,19.492555299940573,-99.15998572852627,Convenience Store
19.49740192,-99.15710762885976,666.6666666666666,5789552e498e639d727fae5e,Whatshome,19.50238162212932,-99.1572665742928,Furniture / Home Store
19.490081857595023,-99.06926688,666.6666666666666,4d5853ed1901224be28a89a6,El Cangrejo Feliz,19.486218025090874,-99.06965945250215,Seafood Restaurant
19.490081857595023,-99.06926688,666.6666666666666,542e9f62498e2d43b3e58c16,Starbucks,19.488241198982603,-99.06902807996242,Coffee Shop
19.490081857595023,-99.06926688,666.6666666666666,509878afe4b0a57b92ca6f7f,Latte Cafe,19.488411702095686,-99.06344096739544,Coffee Shop
19.490081857595023,-99.06926688,666.6666666666666,4f47bce2e4b01d17b8e6c637,Torres GYM,19.491087683687837,-99.07269921388956,Gym
19.490081857595023,-99.06926688,666.6666666666666,5085cecbe4b027b4fac1c3c8,Antojitos Isi,19.492032921365944,-99.06394996200619,Mexican Restaurant
19.490081857595023,-99.06926688,666.6666666666666,4f66b880e4b02cbb81190c4b,LeCaroz,19.49197931796286,-99.07401098674178,Bakery
19.490081857595023,-99.06926688,666.6666666666666,4cbb36d09552b60c26b6de8b,Las Migas,19.48676266333133,-99.06953638354497,Mexican Restaurant
19.490081857595023,-99.06926688,666.6666666666666,55f2d188498edb125fb1c047,Farmacia San Pablo San Felipe,19.49221068190104,-99.07463540940125,Pharmacy
19.490081857595023,-99.06926688,666.6666666666666,4e41d030c65b782238e90d41,Galeria Coffee Shop,19.490716843378515,-99.06468837626632,Café
19.490081857595023,-99.06926688,666.6666666666666,54171c0f498ea7bb8c42a060,Las Delicias de San Marcos,19.488857621926865,-99.06918001836384,Mexican Restaurant
19.490081857595023,-99.06926688,666.6666666666666,4ec7d5b36da1d1092efc522c,Pozolería Jalisco,19.486630423542096,-99.06954646322824,Mexican Restaurant
19.490081857595023,-99.06926688,666.6666666666666,5778859b38fad73631a1d4f5,Alitas 257,19.489869,-99.067171,Wings Joint
19.490081857595023,-99.06926688,666.6666666666666,4d2a0bc9342d6dcb7dea08cb,"Birrieria ""El Guero""",19.49089867483882,-99.07173342984775,Mexican Restaurant
19.494577857595022,-99.07658694240499,666.6666666666666,50914f64e4b0a324282fcb3b,Los chundos,19.49389823573996,-99.07659273102765,Mexican Restaurant
19.494577857595022,-99.07658694240499,666.6666666666666,5623fb9f498eec470dc27b9b,Mercado Sanfe,19.493557557655265,-99.07652012674966,Market
19.494577857595022,-99.07658694240499,666.6666666666666,51c3061f498e5eae021c744c,Club Acuático Splash,19.48966442036996,-99.07871988904765,Pool
19.494577857595022,-99.07658694240499,666.6666666666666,50cbe4bae4b026936420f285,"Huaraches Y Gorditas ""Huarachin Y Huarachon""",19.490552853352984,-99.0761327840744,Mexican Restaurant
19.494577857595022,-99.07658694240499,666.6666666666666,5144f676e4b0c80a3454033b,"Ostioneria ""La Rivera""",19.494699032416406,-99.0787483286913,Seafood Restaurant
19.494577857595022,-99.07658694240499,666.6666666666666,56ac2323498ec8e20275a6a3,Bodega Aurrera Express,19.497053,-99.076706,Convenience Store
19.494577857595022,-99.07658694240499,666.6666666666666,4f07ca22e4b0a2229a3613c1,Terminal trolebus San Felipe de Jesus - Metro Hidalgo,19.4976602,-99.0725051,Light Rail Station
19.494577857595022,-99.07658694240499,666.6666666666666,4f7145c1e4b090ee3e6c3e16,Quesadillas de la esquina,19.491606787720215,-99.08179965174627,Taco Place
19.494577857595022,-99.07658694240499,666.6666666666666,5689b771498e85bff09ae014,Comercial Castellanos,19.500183,-99.075014,Stationery Store
19.490081857595023,-99.08390700480996,666.6666666666666,517607d1e4b0ddc2569db7d2,alitas y costillas pelon,19.488416416822158,-99.08545127877406,Fried Chicken Joint
19.490081857595023,-99.08390700480996,666.6666666666666,53540bd0498efe94eed53af0,Huaraches Doña Bertha,19.490111786838483,-99.08794450734149,Mexican Restaurant
19.490081857595023,-99.08390700480996,666.6666666666666,5744c871498e54231dc718ac,Estética NewLook,19.489764263358097,-99.09008692587422,Health & Beauty Service
19.490081857595023,-99.08390700480996,666.6666666666666,4ee28da76c252ff3c58b0dd5,Chirris restaurant,19.49145610768748,-99.07782485398675,Mexican Restaurant
19.494577857595022,-99.09122706721494,666.6666666666666,53aef1a2498e4de5ea77f907,Cafetería y Pozolería Rayarth,19.49315925900458,-99.09000835376955,Breakfast Spot
19.494577857595022,-99.09122706721494,666.6666666666666,4f75365be4b0c0edd551a634,LeCaroz,19.493495084069522,-99.09123592497772,Bakery
19.494577857595022,-99.09122706721494,666.6666666666666,4fd40141e4b0296d1ebc35b1,Micheladas La Pele,19.49237058813039,-99.09002988463696,Brewery
19.494577857595022,-99.09122706721494,666.6666666666666,53153fb9498e3e4c6f62fbab,Club Molina Sport,19.493354788670178,-99.09289689872082,Sports Club
19.494577857595022,-99.09122706721494,666.6666666666666,4fc29143e4b089f18c759635,Parque Camellón Eduardo Molina,19.49167610196525,-99.09596892577618,Playground
19.494577857595022,-99.09122706721494,666.6666666666666,54676655498e762c1da56664,Club Sport Molina,19.493363108609753,-99.09292567653375,Gym
19.494577857595022,-99.09122706721494,666.6666666666666,5277159311d277bda44708c4,House of Wings,19.493547,-99.093583,Wings Joint
19.494577857595022,-99.09122706721494,666.6666666666666,512ece1fe4b0ac135b0056dc,El taquito famoso,19.491906929131524,-99.08946357901063,Taco Place
19.494577857595022,-99.09122706721494,666.6666666666666,51aa1f00498e44425d5a67a5,Gimnasio De Boxeo,19.492397255775096,-99.09401691682784,Athletics & Sports
19.494577857595022,-99.09122706721494,666.6666666666666,567ece1d498ec9459e673ea9,"Taquería ""El Güero""",19.4908237992446,-99.08955539943153,Taco Place
19.494577857595022,-99.09122706721494,666.6666666666666,55f61725498e324dc1b53d95,Heladería y Paletería La Michoacana,19.49674968957505,-99.08754098811416,Ice Cream Shop
19.494577857595022,-99.09122706721494,666.6666666666666,5208e94e11d2e16e327d0476,Centro de Acondicionamiento Fisico,19.48992241404415,-99.09335793605221,Gym
19.494577857595022,-99.09122706721494,666.6666666666666,516b4526e4b0fe7fb7a03c00,Elektra Centenario,19.498891573344277,-99.09524846928346,Furniture / Home Store
19.490081857595023,-99.09854712961992,666.6666666666666,4cb51c19589f236ab52e2e3d,Gimnasio Tres 420,19.48887681231173,-99.09884612040233,Gym
19.490081857595023,-99.09854712961992,666.6666666666666,4eadb2e94690615f26b53f00,Caldos de Gallina El gran Chaparral,19.489401257378308,-99.10044040131667,Restaurant
19.490081857595023,-99.09854712961992,666.6666666666666,5167844f498e15724ed93a93,"Caldos de gallina"" La guera tina """,19.489490578411115,-99.10391848897311,Mexican Restaurant
19.490081857595023,-99.09854712961992,666.6666666666666,53c981be498e10c40af52807,Taqueria Arandas,19.48722881060045,-99.09481370532966,Taco Place
19.490081857595023,-99.09854712961992,666.6666666666666,4f2d7a55e4b04297f753f4f5,Tianguis Sabatino col. Constitución de la republica,19.48477377663372,-99.09797981300707,Plaza
19.490081857595023,-99.09854712961992,666.6666666666666,535682ea498ea7694ecb5406,El Rincón Oaxaqueño,19.488178558444517,-99.09777209185307,Mexican Restaurant
19.490081857595023,-99.09854712961992,666.6666666666666,4bd8af9311dcc9285755f733,Toks,19.486464162115727,-99.0942680764331,American Restaurant
19.490081857595023,-99.09854712961992,666.6666666666666,4f1b11b7e4b0f271e6470531,Caldos De Gallina El Tio Chon,19.490099627129478,-99.10319171962516,Restaurant
19.490081857595023,-99.09854712961992,666.6666666666666,500c3ed7e4b0938453b27ea6,Mercado de la Díaz Mirón,19.487838137585754,-99.09911069802004,Flea Market
19.490081857595023,-99.09854712961992,666.6666666666666,4f1ff976e4b0512ede1c5ea8,Mara Sport,19.49061458747755,-99.10024803380111,Gym / Fitness Center
19.490081857595023,-99.09854712961992,666.6666666666666,55f87202498e5a08ab515fd3,Starbucks Reforma 342,19.49086831183011,-99.0998021377433,Coffee Shop
19.490081857595023,-99.09854712961992,666.6666666666666,5b97bfb566f3cd002c9dc516,Shell,19.49121363,-99.09979036,Gas Station
19.490081857595023,-99.09854712961992,666.6666666666666,4ce8d7bb595cb1f7e48ccb14,Taquería Arandas,19.487197314415617,-99.09489709090603,Mexican Restaurant
19.490081857595023,-99.09854712961992,666.6666666666666,521c56b0bce6eb4cc0c9c091,Aurrera,19.489547807033244,-99.10350859165192,Grocery Store
19.494577857595022,-99.1058671920249,666.6666666666666,502080fee4b0347bade822c5,"""La Glorieta"" Martin Carrera",19.48886953947914,-99.10705231474016,Food Court
19.494577857595022,-99.1058671920249,666.6666666666666,50e7b2f8e4b044a7681857be,"El Güero, Tacos",19.49050172589924,-99.11021767399492,Mexican Restaurant
19.490081857595023,-99.11318725442987,666.6666666666666,4e511dbd45ddff0031d6fcd7,Cerro del Tepeyac,19.485935606742395,-99.11616991122591,Mountain
19.490081857595023,-99.11318725442987,666.6666666666666,4c08751e7e3fc9282878f082,INKNM tattoo,19.48737686929269,-99.1126135681725,Tattoo Parlor
19.490081857595023,-99.11318725442987,666.6666666666666,4deef66b227170314b992199,Helados Hawaii,19.48736193188618,-99.11213954377479,Ice Cream Shop
19.490081857595023,-99.11318725442987,666.6666666666666,4d3d2488457cb60ced93f5a4,Tao Games,19.487408484979742,-99.11225277949076,Hobby Shop
19.490081857595023,-99.11318725442987,666.6666666666666,4dc92d071838e695fbe27615,Palladium Fitness Center,19.488383816344925,-99.10898538959549,Gym
19.490081857595023,-99.11318725442987,666.6666666666666,4ea9fc7e4901584489556829,Chocolate Milk Bar,19.488893078145956,-99.10837786663994,Diner
19.490081857595023,-99.11318725442987,666.6666666666666,4b058700f964a520ae7a22e3,Museo de la Basílica de Guadalupe,19.485778517976197,-99.11680881176164,Museum
19.490081857595023,-99.11318725442987,666.6666666666666,4dc21de0d1643ed27a493230,Mi Ranchito,19.487510859305154,-99.11176349019479,Mexican Restaurant
19.490081857595023,-99.11318725442987,666.6666666666666,4e445d0d7d8bee28239c9f13,Mega Soriana,19.4895333561621,-99.11889506943483,Supermarket
19.490081857595023,-99.11318725442987,666.6666666666666,5276dd7d498e88a72d25b48f,El Marisquito,19.48860406773462,-99.10726790792665,Seafood Restaurant
19.494577857595022,-99.12050731683486,666.6666666666666,4bdb4b4d2a3a0f47f752aeb6,Monte Cristo,19.49207780704912,-99.12092659607386,Mexican Restaurant
19.494577857595022,-99.12050731683486,666.6666666666666,502d4a74e4b0b5d01c2741a2,Yvon Spa,19.49473718905011,-99.11929996443713,Spa
19.494577857595022,-99.12050731683486,666.6666666666666,57052d13498e1a0085cde16c,Toks,19.490791326022546,-99.11978509262202,Coffee Shop
19.494577857595022,-99.12050731683486,666.6666666666666,4e0e6e1ad164fff335abbebf,Sushi Itto,19.494742294352818,-99.1205211007236,Sushi Restaurant
19.494577857595022,-99.12050731683486,666.6666666666666,4ed122a99adf254457c67146,Hamburguesas El Lic,19.491096905294572,-99.12446495125874,Burger Joint
19.494577857595022,-99.12050731683486,666.6666666666666,4d3e0693457cb60c2307fda4,Acto Dance Studio,19.491594725233227,-99.124723113768,Dance Studio
19.494577857595022,-99.12050731683486,666.6666666666666,4eb1bff0e3008b2901a60871,Hotel & Villas Juan Diego,19.48994593156253,-99.12051569742455,Bed & Breakfast
19.494577857595022,-99.12050731683486,666.6666666666666,4f81bff9e4b09a1478049c42,Luna Caffe,19.492709659496864,-99.12374181361545,Coffee Shop
19.494577857595022,-99.12050731683486,666.6666666666666,4ec7ee3ce5fa232a75b28955,Jardin Lindavista,19.493268416765666,-99.12370788731515,Garden
19.494577857595022,-99.12050731683486,666.6666666666666,530bd2ca498ef8c56716c974,Baby Ballet Lindavista,19.491461013809648,-99.12478827442337,Country Dance Club
19.494577857595022,-99.12050731683486,666.6666666666666,5af9f42a62845c00246e2bc3,Tacos De Carnitas El Guero,19.495139878647002,-99.1195936469599,BBQ Joint
19.494577857595022,-99.12050731683486,666.6666666666666,4d4b2b556202f04d315b0858,La Sevillana,19.493986934525363,-99.12426829089958,Supermarket
19.494577857595022,-99.12050731683486,666.6666666666666,4f4920e8e4b0a69abcf0d21f,Frutas del Tepeyac,19.49083719251784,-99.12426696415697,Juice Bar
19.494577857595022,-99.12050731683486,666.6666666666666,4f496ae2e4b0ecdacfaf21fb,Papas fritas y mugrosas Indios Verdes,19.49325064096463,-99.1210398191327,Food Court
19.494577857595022,-99.12050731683486,666.6666666666666,4f5ce0fee4b0695cbb7681ba,Javier's Pasteleria y Reposteria Fina,19.49607782090665,-99.12634628582919,Diner
19.494577857595022,-99.12050731683486,666.6666666666666,4cc73848caa5a1cd706f96e7,Hawaiian Paradise,19.49154091960012,-99.12478136943025,Restaurant
19.494577857595022,-99.12050731683486,666.6666666666666,51ce2e02498e9830f3cc0920,Churreria Mexico,19.493835,-99.124143,Snack Place
19.494577857595022,-99.12050731683486,666.6666666666666,4fe213cae4b0f27f284aac20,Spa MaryLiz,19.489525513741558,-99.12287526558842,Spa
19.494577857595022,-99.12050731683486,666.6666666666666,50101cf3e4b0c06369fd2ecb,Happy Market,19.496985535508347,-99.12618395902501,Candy Store
19.494577857595022,-99.12050731683486,666.6666666666666,4e60ecc7d22d509a38f22c87,Mercado Indios Verdes,19.494565066688946,-99.120802072777,Gourmet Shop
19.494577857595022,-99.12050731683486,666.6666666666666,54909b5a498e1e106bc7a094,La Carcacha,19.49226589069382,-99.12236905043306,Restaurant
19.494577857595022,-99.12050731683486,666.6666666666666,57a7a3a9498e0e2f4512598c,royal rizzo lindavista,19.491578298550362,-99.1212986499136,Event Service
19.494577857595022,-99.12050731683486,666.6666666666666,4e336ec552b11c74622315e5,Antojeria Sopetaco,19.49280552441756,-99.11740345793469,Fast Food Restaurant
19.494577857595022,-99.12050731683486,666.6666666666666,572fc8a9498eb9b0972cd0f7,Toks,19.490748,-99.119626,Bistro
19.494577857595022,-99.12050731683486,666.6666666666666,512ff138e4b0cd2aa690b118,El Timbal,19.489304,-99.123115,Restaurant
19.490081857595023,-99.12782737923985,666.6666666666666,551c2bf6498e1cf926bbbe0e,Cielito Querido Café,19.48887656438045,-99.12799238963419,Café
19.490081857595023,-99.12782737923985,666.6666666666666,4c252268f7ced13a730b246d,Tommy Pizzas,19.48875903349226,-99.12856867322168,Pizza Place
19.490081857595023,-99.12782737923985,666.6666666666666,4d83e4cde83fa143696e57a1,Tepoznieves,19.489817564136533,-99.12573459240447,Ice Cream Shop
19.490081857595023,-99.12782737923985,666.6666666666666,4c28abf69fb5d13a30e29957,El Globo,19.489224961672388,-99.1288214498187,Bakery
19.490081857595023,-99.12782737923985,666.6666666666666,4b604fc2f964a52000df29e3,Starbucks,19.489694826135246,-99.1303098515815,Coffee Shop
19.490081857595023,-99.12782737923985,666.6666666666666,4d3671291b39224baa8a9b87,Tacos al Carbón Safari,19.488217939372365,-99.12664768049628,Taco Place
19.490081857595023,-99.12782737923985,666.6666666666666,4f6e7993e4b01489baa4c3ea,Spa Fashion Pets,19.48906615577472,-99.12495192896996,Pet Store
19.490081857595023,-99.12782737923985,666.6666666666666,4da4ec3ff7b16558260860be,Rejuvenecer Spa,19.488997485342143,-99.12431370647607,Massage Studio
19.490081857595023,-99.12782737923985,666.6666666666666,4c06b5762e80a593098a74f9,Parrilla Danesa,19.490256979900558,-99.13266434390044,Eastern European Restaurant
19.490081857595023,-99.12782737923985,666.6666666666666,5420373a498e451a8f21ad7a,Carl's Jr.,19.488241,-99.124214,Fast Food Restaurant
19.490081857595023,-99.12782737923985,666.6666666666666,4d2770a8467d6ea8a2e9bc95,Vans,19.48578057646163,-99.13039960238414,Boutique
19.490081857595023,-99.12782737923985,666.6666666666666,4b92c76cf964a520ec1a34e3,Fisher's Lindavista,19.486119,-99.12979,Seafood Restaurant
19.490081857595023,-99.12782737923985,666.6666666666666,4ea5eb179a524accd15d6032,La Costa Del Pacifico,19.488535161718683,-99.12412372453528,Seafood Restaurant
19.490081857595023,-99.12782737923985,666.6666666666666,4f3597dbe4b0f4cfdc96a03b,MAC Cosmetics,19.486372602488416,-99.13153072463017,Cosmetics Shop
19.490081857595023,-99.12782737923985,666.6666666666666,4e21d80d45dd950bb0297427,Springfield,19.486525576508978,-99.13070939698218,Men's Store
19.490081857595023,-99.12782737923985,666.6666666666666,599891c1747ecd268b02370f,The Corn-Er,19.486069,-99.13124,Candy Store
19.490081857595023,-99.12782737923985,666.6666666666666,505e4c75e4b0f1d61376f919,P.F. Chang's,19.48550072423954,-99.13046255694188,Chinese Restaurant
19.490081857595023,-99.12782737923985,666.6666666666666,4bef2d95d1b7d13aaf72cdec,Liverpool,19.485994961760973,-99.13112848123782,Department Store
19.490081857595023,-99.12782737923985,666.6666666666666,563eac89cd10a899bfb95d8a,Krispy Kreme,19.486347987625688,-99.12961021765177,Coffee Shop
19.490081857595023,-99.12782737923985,666.6666666666666,4b9d8772f964a5202ab236e3,Dairy Queen,19.48644305219037,-99.13033288312651,Ice Cream Shop
19.490081857595023,-99.12782737923985,666.6666666666666,4d1e1dbf5acaa35d8f2db435,Tommy Hilfiger,19.486416500548188,-99.13150509339049,Clothing Store
19.490081857595023,-99.12782737923985,666.6666666666666,4c6d9e7a6af58cfa5f028a17,Beer Factory,19.48704688998127,-99.12497475040414,Brewery
19.490081857595023,-99.12782737923985,666.6666666666666,4b058700f964a520907a22e3,Parque Lindavista,19.48625264255256,-99.13061510131351,Shopping Mall
19.490081857595023,-99.12782737923985,666.6666666666666,4e8cc21929c2f3881217d757,Converse,19.486392079418426,-99.13150732622641,Shoe Store
19.490081857595023,-99.12782737923985,666.6666666666666,4dab134c5da3ba8a4798c303,Massimo Dutti,19.485817053793447,-99.13029806838212,Clothing Store
19.490081857595023,-99.12782737923985,666.6666666666666,57d4582bcd1076ef271b0c62,El Pescadito,19.49123613522448,-99.13379128842855,Seafood Restaurant
19.490081857595023,-99.12782737923985,666.6666666666666,562d5394498e4481d91fa509,La Picanteria,19.491464125358487,-99.13362972679256,Seafood Restaurant
19.490081857595023,-99.12782737923985,666.6666666666666,55778fc6498ed0da603c7f38,Parque Deportivo Miguel Alemán,19.485426534006297,-99.12536879911548,Recreation Center
19.490081857595023,-99.12782737923985,666.6666666666666,4ba9529bf964a520c21e3ae3,Sport City Entrenna,19.485785416360137,-99.12967511069596,Gym / Fitness Center
19.490081857595023,-99.12782737923985,666.6666666666666,564fbfe8498e3172273b6b5a,La Casa de Toño,19.491136593940638,-99.13365446109052,Mexican Restaurant
19.490081857595023,-99.12782737923985,666.6666666666666,4e591523483b865169d9583f,IHOP,19.48558277468397,-99.13042218993441,Breakfast Spot
19.490081857595023,-99.12782737923985,666.6666666666666,4d0d60483bbaa1431e873cda,Cassava Roots,19.486412601191663,-99.13152175516657,Tea Room
19.490081857595023,-99.12782737923985,666.6666666666666,5c1a8adb92e7a9002c41ea8c,Click & Collect Liverpool,19.486087,-99.13135,Department Store
19.490081857595023,-99.12782737923985,666.6666666666666,4b92c8ccf964a5206b1b34e3,Starbucks,19.48652302335069,-99.13057374913907,Coffee Shop
19.490081857595023,-99.12782737923985,666.6666666666666,4d69309d2acd6ea84fd636c0,La Memelas De Quito,19.493599342669246,-99.13278992261218,Mexican Restaurant
19.490081857595023,-99.12782737923985,666.6666666666666,50f4a85fe4b0ebb8043e36ed,Veterinaria SHA,19.49350496755535,-99.13270466831598,Pet Store
19.490081857595023,-99.12782737923985,666.6666666666666,4d6a81ab4c4637044a0bb1b3,Lynis Lindavista,19.48967213629155,-99.13358790038694,Snack Place
19.490081857595023,-99.12782737923985,666.6666666666666,4ba2ea44f964a5204c2238e3,Superama,19.49051161615644,-99.13389092004174,Supermarket
19.490081857595023,-99.12782737923985,666.6666666666666,4d8e5bedcb9b224b15ea8241,Economicopias,19.493327437987887,-99.13302440531024,Paper / Office Supplies Store
19.490081857595023,-99.12782737923985,666.6666666666666,55184229498e3df96a133c1d,La Cochinita Sobre Ruedas,19.494152326826242,-99.12771861952068,Mexican Restaurant
19.490081857595023,-99.12782737923985,666.6666666666666,4cb205db562d224bcd8b2388,Santa Clara Lindavista,19.493959939688022,-99.12724920906923,Ice Cream Shop
19.490081857595023,-99.12782737923985,666.6666666666666,52f65a90498e828c3b02c217,pista 400 metros Deportivo MIGUEL ALEMAN,19.49360700686402,-99.12778823834911,Athletics & Sports
19.490081857595023,-99.12782737923985,666.6666666666666,50be828ee4b0a749d18fce97,Liga Lindavista,19.49303738469087,-99.12875261997655,Baseball Field
19.490081857595023,-99.12782737923985,666.6666666666666,4cdf12da41ed224b941cdd3c,La Michoacana,19.494346183555226,-99.12760453970128,Dessert Shop
19.490081857595023,-99.12782737923985,666.6666666666666,4d2f3ff1bb73a090e6b355dc,Extra,19.49326771924876,-99.13041120317723,Convenience Store
19.490081857595023,-99.12782737923985,666.6666666666666,567764a2498eb1a18672e6c5,Farmacia Benavides lindavista,19.488173,-99.123281,Pharmacy
19.490081857595023,-99.12782737923985,666.6666666666666,52f5391e498e74c28a45bafd,Sale & Pepe,19.494218685486143,-99.12784290669592,Italian Restaurant
19.490081857595023,-99.12782737923985,666.6666666666666,52927f59498eeba57af8591a,Oxxo,19.494073,-99.127473,Convenience Store
19.490081857595023,-99.12782737923985,666.6666666666666,4f557bb3e4b03c26b44f6e37,Running Lindavista,19.494155391622133,-99.12799421308317,Track Stadium
19.490081857595023,-99.12782737923985,666.6666666666666,4e98629ae5e883cc4ba6a483,BodyBrite Lindavista,19.493359340328116,-99.1305919242549,Cosmetics Shop
19.490081857595023,-99.12782737923985,666.6666666666666,4d617e5bd439cbffe4d85fba,Lindavista Sports & Gym,19.49351321486408,-99.1327156165247,Gym
19.490081857595023,-99.12782737923985,666.6666666666666,4cd05bd05b5ca35d18747bf0,Sears,19.492707229556824,-99.13344954008336,Hardware Store
19.490081857595023,-99.12782737923985,666.6666666666666,52a2ba3c11d29342542797bb,oxxo,19.48675663160686,-99.12284455318056,Convenience Store
19.490081857595023,-99.12782737923985,666.6666666666666,4e4afe641f6e2a789a828287,The Coffee Shack,19.492468447278178,-99.13276309340827,Breakfast Spot
19.494577857595022,-99.13514744164482,666.6666666666666,4d323c1bb6093704bedbf4df,Taqueria La Michoacana,19.49110965742773,-99.13571844779106,Taco Place
19.494577857595022,-99.13514744164482,666.6666666666666,4d2640e3068e8cfa60a8ae4c,Pepe Lunch,19.491196461758545,-99.13580226983895,Mexican Restaurant
19.494577857595022,-99.13514744164482,666.6666666666666,4c1a683463750f47ec3eb367,Sant Yago,19.491369392827227,-99.13613026649715,Spanish Restaurant
19.494577857595022,-99.13514744164482,666.6666666666666,4deb27351f6e3ddebde01446,Tacos El Paisa Lindavista,19.49110707399996,-99.13590427894128,Taco Place
19.494577857595022,-99.13514744164482,666.6666666666666,51a55f32498ef98f3bb5cb50,Parque,19.493984439146814,-99.13550045015859,Park
19.494577857595022,-99.13514744164482,666.6666666666666,4cf9f84b34c1a0931e913d0e,Los panchos,19.49109473582836,-99.13746349358577,Taco Place
19.494577857595022,-99.13514744164482,666.6666666666666,55da1d00498ef2d8ac63f384,The Barber's Spa México (Plaza Lindavista),19.491801551822025,-99.13351288054277,Salon / Barbershop
19.494577857595022,-99.13514744164482,666.6666666666666,4dbdfdf5fa8cee727375a20b,Rolly sushi,19.49114814299887,-99.13683897611752,Sushi Restaurant
19.494577857595022,-99.13514744164482,666.6666666666666,5033e1e4e4b0a5d7227e8fcc,Café Tatiaxca,19.491365798955442,-99.13368783661394,Coffee Shop
19.494577857595022,-99.13514744164482,666.6666666666666,4d3b5b4649cb236a856dc347,Nutrisa,19.491529197785354,-99.13362805967905,Ice Cream Shop
19.494577857595022,-99.13514744164482,666.6666666666666,4f188a07e4b0d14971d537bf,Tortas El Moreno,19.494934045436057,-99.13653979012724,Burger Joint
19.494577857595022,-99.13514744164482,666.6666666666666,535c06e7498e3b62ddfcd589,la Frat,19.491140892821956,-99.13715738030875,Burger Joint
19.494577857595022,-99.13514744164482,666.6666666666666,4d0ad0446c51a1430da7a635,Reich by Wolters,19.491077312745716,-99.13717088782015,Brewery
19.494577857595022,-99.13514744164482,666.6666666666666,4d77f0140bae236aa13b7114,Café & Lunch,19.49495482215605,-99.13659453062151,Restaurant
19.494577857595022,-99.13514744164482,666.6666666666666,4ed2caf902d5feaa1f1e0c3c,Kwong Tung Express,19.49202094731064,-99.13378730159276,Chinese Restaurant
19.494577857595022,-99.13514744164482,666.6666666666666,4d39f532979ea1434b188bfc,Sabor do brasil,19.491148733929183,-99.13377456002247,Brazilian Restaurant
19.494577857595022,-99.13514744164482,666.6666666666666,4d33252af8c9224b10a7b7d2,Taco ranchero,19.491994093689495,-99.13866814922238,Taco Place
19.494577857595022,-99.13514744164482,666.6666666666666,53227d54498ea651f31c3ce0,"Taqueria ""Los Mixes""",19.490997040875968,-99.13818338968905,Taco Place
19.494577857595022,-99.13514744164482,666.6666666666666,5373fd4a11d29ee7950ab356,Brooklyn Pizza & More,19.490079127849018,-99.13877445243331,Pizza Place
19.494577857595022,-99.13514744164482,666.6666666666666,55b25725498ecb1af3e2d2a7,Enigma Crossfit,19.490115981827536,-99.13881571386712,Gymnastics Gym
19.494577857595022,-99.13514744164482,666.6666666666666,54ff75c4498eb16bd07baeb8,Picanteria Lindavista,19.491495817840814,-99.13366061807774,Seafood Restaurant
19.494577857595022,-99.13514744164482,666.6666666666666,59c56c55c0f1635db01b04ad,Ahimsa Cocina Consciente,19.490832,-99.138485,Vegetarian / Vegan Restaurant
19.494577857595022,-99.13514744164482,666.6666666666666,4c3777861e06d13ab8fe753e,Stilisimo,19.491875791987955,-99.13366880480396,Cosmetics Shop
19.494577857595022,-99.13514744164482,666.6666666666666,4cdee4d9db12548178a533ce,Los Huaraches OK,19.49115141294402,-99.13527913604611,Mexican Restaurant
19.494577857595022,-99.13514744164482,666.6666666666666,4d84f7ad81fdb1f7a3a207c0,La Penca - Barbacoa,19.491638101538094,-99.1394730559583,Mexican Restaurant
19.494577857595022,-99.13514744164482,666.6666666666666,4bf823fb5ec320a1f63688d3,Veerkamp,19.49170244907517,-99.13361145756787,Music Store
19.494577857595022,-99.13514744164482,666.6666666666666,50071f7ee4b096ea73dedb76,Kato's,19.490921671315046,-99.13794416680291,Mexican Restaurant
19.494577857595022,-99.13514744164482,666.6666666666666,4dead80c45dd3993a897cb52,Panadería San Cayetano,19.491150886047944,-99.13562662925193,Bakery
19.494577857595022,-99.13514744164482,666.6666666666666,4c1e63eab4e62d7f332bde93,Chili's Grill & Bar,19.493820473397307,-99.13284126258074,Tex-Mex Restaurant
19.494577857595022,-99.13514744164482,666.6666666666666,4f6f9db0e4b0f577d3ecdf32,Pisco,19.493171925217066,-99.13622239247277,Speakeasy
19.494577857595022,-99.13514744164482,666.6666666666666,5387e70f498eff32833d72f1,Comedyando,19.49110574602858,-99.13362796760381,Comedy Club
19.494577857595022,-99.13514744164482,666.6666666666666,4bb13a8ef964a5205a853ce3,Toks,19.489714892135485,-99.13382863605453,Diner
19.494577857595022,-99.13514744164482,666.6666666666666,4b058702f964a5202f7b22e3,Cerro de la Silla,19.492123106771345,-99.13892911976988,Mexican Restaurant
19.494577857595022,-99.13514744164482,666.6666666666666,517416e0498e8fdc670434ef,Quesadillas Gigantes,19.490902,-99.134258,Taco Place
19.494577857595022,-99.13514744164482,666.6666666666666,4ca66f6a44a8224bbd540340,Farmacia San Pablo Casma,19.491370850532743,-99.13618842205724,Pharmacy
19.494577857595022,-99.13514744164482,666.6666666666666,4c6883574b0d9c74cc84b692,Puerto Mixe Oaxaca,19.491007952439052,-99.1381116960316,Taco Place
19.494577857595022,-99.13514744164482,666.6666666666666,4ea47f380aaf7111817a0a46,Tommy Tacos,19.48947036366014,-99.133650266773,Taco Place
19.494577857595022,-99.13514744164482,666.6666666666666,4f231dcae4b0085e48972eea,LA TAHONA Lindavista,19.489921449599713,-99.13123963215494,Bakery
19.494577857595022,-99.13514744164482,666.6666666666666,4c1a7f4b63750f470664b367,Restaurante Mar Azul,19.49105563207741,-99.13762138712798,Seafood Restaurant
19.494577857595022,-99.13514744164482,666.6666666666666,4c34854ced37a5938bf86e03,Tianguis Etén,19.490321068374985,-99.1387102665082,Farmers Market
19.494577857595022,-99.13514744164482,666.6666666666666,53b82bc1498ef8731fe72d92,Sanborns,19.490697706506555,-99.13274071712809,Restaurant
19.494577857595022,-99.13514744164482,666.6666666666666,58b6008003cf252c24dbf528,Caldos De Gallina y Pancita La Jefa,19.489348,-99.133711,Mexican Restaurant
19.494577857595022,-99.13514744164482,666.6666666666666,4cba46be9552b60c993ed98b,The Hell Rock,19.491200312850086,-99.13545688707212,Rock Club
19.494577857595022,-99.13514744164482,666.6666666666666,4ed7f0f24901772ce07d40db,La Covacha De Vos (Parrilla Argentina),19.490898930765628,-99.1392329441375,Argentinian Restaurant
19.494577857595022,-99.13514744164482,666.6666666666666,4e56b9b2aeb784cb898bf609,Ensaladisimas Lindavista,19.490989059751172,-99.13869380950926,Salad Place
19.494577857595022,-99.13514744164482,666.6666666666666,5bff43dce17910002c2e7b82,Nueva Taqueria Los Primos,19.491120463969466,-99.13763106050811,Taco Place
19.494577857595022,-99.13514744164482,666.6666666666666,4f3b259ee4b03c21a6a92033,Punto Bistro,19.491023520930653,-99.13895253978512,Bistro
19.494577857595022,-99.13514744164482,666.6666666666666,5c689bc489b06a002ccc3140,Bubble Waffle Co,19.490101,-99.13196,Creperie
19.494577857595022,-99.13514744164482,666.6666666666666,54c2ba16498ed4cc07238673,La casa de los Soles,19.493387829552816,-99.13359797681062,Bar
19.494577857595022,-99.13514744164482,666.6666666666666,55d3ccb6498ee009e4033109,"Dogos ""El Yaqui""",19.489801559516003,-99.13876472123557,Hot Dog Joint
19.494577857595022,-99.13514744164482,666.6666666666666,4c12b410127f9521ea8b2425,Office Depot,19.4894315620121,-99.13398342721057,Paper / Office Supplies Store
19.494577857595022,-99.13514744164482,666.6666666666666,4c019ffc27dcc928b1e1e052,7- Eleven,19.491240120521724,-99.13678652786629,Convenience Store
19.494577857595022,-99.13514744164482,666.6666666666666,4c7dd4ef9221236a6599803d,Tacos El Güero,19.491114011018606,-99.13975890076138,Taco Place
19.494577857595022,-99.13514744164482,666.6666666666666,4d215e826e8c3704fe2e02a0,Los Huicholes,19.491248313308095,-99.13613581879217,Taco Place
19.494577857595022,-99.13514744164482,666.6666666666666,4f602086e4b0f492ad20063d,Las Inolvidables,19.49069570579561,-99.13862585133111,Wings Joint
19.494577857595022,-99.13514744164482,666.6666666666666,52a2946a498e67c52aa47c71,Taquería Los primos,19.491155415588526,-99.13659751129042,Taco Place
19.494577857595022,-99.13514744164482,666.6666666666666,5059757ce4b00776417faf4f,Lumen,19.491268080337676,-99.13485539810476,Paper / Office Supplies Store
19.494577857595022,-99.13514744164482,666.6666666666666,4e77abf9483b0cf5edb9ad9c,Super Tortas Lo Cuñados,19.494533810456236,-99.13446576267104,Mexican Restaurant
19.494577857595022,-99.13514744164482,666.6666666666666,5066021fe4b08f044d12e8cd,sant yago,19.491462696149707,-99.13618139637381,Restaurant
19.494577857595022,-99.13514744164482,666.6666666666666,517c8a90e4b00689f86b5635,Hell Rock,19.491115336740357,-99.13538695968637,Bar
19.494577857595022,-99.13514744164482,666.6666666666666,4c2784c5a852c9288858e86c,"Centro de la Juventud, Arte y Cultura Futurama",19.493164354866156,-99.13335507740825,Art Gallery
19.494577857595022,-99.13514744164482,666.6666666666666,5033f28ee4b0c88bbda1cd44,Oxxo,19.496460570264208,-99.13164676583338,Convenience Store
19.494577857595022,-99.13514744164482,666.6666666666666,526aaa5611d2a5cd7a8f91e3,Pastes Real De Las Minas,19.493962,-99.132811,Mexican Restaurant
19.494577857595022,-99.13514744164482,666.6666666666666,4d9e988536818cfaace1f700,Tacos Manolo,19.491035488232285,-99.1397279305233,Taco Place
19.494577857595022,-99.13514744164482,666.6666666666666,4dbcd576a86e0e98a1eeaa0a,Tacos De Manuel,19.491089,-99.139766,Taco Place
19.494577857595022,-99.13514744164482,666.6666666666666,4c8139d06cc2b7130fde179b,7- Eleven,19.494354184729108,-99.1327648691426,Convenience Store
19.494577857595022,-99.13514744164482,666.6666666666666,55afe6a9498e088aee1721d0,7- Eleven,19.491267,-99.136961,Convenience Store
19.490081857595023,-99.1424675040498,666.6666666666666,5060f82be4b008c57d64b101,Clinica Veterinaria Fauna,19.487509435719637,-99.14256498504209,Pet Service
19.490081857595023,-99.1424675040498,666.6666666666666,51f48126498ee80f96555225,Chonchitos,19.489321062051634,-99.14388838216395,Mexican Restaurant
19.490081857595023,-99.1424675040498,666.6666666666666,506263e1498e1306e76b02a0,Tacos Don Pepe (La Taquiza),19.489049433290855,-99.14426677775523,Taco Place
19.490081857595023,-99.1424675040498,666.6666666666666,4d8a76f86daeb60cf26365e0,Tacos El Gallo,19.490968619133714,-99.14224500920466,Taco Place
19.490081857595023,-99.1424675040498,666.6666666666666,4ca8d02ef47ea14385067921,La Taquiza,19.48906833808446,-99.14415203775829,Taco Place
19.490081857595023,-99.1424675040498,666.6666666666666,4d75a8cbf86fa1cde79d77a8,Tacos Mario,19.490996529836018,-99.14294707407645,Taco Place
19.490081857595023,-99.1424675040498,666.6666666666666,50f8ed28e4b024a67b7bb24d,El rincon bohemio del thrasher,19.49096883173163,-99.14462685585022,Pub
19.490081857595023,-99.1424675040498,666.6666666666666,4eec1a6e46907303bd7beb61,Desestresarte,19.489310800173538,-99.14085710132156,Coffee Shop
19.490081857595023,-99.1424675040498,666.6666666666666,4fd3a418e4b034e1fa2c6e5f,El Zorro Abarrotero Lindavista,19.491111523079233,-99.14392901503453,Department Store
19.490081857595023,-99.1424675040498,666.6666666666666,4f9ddaa2e4b033dc2c00da18,Camellón Jujuy,19.489635065905535,-99.14339875342652,Dog Run
19.490081857595023,-99.1424675040498,666.6666666666666,4d6462d4897a224bed4c20cf,Parque Valle Del Tepeyac,19.489633640876587,-99.14338564287239,Plaza
19.490081857595023,-99.1424675040498,666.6666666666666,51453bcae4b0dba1b12295a5,Las Kekas De eten,19.489601323233497,-99.13884422296722,Mexican Restaurant
19.490081857595023,-99.1424675040498,666.6666666666666,4fab3094e4b09ddd00938272,Alitas Agmavi,19.486262712046152,-99.14707299600236,Diner
19.490081857595023,-99.1424675040498,666.6666666666666,566f4b8d498eb0ef6c6abfe7,Casa Gourmet,19.487821242566085,-99.1379270230712,Pizza Place
19.490081857595023,-99.1424675040498,666.6666666666666,5362f395498e7171442f3df2,Sushi Express,19.488764750629336,-99.13676013015377,Japanese Restaurant
19.490081857595023,-99.1424675040498,666.6666666666666,4dba1ad71e7251d53c7565d1,Depósito El Pájaro,19.492618040929095,-99.14347175721825,Brewery
19.490081857595023,-99.1424675040498,666.6666666666666,4f7a02d9e4b040208e8e4426,Restaurante Campirano,19.492914583669616,-99.14554229211399,Mexican Restaurant
19.490081857595023,-99.1424675040498,666.6666666666666,55443c27498ed7d497971fae,Antojitos Magda,19.48589515686035,-99.14610290527344,Mexican Restaurant
19.490081857595023,-99.1424675040498,666.6666666666666,5060df3ee4b08030fa79757a,Cancha de Volleyball IMP,19.48895980964726,-99.14835293641272,Volleyball Court
19.490081857595023,-99.1424675040498,666.6666666666666,50968d73e4b087ea4463a716,Metro Instituto del Petroleo,19.491156151539183,-99.1485360891192,Metro Station
19.494577857595022,-99.14978756645478,666.6666666666666,4ccf81906200b1f72debce28,Carnitas Tijuana,19.493239715015243,-99.14934395896476,Taco Place
19.494577857595022,-99.14978756645478,666.6666666666666,568ed490498e15c4cb29c6a6,Little Caesars Pizza,19.494012232213255,-99.14902508883702,Pizza Place
19.494577857595022,-99.14978756645478,666.6666666666666,4d0acd39b93b224b038148bf,Café del Angel,19.49425197537836,-99.14931256729042,Café
19.494577857595022,-99.14978756645478,666.6666666666666,4e935495b8f7cece231e5c0d,El Paso del Norte,19.492339256711773,-99.15053161886618,Restaurant
19.494577857595022,-99.14978756645478,666.6666666666666,4fc4286de4b0938644168088,WF Training Center,19.495427530145456,-99.14900500746687,Gym
19.494577857595022,-99.14978756645478,666.6666666666666,4d97aa7661a3a1cd03c0bb42,Llano de la Torre (Bodega),19.48992101768248,-99.15248314104386,Distribution Center
19.494577857595022,-99.14978756645478,666.6666666666666,4ecc71a60e01bd353a349740,Body Work Gym & Fitness,19.493995927573476,-99.14954350990244,Gym
19.494577857595022,-99.14978756645478,666.6666666666666,4cba341943ec6dcbf0d7a231,El Desván,19.49412102037268,-99.1494957925374,Bar
19.494577857595022,-99.14978756645478,666.6666666666666,523f737211d22e1c4cd73214,Manolo's Pizza,19.494117723757114,-99.14935273803006,Pizza Place
19.494577857595022,-99.14978756645478,666.6666666666666,4f52b88de4b0776d64f9b928,Loncheria Isa,19.49396083971877,-99.14887469138317,Sandwich Place
19.494577857595022,-99.14978756645478,666.6666666666666,4f3c1366e4b03c21a7a202c3,peugeot vallejo,19.492589856386285,-99.15301774265781,Automotive Shop
19.494577857595022,-99.14978756645478,666.6666666666666,51abea4a498e9833f8718187,Tortas Los Chinos,19.496073300725545,-99.14534771269915,Food Truck
19.490081857595023,-99.15710762885976,666.6666666666666,53a6012c498e92f6ecf149da,Shelo Nabel,19.490639482793828,-99.16024752441858,Department Store
19.490081857595023,-99.15710762885976,666.6666666666666,595f08296e4650039376739e,Cinépolis VIP,19.488000690118522,-99.15340073833987,Multiplex
19.490081857595023,-99.15710762885976,666.6666666666666,575a07e9498e6c82c81b9257,iShop Mixup,19.48798373039702,-99.15258767738368,Electronics Store
19.490081857595023,-99.15710762885976,666.6666666666666,578afa2438fa871db54e9e6f,Fonda Argentina,19.487744,-99.153339,Steakhouse
19.490081857595023,-99.15710762885976,666.6666666666666,53739695498e64c35024b116,Parque Vía Vallejo,19.48753213636691,-99.15206638120765,Shopping Mall
19.490081857595023,-99.15710762885976,666.6666666666666,597bbe103b830715fc684e12,Pizza Amore Parque Via Vallejo,19.487476,-99.153253,Pizza Place
19.490081857595023,-99.15710762885976,666.6666666666666,573df006498e5dc488bbf426,Sears,19.48866629882971,-99.15268390874805,Hardware Store
19.490081857595023,-99.15710762885976,666.6666666666666,57635b6ccd10d3f25b8fcf11,Häagen-Dazs,19.4873751,-99.15257419999999,Ice Cream Shop
19.490081857595023,-99.15710762885976,666.6666666666666,57366b37498ee3779ead09d5,Energy Fitness,19.486592560952378,-99.1527586313575,Gymnastics Gym
19.490081857595023,-99.15710762885976,666.6666666666666,57694eb4498e2878c67517c8,Starbucks,19.487273422812112,-99.15174308947286,Coffee Shop
19.490081857595023,-99.15710762885976,666.6666666666666,57745a7b498e08c9f691f567,Cielito Querido Café,19.48721685015685,-99.15227406090837,Breakfast Spot
19.490081857595023,-99.15710762885976,666.6666666666666,57c9dc68498edd9b8b33ef2b,Krispy Kreme Via Vallejo,19.487330895438514,-99.15281662109426,Donut Shop
19.490081857595023,-99.15710762885976,666.6666666666666,5735300a38fa61927e27c922,American Eagle Store,19.486101442805882,-99.15247258308813,Clothing Store
19.490081857595023,-99.15710762885976,666.6666666666666,57e69715498eab3c75a315d0,Adidas,19.488298,-99.1532573,Clothing Store
19.490081857595023,-99.15710762885976,666.6666666666666,5734e77ecd10a50da9376b17,H&M,19.48716605411341,-99.15181163549853,Clothing Store
19.490081857595023,-99.15710762885976,666.6666666666666,5a22f0e2e7a23740dff3769a,Ihop Parque Vía Vallejo,19.48810491804062,-99.15222892611756,Breakfast Spot
19.490081857595023,-99.15710762885976,666.6666666666666,58266328d469ec5379d3b405,Cassava Roots,19.487281690026244,-99.15276169893991,Tea Room
19.490081857595023,-99.15710762885976,666.6666666666666,57c5dd30498eb7c5c5a891fc,Vapiano,19.487253671620792,-99.1524774296127,Italian Restaurant
19.490081857595023,-99.15710762885976,666.6666666666666,574b917b498e49a139d636f5,Lefties,19.48765050431465,-99.1529896341206,Clothing Store
19.490081857595023,-99.15710762885976,666.6666666666666,5734f373cd10c41111303fcd,Innovasport,19.486403618289643,-99.15230028205943,Sporting Goods Shop
19.490081857595023,-99.15710762885976,666.6666666666666,5862abad8f0be47e42012a1b,FairField Inn & Suites Vallejo,19.487546,-99.152463,Hotel
19.490081857595023,-99.15710762885976,666.6666666666666,576721e1498ec3d13a6fb25f,Chocolates Turin,19.48789926082216,-99.15231879886876,Chocolate Shop
19.490081857595023,-99.15710762885976,666.6666666666666,585c7c329c439d6a22090998,La Cervecería de Barrio,19.487435417552714,-99.15150518353482,Seafood Restaurant
19.490081857595023,-99.15710762885976,666.6666666666666,578d45e4498e3150fe7b95c7,Dairy Queen,19.4863856334658,-99.15254431281215,Snack Place
19.490081857595023,-99.15710762885976,666.6666666666666,57448bbb498ecd58c3cf14b2,ZARA,19.48694516287356,-99.15198461184464,Clothing Store
19.490081857595023,-99.15710762885976,666.6666666666666,5bcbc304e0c0c9002cf3a6e0,Cinepolis Jr,19.487991,-99.153156,Movie Theater
19.490081857595023,-99.15710762885976,666.6666666666666,574a0e12498ecb28890abf89,Santa Clara,19.487244179502806,-99.1526544144882,Ice Cream Shop
19.490081857595023,-99.15710762885976,666.6666666666666,573ba6d5498e4a7a012698c6,American Eagle & Aerie Store,19.48720535278496,-99.15248397708761,Clothing Store
19.490081857595023,-99.15710762885976,666.6666666666666,5b09e834c824ae002cd82b82,Villa Rica,19.487317642495682,-99.15234033398018,Mexican Restaurant
19.490081857595023,-99.15710762885976,666.6666666666666,58f2c8e5149946327a7cb2ce,Hooters,19.487712863098924,-99.15166496586865,American Restaurant
19.490081857595023,-99.15710762885976,666.6666666666666,583355a3a598b326377bc10f,Moyo,19.48688652838618,-99.15268139858892,Frozen Yogurt Shop
19.490081857595023,-99.15710762885976,666.6666666666666,574b7341498eb57fdbcfb54d,Old Navy,19.487804531498472,-99.15301666159209,Clothing Store
19.490081857595023,-99.15710762885976,666.6666666666666,574a1c19498e3a7d0b81c2f3,City Club,19.488004403945187,-99.15265691557373,Supermarket
19.490081857595023,-99.15710762885976,666.6666666666666,5748d369498e49a134f5ef61,Le patat,19.487336952051574,-99.15208422002003,Fast Food Restaurant
19.490081857595023,-99.15710762885976,666.6666666666666,57477bad498e5f6b0a23dafe,Steve Madden,19.487677092209275,-99.15207719211723,Shoe Store
19.490081857595023,-99.15710762885976,666.6666666666666,57fe9571498e761a234e8959,La Vicenta,19.487201,-99.152882,BBQ Joint
19.490081857595023,-99.15710762885976,666.6666666666666,58268dc47a4d7f479e232265,Carlos'n Charlies,19.486919835893264,-99.15319190570163,Mexican Restaurant
19.490081857595023,-99.15710762885976,666.6666666666666,54b690e9498ec4083a4e6d78,Cinépolis,19.487837,-99.153113,Movie Theater
19.490081857595023,-99.15710762885976,666.6666666666666,58d826f602b60e791e151005,Courtyard By Marriott Via Vallejo,19.487860343304504,-99.15212385534579,Hotel
19.490081857595023,-99.15710762885976,666.6666666666666,581e57efcb2566059e9b7db2,Green Grass,19.487453494603166,-99.15193390827,Salad Place
19.490081857595023,-99.15710762885976,666.6666666666666,5844b074266c11029e15ca04,Carl's Jr.,19.48731403139505,-99.15193152234302,Fast Food Restaurant
19.490081857595023,-99.15710762885976,666.6666666666666,4c7806673badb1f7dd5d4a54,Pozolería Norte 45,19.489676043281204,-99.16023498898953,Mexican Restaurant
19.490081857595023,-99.15710762885976,666.6666666666666,577d3ee3cd108ea6b4a4d182,BATH & BODY WORKS,19.486911517719207,-99.15264425277856,Outlet Store
19.490081857595023,-99.15710762885976,666.6666666666666,580bb8a838fa5cd50c4bdc7e,Mr. Sushi Parque Vía Vallejo,19.487001149686357,-99.15261758855132,Sushi Restaurant
19.490081857595023,-99.15710762885976,666.6666666666666,5752e90dcd1030575aad04e8,Forever 21,19.487628601141846,-99.15207719206975,Clothing Store
19.490081857595023,-99.15710762885976,666.6666666666666,583238718d8e99259a49bc84,Jack's Butcher,19.48741016482364,-99.1518278669669,BBQ Joint
19.490081857595023,-99.15710762885976,666.6666666666666,57424aebcd10a3bfcc244ac2,Juguetrón,19.487931944098374,-99.1527391912703,Toy / Game Store
19.490081857595023,-99.15710762885976,666.6666666666666,561ec9c3498e06721cb99c77,Salón Puebla,19.48768157033914,-99.16113720732433,Restaurant
19.490081857595023,-99.15710762885976,666.6666666666666,5736604b38faf9c0e992d4fa,Café Punta Del Cielo,19.48728962414897,-99.15252741349087,Coffee Shop
19.490081857595023,-99.15710762885976,666.6666666666666,4c2a40ecd1a10f47f928f664,Puerto Lapice,19.490455002120996,-99.16073791994485,Spanish Restaurant
19.490081857595023,-99.15710762885976,666.6666666666666,5298b66711d25523fae3b6ad,7- Eleven,19.490396,-99.160469,Convenience Store
19.490081857595023,-99.15710762885976,666.6666666666666,4f5a2826e4b04b8b5cf3fd38,Danone Vallejo,19.49176026825974,-99.15480157582857,Factory
19.490081857595023,-99.15710762885976,666.6666666666666,4cc8408d94e1a0937e4e968b,Metro Vallejo,19.493210236009748,-99.15466145603224,Metro Station
19.490081857595023,-99.15710762885976,666.6666666666666,509c1b65e4b00baa8b4e5ca4,Dormimundo,19.49158922427522,-99.15319612418755,Furniture / Home Store
19.490081857595023,-99.15710762885976,666.6666666666666,4ff4a164e4b0aeae9d62ae18,Policia Federal,19.485780968456783,-99.15881264272204,Police Station
19.490081857595023,-99.15710762885976,666.6666666666666,56ce90b7cd109b4365009dc8,aplebees,19.485985695980826,-99.15800716978396,Restaurant
19.490081857595023,-99.15710762885976,666.6666666666666,4dbed3414df044e5251b1611,Ginnos,19.491976208932453,-99.15315288014386,Italian Restaurant
19.490081857595023,-99.15710762885976,666.6666666666666,5425c5ac498e486f0f39d755,Tacos Poniente 134,19.493578,-99.159977,Taco Place
19.490081857595023,-99.15710762885976,666.6666666666666,51daff4c498ebd04f67b38b0,Alianza Eléctrica,19.49498,-99.159512,Department Store
19.490081857595023,-99.15710762885976,666.6666666666666,512d1c60e4b049302f647c34,Comedor Intertek,19.494138561534182,-99.16106294532385,Restaurant
19.48276179519004,-99.06926688,666.6666666666666,4eaebb7277c8cdc66ddad32b,Carnitas Janitzio,19.483057667630018,-99.07157288410592,Mexican Restaurant
19.48276179519004,-99.06926688,666.6666666666666,52fa6ebb498e32000939e411,"La Michoacana (Suc. Los Primos), Col. Providencia",19.484139235996512,-99.07054740413811,Ice Cream Shop
19.48276179519004,-99.06926688,666.6666666666666,4fd4f791e4b0abd6659857b8,"""Las Tapatías""",19.477010315174013,-99.06924407257897,Mexican Restaurant
19.48276179519004,-99.06926688,666.6666666666666,51214eb8e4b0b14e304c73df,Playa Escondida Pescados Y Mariscos,19.482453255340264,-99.07366942055961,Seafood Restaurant
19.48276179519004,-99.06926688,666.6666666666666,4dab1b4e5da3ba8a479990fb,Mercado Campestre Guadalupana,19.483481041053448,-99.06428718989265,Taco Place
19.48276179519004,-99.06926688,666.6666666666666,4d384ed8f1b06ea839a81455,Café Punta Del Cielo,19.479012276194048,-99.07264063365629,Café
19.48276179519004,-99.06926688,666.6666666666666,4f2b4e1be4b0009b30eef27c,LeCaroz,19.483133887041987,-99.07097884328523,Bakery
19.48276179519004,-99.06926688,666.6666666666666,5390e87f498ea09f06f2ec13,Exquisitos Postres y Ensaladas,19.477174069917577,-99.0673422836243,Pie Shop
19.48276179519004,-99.06926688,666.6666666666666,54c2e6a8498e8b33938f36db,Tacos el chato,19.483595,-99.070486,Taco Place
19.48276179519004,-99.06926688,666.6666666666666,4f943e12e4b0a20c26fcd013,Barbacoa El Cordero,19.48355990720045,-99.07015664786272,Mexican Restaurant
19.48276179519004,-99.06926688,666.6666666666666,4fb7e64de4b08d3af0eeb1d1,tianguis de la providencia,19.48058477385961,-99.06428811177148,Arcade
19.48276179519004,-99.06926688,666.6666666666666,51182cc6e4b0d096b6fce3c4,La Michoacana Los Primos,19.48580353461723,-99.06475154703843,Ice Cream Shop
19.48276179519004,-99.06926688,666.6666666666666,528994e6498ef8d0d084be71,Taquería Don Ramon,19.477100525112174,-99.06910367731145,Mexican Restaurant
19.48276179519004,-99.06926688,666.6666666666666,54625213498ea04a20591e88,taqueria campestre,19.484507583688917,-99.06356906151186,Taco Place
19.48276179519004,-99.06926688,666.6666666666666,513d21dae4b0252e937390a7,Hamburguesas al carbón,19.48247010599482,-99.07554051525466,Food Truck
19.48276179519004,-99.06926688,666.6666666666666,4f7ce012e4b0bf87a94249a9,Crazy Feet Center,19.481588446333905,-99.06319944489726,Dance Studio
19.48725779519004,-99.07658694240499,666.6666666666666,5288224811d28906602dadc5,Tacos El Bigotón,19.482261694144054,-99.07957460461931,Food Truck
19.48725779519004,-99.07658694240499,666.6666666666666,5651349a498edd9078a561fe,"Micheladas ""las güeras""",19.482910322083626,-99.07628885333415,Brewery
19.48725779519004,-99.07658694240499,666.6666666666666,4eda63320e011b46ee6184c3,mercado campestre aragon,19.48593440834882,-99.07816673945291,Farmers Market
19.48725779519004,-99.07658694240499,666.6666666666666,52140e3611d2218f86bd8fa0,Huaraches,19.483750120287343,-99.0777517627919,Mexican Restaurant
19.48725779519004,-99.07658694240499,666.6666666666666,534a0ded498eda20ae9922e0,Pupe Pixa,19.48621433898978,-99.07934778292176,Pizza Place
19.48725779519004,-99.07658694240499,666.6666666666666,575d80ac498e5384586cc120,Tacos De Birria,19.487844,-99.08064,Food Stand
19.48725779519004,-99.07658694240499,666.6666666666666,4f4f0b5ae4b0cc5f1422060d,"Elotes, ezquites, patitas de la Esquinita",19.489181962411156,-99.08092474715194,Taco Place
19.48725779519004,-99.07658694240499,666.6666666666666,5223fc0611d2c8e2225718d7,Antojitos Berenice,19.486719131469727,-99.08168029785156,Mexican Restaurant
19.48725779519004,-99.07658694240499,666.6666666666666,51ad51335019bc0c7f8eab6b,Mythos Cyber Café,19.483866112127902,-99.07152056694031,Internet Cafe
19.48276179519004,-99.08390700480996,666.6666666666666,5439ba77498eeba079c1db49,La Michoacana Los Primos,19.478831958892346,-99.0854505920164,Ice Cream Shop
19.48276179519004,-99.08390700480996,666.6666666666666,4e6c0e1418381712d9b54273,Alitas Florida,19.48469268682938,-99.08745240197086,Wings Joint
19.48276179519004,-99.08390700480996,666.6666666666666,51e54b0d498eded90bbd1cd8,"Gimnasio De Box ""Díaz Mirón"" Ratón y Grillo González",19.479572097762425,-99.08740575018358,Gym
19.48276179519004,-99.08390700480996,666.6666666666666,50fa2bd3e4b053e0fec4ed6d,Elotes Y Esquites Juanitos,19.482962529909315,-99.08681703728523,Food Truck
19.48276179519004,-99.08390700480996,666.6666666666666,56db5950cd107bf5eeafcebf,cinepolis carso,19.48402189566724,-99.08612571026518,Movie Theater
19.48276179519004,-99.08390700480996,666.6666666666666,4eda998eb6344371f7256a28,Carnitas Los Brutales,19.479009752156077,-99.08641077211664,Taco Place
19.48276179519004,-99.08390700480996,666.6666666666666,4c54c34672cf0f47e9f80ad5,Tacos Los romero,19.47940105058887,-99.08380872833152,Taco Place
19.48276179519004,-99.08390700480996,666.6666666666666,4ee55dbb93adf8e1a8882a1b,Tianguis Casas Aleman,19.47858880972757,-99.08412694931029,Flea Market
19.48276179519004,-99.08390700480996,666.6666666666666,4e8cf2c86da1d5bdcf041db1,Cafeteria Le Petit,19.478794658523707,-99.08507309686621,Coffee Shop
19.48276179519004,-99.08390700480996,666.6666666666666,4cafdd60cbab236a6ae89b73,7 Seven Eleven,19.480655544362218,-99.08137299953863,Convenience Store
19.48276179519004,-99.08390700480996,666.6666666666666,4f1841efe4b038fa35ba1836,Gimnasio Mega Gym,19.48012359602673,-99.08015969411926,Gym
19.48276179519004,-99.08390700480996,666.6666666666666,4df7dde818385456c7f307a6,"Academia de Danza ""Arte y Movimiento""",19.4828635127856,-99.08787024233165,Gym / Fitness Center
19.48276179519004,-99.08390700480996,666.6666666666666,4f96b065e4b0722f5175ae5b,Centro Recreativo Bicentenario,19.487299009137875,-99.08324164512547,Playground
19.48725779519004,-99.09122706721494,666.6666666666666,52b275ef498e6d1274847713,Cinépolis,19.48455445396818,-99.09367448142585,Movie Theater
19.48725779519004,-99.09122706721494,666.6666666666666,50e5dc22e4b0869d17834966,Nutrisa,19.4850632717634,-99.09311487074885,Ice Cream Shop
19.48725779519004,-99.09122706721494,666.6666666666666,585b20a19526bc197180146f,Plaza Oriente,19.485190353587644,-99.093531900546,Shopping Mall
19.48725779519004,-99.09122706721494,666.6666666666666,4d3218158250f04da74ff0e0,Marti Outlet Molina,19.484973623636016,-99.09350377562754,Boutique
19.48725779519004,-99.09122706721494,666.6666666666666,4f4d830de4b0629e7a9d088c,Xtreme Cinemas,19.48459064347879,-99.09352538147041,Movie Theater
19.48725779519004,-99.09122706721494,666.6666666666666,4da7a3e41e72d9bb4734c550,Elektra,19.484592373823457,-99.09462363275095,Electronics Store
19.48725779519004,-99.09122706721494,666.6666666666666,52f45ce211d22fb5856d3525,Tacos Bigotones,19.48225446937727,-99.09288260904081,Food Truck
19.48276179519004,-99.09854712961992,666.6666666666666,4c33d27416adc928c44dc49c,Krispy Kreme,19.47989713361976,-99.09624776929284,Donut Shop
19.48276179519004,-99.09854712961992,666.6666666666666,4f22003ae4b0acaff5ba4ff6,Nutrisa,19.479711614970885,-99.09605612201565,Ice Cream Shop
19.48276179519004,-99.09854712961992,666.6666666666666,4d7acbc54755f04db3b3f024,Cafe La Toscana,19.483061516456377,-99.09933757601804,Café
19.48276179519004,-99.09854712961992,666.6666666666666,4ed98cdcb6344371f5e17aa3,Starbucks,19.479581328978565,-99.09622137523175,Coffee Shop
19.48276179519004,-99.09854712961992,666.6666666666666,4b80a18af964a520338230e3,Ojo de Agua,19.47934433280907,-99.09823514213093,Salad Place
19.48276179519004,-99.09854712961992,666.6666666666666,4f762bbee4b067aa2e5f95e7,Domino's Pizza,19.47922887919647,-99.09595608040205,Pizza Place
19.48276179519004,-99.09854712961992,666.6666666666666,5643cf8e498e6797e96f4055,DHL Express ServicePoint,19.4795677,-99.0961691,Shipping Store
19.48276179519004,-99.09854712961992,666.6666666666666,4eb49dbab8030fb58287406a,Teriyaki San,19.47942088545704,-99.09595762374818,Sushi Restaurant
19.48276179519004,-99.09854712961992,666.6666666666666,4c0c3a90bbc676b08ed14cd5,Walmart,19.47962609103577,-99.09596148203781,Big Box Store
19.48276179519004,-99.09854712961992,666.6666666666666,4e1450f41f6e33e718092c2e,Unidad Deportiva Morelos,19.47761807521516,-99.09696616882525,Gym Pool
19.48276179519004,-99.09854712961992,666.6666666666666,4f7e4742e4b079381b201bd5,Domino's Pizza,19.479238413897995,-99.09605330993037,Pizza Place
19.48276179519004,-99.09854712961992,666.6666666666666,4b9ad837f964a5208adb35e3,Cinemex,19.48100558119152,-99.09572477073753,Multiplex
19.48276179519004,-99.09854712961992,666.6666666666666,507a602264a46a353a7dbe1f,Cyberhugo,19.48213905988274,-99.09997344017029,Arcade
19.48276179519004,-99.09854712961992,666.6666666666666,4eed605d6c25c7f9d1ffe3c8,Centro Pokemon,19.484126454113255,-99.10319460078377,Arcade
19.48276179519004,-99.09854712961992,666.6666666666666,4f372516121dc07a241fab61,Domino's Pizza,19.479336347342844,-99.09594868872132,Pizza Place
19.48276179519004,-99.09854712961992,666.6666666666666,51d9821c498e751ce190efed,Mercado Carrera Lardizábal,19.482307631136685,-99.09982247053252,Market
19.48276179519004,-99.09854712961992,666.6666666666666,52c24f18498e4b40e2bb9fc8,Extasis GYM,19.483529806180112,-99.09717053174973,Gym
19.48276179519004,-99.09854712961992,666.6666666666666,4fced633e4b0b4dd488624a6,Toxiquesos,19.483045136297864,-99.1001694675359,Taco Place
19.48276179519004,-99.09854712961992,666.6666666666666,50ce1231e4b029bcaf6fcc92,Mi Mercado Carranza,19.482754,-99.099932,Juice Bar
19.48276179519004,-99.09854712961992,666.6666666666666,4e6282f262e13e3bceae58a5,Teatro Morelos clinica 23,19.478330873848755,-99.09740927098566,Theater
19.48276179519004,-99.09854712961992,666.6666666666666,55351bea498e1648da454dd0,Edgar Sosa Gym,19.48531492347397,-99.0973119024668,Boxing Gym
19.48276179519004,-99.09854712961992,666.6666666666666,4bdc55a6c79cc928850f86e9,Vips,19.479128223269743,-99.09727826635282,Restaurant
19.48276179519004,-99.09854712961992,666.6666666666666,52b6f61c498e149075ff288b,Happy Skin Spa,19.480850708224082,-99.10155777336367,Spa
19.48276179519004,-99.09854712961992,666.6666666666666,57b8e398498ed0e1a28afe01,Shirushi,19.478951,-99.09844,Sushi Restaurant
19.48276179519004,-99.09854712961992,666.6666666666666,50f0d568e4b0c27bd2176524,"Tacos ""Don Abraham""",19.484880447387695,-99.10194396972656,Taco Place
19.48276179519004,-99.09854712961992,666.6666666666666,583e1d719e35d35b5f05a136,Tu spa zio,19.484373,-99.094119,Spa
19.48276179519004,-99.09854712961992,666.6666666666666,4d5cc708590b224bdfd6a46d,Comedor Mi Cachito,19.486471216666665,-99.09529658,Mexican Restaurant
19.48276179519004,-99.09854712961992,666.6666666666666,525b016e498e33236050a98a,Lin china,19.48455047607422,-99.09375,Asian Restaurant
19.48276179519004,-99.09854712961992,666.6666666666666,526832b0498e864ca03a6638,Muebles Dico,19.478468790021754,-99.09468670615284,Furniture / Home Store
19.48276179519004,-99.09854712961992,666.6666666666666,5175a2a0498e908f7eb151d2,Academia de baile Art-Escena,19.484593187194072,-99.1042480223405,Dance Studio
19.48725779519004,-99.1058671920249,666.6666666666666,4dc6f325d4c0ad9c0fadb4be,Mercado Martin Carrera,19.48748132323442,-99.10686813117512,Flea Market
19.48725779519004,-99.1058671920249,666.6666666666666,5059cfdde4b0fd1a495e8b77,Churros San Juan De Aragon,19.483161191663044,-99.10665203646803,Food Truck
19.48725779519004,-99.1058671920249,666.6666666666666,51ca0fd2498efd12a97a9300,Agencia  Ford,19.481701010279245,-99.10718687193672,Museum
19.48725779519004,-99.1058671920249,666.6666666666666,4f178bd5e4b0bb143e360fd8,"Quecas ""Doña Betty""",19.4814988914226,-99.10523122834903,Taco Place
19.48276179519004,-99.11318725442987,666.6666666666666,4e333efd1838df3b5f6c16b9,Plaza Mariana,19.483923769451465,-99.11437238296222,Plaza
19.48276179519004,-99.11318725442987,666.6666666666666,4fd4fd36e4b0a8f571c048e6,La Catedral de las Escamochas,19.482695002787988,-99.1147884060461,Juice Bar
19.48276179519004,-99.11318725442987,666.6666666666666,501ee590e4b0b87f23f8658d,La Villa,19.481128687687367,-99.11633392770702,Spiritual Center
19.48276179519004,-99.11318725442987,666.6666666666666,50017e86e4b06c76d0693d17,Pastes Kiko's,19.483221402265396,-99.1176875713182,Bakery
19.48276179519004,-99.11318725442987,666.6666666666666,5ca253e4037be1002c849979,La Guadalapuna,19.483931,-99.117292,Arts & Crafts Store
19.48276179519004,-99.11318725442987,666.6666666666666,4cae77b4cbab236a29d99073,Taqueria El Huasteco,19.483922,-99.119069,Mexican Restaurant
19.48276179519004,-99.11318725442987,666.6666666666666,54284f4c498e58df08d60822,La Casa de Celia,19.47820612827723,-99.11650223572266,Mexican Restaurant
19.48276179519004,-99.11318725442987,666.6666666666666,51d7686b498edc487ed16419,Restaurante Lepanto,19.48050263100999,-99.11704482486033,Mediterranean Restaurant
19.48276179519004,-99.11318725442987,666.6666666666666,4fe4be58e4b067dfbde4a7d4,Pulqueria La Victoria,19.480101184900462,-99.11607129610745,Bar
19.48276179519004,-99.11318725442987,666.6666666666666,51f00474498eb92a548b0c9a,IL Pannino panaderia,19.479319102021602,-99.11695515593051,Bakery
19.48276179519004,-99.11318725442987,666.6666666666666,4e06686114959022c8906a4f,"Cantina ""La Nueva Guadalupana""",19.480849730510663,-99.11835345355703,Bar
19.48276179519004,-99.11318725442987,666.6666666666666,4e1797bd45dd120c1206aab1,Toks,19.480721631742156,-99.11854771103975,Café
19.48276179519004,-99.11318725442987,666.6666666666666,4de0cd8dd22d2a7955770844,Hotel Villa Quijotes,19.480496822769616,-99.11709674558315,Hotel
19.48276179519004,-99.11318725442987,666.6666666666666,50c81c75e4b0b9871a0cc006,Mercado Villa Zona,19.483674130283593,-99.11408453163479,Flea Market
19.48276179519004,-99.11318725442987,666.6666666666666,4b058701f964a520cb7a22e3,Museo de Cera de la Villa,19.484715845771525,-99.11884393431167,Museum
19.48276179519004,-99.11318725442987,666.6666666666666,4d7d52d4645ea35d496756f8,Los Huaraches Ok Sucursal La Villa,19.482586267613865,-99.11730423768485,Mexican Restaurant
19.48276179519004,-99.11318725442987,666.6666666666666,5769e004498e9c2c79a82efa,Little Caesars Pizza,19.48445843131759,-99.11894942322147,Pizza Place
19.48276179519004,-99.11318725442987,666.6666666666666,50e4b82ae4b09b89a9dbef98,Plaza Comercial Barrio Mágico Guadalupe,19.482245058617508,-99.11797662089073,Shopping Mall
19.48276179519004,-99.11318725442987,666.6666666666666,51ba6ad9498e11a3cbf96470,Subway,19.48148088462214,-99.11805389710611,Sandwich Place
19.48276179519004,-99.11318725442987,666.6666666666666,4f0f5da4e4b061b771df53d1,Club Deportivo Mara Sport,19.47951536615972,-99.1079517406603,Gym / Fitness Center
19.48276179519004,-99.11318725442987,666.6666666666666,4f7b5da5e4b0dd0db045790f,Las Carnitas De Cuauhtémoc,19.481184726517213,-99.11716797371668,Mexican Restaurant
19.48276179519004,-99.11318725442987,666.6666666666666,4dd017d0e4cd130e168ff608,Museo de los Ferrocarrileros,19.481503801083093,-99.11776444350222,Museum
19.48276179519004,-99.11318725442987,666.6666666666666,50392296e4b0461c01b3beb1,Los Huaraches Ok,19.482674516102637,-99.1152947073245,Mexican Restaurant
19.48276179519004,-99.11318725442987,666.6666666666666,55afe6a9498e088aee172562,7- Eleven,19.483261,-99.116817,Convenience Store
19.48276179519004,-99.11318725442987,666.6666666666666,4fd4f77ee4b0352ac4da6e6a,7- Eleven,19.47927510915872,-99.108944055461,Convenience Store
19.48276179519004,-99.11318725442987,666.6666666666666,51cbdd60498e84bfae45e62a,Foto Estudio Ambriiz,19.483850708576938,-99.112226651711,Camera Store
19.48276179519004,-99.11318725442987,666.6666666666666,5238b4e7498ed3354dfc1205,Zenón,19.482978198479007,-99.11780478397792,Mexican Restaurant
19.48276179519004,-99.11318725442987,666.6666666666666,5716e201498e03d4701502e1,Chucreca,19.478553071287443,-99.11574384048541,Snack Place
19.48276179519004,-99.11318725442987,666.6666666666666,508d63bd498edfd685b70d8b,Restaurante Zenón,19.48300373740948,-99.11777955240215,Mexican Restaurant
19.48276179519004,-99.11318725442987,666.6666666666666,4cf1602d6195721ee63941c1,Burger King,19.482337037401884,-99.11809303819969,Fast Food Restaurant
19.48276179519004,-99.11318725442987,666.6666666666666,51473fd9e4b0554c38d32985,El Rey De La Birria,19.482838160763485,-99.11831118192238,Mexican Restaurant
19.48276179519004,-99.11318725442987,666.6666666666666,5132be60fe70dbe9ea8ad1f4,Paleteria y Neveria la michoacana,19.481147829777967,-99.11748290061949,Ice Cream Shop
19.48276179519004,-99.11318725442987,666.6666666666666,4edd382161af8a14b9b14840,Paradero RTP,19.487527443415868,-99.11361215916567,Bus Station
19.48276179519004,-99.11318725442987,666.6666666666666,4f2dfa93e4b059914facae28,hamburguesas chabelo's,19.48260185304524,-99.10685732642587,Burger Joint
19.48725779519004,-99.12050731683486,666.6666666666666,50131e8fe4b0748a78e2b65e,Pastes Real De Plateros,19.48473564159015,-99.12049368304802,Bakery
19.48725779519004,-99.12050731683486,666.6666666666666,54cc3bb0498e22044d516d80,El rincón de Veracruz,19.485627,-99.120276,Seafood Restaurant
19.48725779519004,-99.12050731683486,666.6666666666666,4ff05c2bebca4f7ec45565c2,Caffe 18,19.484533232658126,-99.12356029550713,Café
19.48725779519004,-99.12050731683486,666.6666666666666,50c39087e4b092542c6058fb,KatyBer Boutique,19.48887385626206,-99.12439984935114,Boutique
19.48725779519004,-99.12050731683486,666.6666666666666,56edf6be498e074224dd2153,Barrio Warrior,19.486264109007752,-99.12562726425347,Shoe Store
19.48725779519004,-99.12050731683486,666.6666666666666,4e693930a80996c0061b0e79,Casa Del Libro,19.48836467503737,-99.12653767852477,Bookstore
19.48725779519004,-99.12050731683486,666.6666666666666,5123fcd9e4b0567765141a47,El Rinconcito,19.486487,-99.126245,Restaurant
19.48725779519004,-99.12050731683486,666.6666666666666,4e3e0edaae604542366ed13b,La Parrilla Suiza,19.487718294058208,-99.1251306604238,Mexican Restaurant
19.48725779519004,-99.12050731683486,666.6666666666666,52541af811d2d71cc4f81cc8,Cafe Javier's,19.4877446076012,-99.1258114287812,Cafeteria
19.48725779519004,-99.12050731683486,666.6666666666666,4f355c56e4b0cd0fe84f098d,Hotel Montevideo,19.486030143963795,-99.12054468834863,Hotel
19.48725779519004,-99.12050731683486,666.6666666666666,4e99d3105c5ce9b982a87d87,La Michoacana,19.48611319023004,-99.12587735419768,Ice Cream Shop
19.48725779519004,-99.12050731683486,666.6666666666666,4b8d0102f964a520f6e332e3,"Centro Deportivo ""18 de Marzo""",19.483892572615897,-99.1238279882978,Athletics & Sports
19.48725779519004,-99.12050731683486,666.6666666666666,52353b5f498e95340dbd85b6,Hotel Santiago,19.486276272111716,-99.12189431872322,Hotel
19.48725779519004,-99.12050731683486,666.6666666666666,5448106a498e170fd9820348,Carl's Jr.,19.48798393873332,-99.1240855341928,Fast Food Restaurant
19.48725779519004,-99.12050731683486,666.6666666666666,4bd641915631c9b65eb1a530,Farmacia San Pablo,19.48812147116359,-99.12607661863406,Pharmacy
19.48725779519004,-99.12050731683486,666.6666666666666,52f68e67498e89458a84d394,San Galletano,19.48995252426276,-99.12610830750931,Bakery
19.48725779519004,-99.12050731683486,666.6666666666666,4dd80aa12271c5d36d4adaba,Stromboli,19.48852286962278,-99.12660803377817,Theme Park
19.48725779519004,-99.12050731683486,666.6666666666666,4ef2222c02d5677fe3d6f30b,Farmacias Especializadas,19.487952153006997,-99.12568547093736,Pharmacy
19.48725779519004,-99.12050731683486,666.6666666666666,540498c0498e50e6e216a155,Aroma,19.48467011078564,-99.1223322022672,Café
19.48725779519004,-99.12050731683486,666.6666666666666,4bee1c181059d13aeffb51d8,AMF Bol Montevideo,19.48767367564101,-99.12459074188118,Bowling Alley
19.48725779519004,-99.12050731683486,666.6666666666666,4bf81409b182c9b604cb765a,Los Bisquets Bisquets Obregón - Lindavista,19.486583484504813,-99.12521256301916,Bakery
19.48725779519004,-99.12050731683486,666.6666666666666,53596db0498ee3b9d55266ec,Tu Sushi Bar,19.487986224421924,-99.12511580301103,Japanese Restaurant
19.48725779519004,-99.12050731683486,666.6666666666666,52684188498ebc8f4744ca93,Sanborns Café,19.48757239166737,-99.12500299548095,Mexican Restaurant
19.48725779519004,-99.12050731683486,666.6666666666666,4bf01dc125afb71359d14a6f,Pizza Hut,19.48663031553685,-99.12223095449794,Pizza Place
19.48725779519004,-99.12050731683486,666.6666666666666,522d242611d2186aebc143b4,Pizza Hut,19.485510648319423,-99.12579489485009,Pizza Place
19.48725779519004,-99.12050731683486,666.6666666666666,4fbe6b16e4b01ffcf9cdaba2,Get Spa,19.490290020835708,-99.12559164182817,Spa
19.48725779519004,-99.12050731683486,666.6666666666666,4ca15c46031337040a1483d5,7-Eleven,19.48752930142306,-99.1210019958015,Convenience Store
19.48725779519004,-99.12050731683486,666.6666666666666,51294e0be4b0861e5ae28f03,"Jardin De Fiestas ""La Casa verde""",19.482961083721584,-99.12127690488917,Garden
19.48725779519004,-99.12050731683486,666.6666666666666,4e51680eb0fb088f3c373994,Arracheras del Rincón,19.48309482593034,-99.12302827090924,Steakhouse
