search_spot_lat,search_spot_lon,search_radius,id,Name,Latitude,Longitude,Category
52.54504492,13.44359312,666.6666666666666,4fd756c4e4b0269cfe9602b3,Aquaphine,52.54443293556231,13.441053628921509,Pool
52.54504492,13.44359312,666.6666666666666,4b56bc90f964a520dd1928e3,dm-drogerie markt,52.54304,13.441816,Drugstore
52.54504492,13.44359312,666.6666666666666,4bb071d4f964a520e9453ce3,Alnatura,52.5432258766698,13.441678841285686,Organic Grocery
52.54504492,13.44359312,666.6666666666666,534d1382498ef814e3c131e2,Café Gold Stück,52.54472,13.437095,Café
52.54504492,13.44359312,666.6666666666666,4b6577f1f964a52095f12ae3,Kieser Training,52.54646,13.44313,Gym / Fitness Center
52.54504492,13.44359312,666.6666666666666,4aee9683f964a5200bd421e3,Zur Haxe,52.544731,13.436748,German Restaurant
52.54504492,13.44359312,666.6666666666666,551fc0d9498eb68460528394,Fellini PIZZA,52.548801251679656,13.450058154372302,Pizza Place
52.54504492,13.44359312,666.6666666666666,59f5f578acb00b43e62c787d,Babuschka in der alten Fischräucherei,52.550547,13.447008,Café
52.54504492,13.44359312,666.6666666666666,5058a066e4b0a4e74d04173e,Staatliche Ballettschule Berlin und Schule für Artistik,52.54561073556471,13.436036400149112,Dance Studio
52.54504492,13.44359312,666.6666666666666,4e132d3252b1655efa5510b6,Eis und Heiß,52.54495916845176,13.437258252028084,Ice Cream Shop
52.54504492,13.44359312,666.6666666666666,4de0ae3222713271e2ba4953,Spongebob Sicherungskasten,52.54088863449393,13.438879139015736,Public Art
52.54504492,13.44359312,666.6666666666666,4ff5de1de4b0b3e6986b6549,Rossmann,52.54335599452129,13.442220705180269,Drugstore
52.54504492,13.44359312,666.6666666666666,50bc7474e4b0efcb4c53756b,Kopierladen,52.54754,13.449779,Paper / Office Supplies Store
52.54504492,13.44359312,666.6666666666666,515342ede4b0f25d4c91c995,EDEKA Ostseestrasse,52.54673284,13.44283286,Supermarket
52.54504492,13.44359312,666.6666666666666,4cc55117d43ba143028c6cf8,REWE City,52.54381272126812,13.44136512389889,Supermarket
52.54504492,13.44359312,666.6666666666666,4adcda8cf964a520094a21e3,Kino Toni & Tonino,52.54875144271796,13.450917950742944,Indie Movie Theater
52.54504492,13.44359312,666.6666666666666,5b3f420d3d47910039dac7b2,Phönix,52.543341,13.442014,Chinese Restaurant
52.54504492,13.44359312,666.6666666666666,4eb64d780aaf1abedfadbec4,Le Crobag,52.54053099230365,13.438940048217772,Bakery
52.54504492,13.44359312,666.6666666666666,53725af9498eebfa60ae1986,PastaLaden,52.548878,13.449719,Italian Restaurant
52.54504492,13.44359312,666.6666666666666,563737eb498e6c1e196be727,BIO COMPANY,52.5479841835154,13.449108388844769,Organic Grocery
52.54504492,13.44359312,666.6666666666666,50d55b9ee4b02e407441151e,Einsteinpark,52.54035957296854,13.445580339903245,Park
52.54504492,13.44359312,666.6666666666666,5a99aa57a2a6ce7533efacff,Moon Asiate,52.548613,13.450423,Vietnamese Restaurant
52.54504492,13.44359312,666.6666666666666,4b4858fdf964a520ef4b26e3,Kaiser's,52.54793067764277,13.451195883055709,Supermarket
52.54504492,13.44359312,666.6666666666666,4b5c3e26f964a520552829e3,OBI,52.546609545148414,13.443482361572023,Hardware Store
52.54504492,13.44359312,666.6666666666666,50ae5bb0e4b0a71210d3f316,Video Center,52.5409668235937,13.438232400830138,Video Store
52.54504492,13.44359312,666.6666666666666,5313579b11d2285db4b13a97,Headquarter Sitzkissenfraktion,52.54949497160737,13.440095445103498,Sporting Goods Shop
52.54504492,13.44359312,666.6666666666666,4e87807d30f8f98faf9cd47a,EDEKA,52.54129229999999,13.4398829,Supermarket
52.54504492,13.44359312,666.6666666666666,52b54950498e483de64aff90,denn's Biomarkt,52.54756462830358,13.451123165813147,Organic Grocery
52.54504492,13.44359312,666.6666666666666,4ffe6826e4b0671608a6e431,Ostseeplatz,52.54687670842035,13.439953325767318,Park
52.54504492,13.44359312,666.6666666666666,4b3c9340f964a520478525e3,ALDI NORD,52.54118118204639,13.437623015717095,Supermarket
52.54504492,13.44359312,666.6666666666666,4b2925e4f964a520bc9924e3,Antonplatz,52.54847664094692,13.450812525688784,Plaza
52.54504492,13.44359312,666.6666666666666,4b792cf5f964a520e5ed2ee3,Lecker & Satt,52.54136691319922,13.438781900345807,Doner Restaurant
52.54504492,13.44359312,666.6666666666666,4fcf611b3ac6d9ec99037621,Lidl,52.550079,13.441458,Supermarket
52.54504492,13.44359312,666.6666666666666,4e6879f4fa768a5e3cdce352,Die Etage East,52.54931361382534,13.448640411926757,Hostel
52.54504492,13.44359312,666.6666666666666,5625e61e498e098ccf7da6ad,Steinecke,52.540638659270606,13.43875229358673,Bakery
52.54504492,13.44359312,666.6666666666666,4eabdf1b2c5b5d71e76470a2,Xxxl Die Schmiede,52.55044072294902,13.442792603436455,Gym
52.54504492,13.44359312,666.6666666666666,5a044699e96d0c37472a31a7,EDEKA Am Antonplatz,52.5476213,13.4515471,Supermarket
52.54504492,13.44359312,666.6666666666666,4f93ba12e4b0532d5df9fcca,Backstop (im Kaiser's),52.54797336716436,13.45122600701398,Bakery
52.54504492,13.44359312,666.6666666666666,5b050779270ee7002cef66ed,Mishba,52.540301,13.438514,Burrito Place
52.549540920000005,13.43627305759502,666.6666666666666,52ec27f3498e908a07280044,Sexauer Galerie,52.55073051917434,13.438995754068008,Art Gallery
52.549540920000005,13.43627305759502,666.6666666666666,51729e7d498ebf7fc4a310e3,dm-drogerie markt,52.55058446405281,13.434062191697308,Drugstore
52.549540920000005,13.43627305759502,666.6666666666666,4c964da358d4b60cf5d03929,Theater im Delphi,52.55192765185302,13.431232230749847,Event Space
52.549540920000005,13.43627305759502,666.6666666666666,56802b1d498e9566e231deb7,Agni,52.5492117638926,13.429127175015283,Indian Restaurant
52.549540920000005,13.43627305759502,666.6666666666666,535ba1cb498e1b5778d7b98e,Eckstern,52.54637854156583,13.43340210855522,Café
52.549540920000005,13.43627305759502,666.6666666666666,4dbadd2a6a23e294ba059b1c,Getränke Hoffmann,52.547793057567134,13.430528708003976,Food & Drink Shop
52.549540920000005,13.43627305759502,666.6666666666666,585007f4e7f1cf147f820715,Mitte Meer,52.55169083217036,13.430069066424116,Gourmet Shop
52.549540920000005,13.43627305759502,666.6666666666666,4adcda8af964a520b44921e3,Brotfabrik,52.55255543383701,13.43052864074707,Indie Theater
52.549540920000005,13.43627305759502,666.6666666666666,4b328411f964a5209a0d25e3,Orange Coffee,52.54732328193257,13.42805027961731,Coffee Shop
52.549540920000005,13.43627305759502,666.6666666666666,4b8d1c4df964a52086e832e3,Langhans Grill,52.551202618718,13.44223654648286,Fast Food Restaurant
52.549540920000005,13.43627305759502,666.6666666666666,4b7ab0e1f964a52082372fe3,REWE,52.55085632321703,13.432392055225364,Supermarket
52.549540920000005,13.43627305759502,666.6666666666666,4b800615f964a520914b30e3,Fressnapf,52.55118081049891,13.431540854866231,Pet Store
52.549540920000005,13.43627305759502,666.6666666666666,4c8283a22f1c236a881e3a43,Lidl,52.5465061096227,13.429544270038605,Supermarket
52.549540920000005,13.43627305759502,666.6666666666666,4c8a00e1e51e6dcb69ed64de,REWE,52.54566471179398,13.429741366190685,Supermarket
52.549540920000005,13.43627305759502,666.6666666666666,4bd443c377b29c74f04d9282,Nemo Mediterrane Feinkost und Bäckerei,52.55161030267242,13.430212706175862,Italian Restaurant
52.549540920000005,13.43627305759502,666.6666666666666,4c7925c5566db60cc1c5430e,ALDI NORD,52.54987745895362,13.434326648712158,Supermarket
52.549540920000005,13.43627305759502,666.6666666666666,588648c184677a3194a0faf1,denn's biomarkt,52.55163152873565,13.430009233353124,Organic Grocery
52.549540920000005,13.43627305759502,666.6666666666666,4d308ad24db13704c4b2fc5d,Rossmann,52.54764473226234,13.42853769989332,Drugstore
52.549540920000005,13.43627305759502,666.6666666666666,4ff49293e4b0d27dd68f4482,China Restaurant Dynasty,52.54795178720056,13.438775566580498,Chinese Restaurant
52.549540920000005,13.43627305759502,666.6666666666666,4b09667ff964a520c11623e3,Holiday Inn City Center East Prenzlauer Allee,52.547742464219326,13.428158909082413,Hotel
52.549540920000005,13.43627305759502,666.6666666666666,5575b0bc498ee2c07d55ce40,Bäckerei Backelfe,52.55203785724726,13.430269603154802,Bakery
52.549540920000005,13.43627305759502,666.6666666666666,5aafd6516a595054140dfb2a,Ostseespielplatz,52.54991,13.430879,Playground
52.549540920000005,13.43627305759502,666.6666666666666,4c035781187ec928409ab57b,H Friesickestraße,52.55185988263028,13.440339189278877,Tram Station
52.549540920000005,13.43627305759502,666.6666666666666,4b8510a4f964a520984a31e3,Netto Marken-Discount,52.5527338,13.4386318,Supermarket
52.549540920000005,13.43627305759502,666.6666666666666,54782f6e498ee690adc48357,Enterprise Autovermietung - Berlin-Pankow (Enterprise Rent-A-Car - Berlin-Pankow),52.55268,13.439483,Rental Car Location
52.549540920000005,13.43627305759502,666.6666666666666,514dbf4ee4b02f9bf958d547,Sushi For You,52.54758153774458,13.428310402620788,Asian Restaurant
52.549540920000005,13.43627305759502,666.6666666666666,509810e4e4b092837150300c,Hotel-Pension Odin,52.55131110430816,13.442823381262157,Bed & Breakfast
52.549540920000005,13.43627305759502,666.6666666666666,539ecfa4498ec2230a64e686,Bäckerei & Café,52.54481691239315,13.437762558460236,Bakery
52.549540920000005,13.43627305759502,666.6666666666666,4ce2c9973644a0931869649f,HALLO PIZZA,52.55179428344673,13.428739323120972,Pizza Place
52.549540920000005,13.43627305759502,666.6666666666666,4dc1052952b1877d85aa53f9,Herzpunkt Apotheke,52.54634638427397,13.428951240362917,Pharmacy
52.549540920000005,13.43627305759502,666.6666666666666,4b59b98ff964a520c29428e3,PENNY,52.55265870049492,13.427925610594684,Supermarket
52.549540920000005,13.43627305759502,666.6666666666666,50c8c41ae4b039fe7bea8077,Golden Glory Germany,52.54591401718603,13.44402551651001,Martial Arts School
52.549540920000005,13.43627305759502,666.6666666666666,508b9b4de4b019412c24f15d,Notebook Lounge,52.5469401628832,13.427461162937748,Electronics Store
52.54504492,13.42895299519004,666.6666666666666,4adcda7df964a520914721e3,Zeiss-Großplanetarium,52.542954,13.428055,Planetarium
52.54504492,13.42895299519004,666.6666666666666,572456ac498e0f352f556c58,AtayaCaffe Vegan Restaurant,52.54724172849327,13.426902294158936,Vegetarian / Vegan Restaurant
52.54504492,13.42895299519004,666.6666666666666,4f2beffce4b0167576f86f97,Park hinter dem Planetarium,52.54266796907242,13.429155349731444,Park
52.54504492,13.42895299519004,666.6666666666666,51d1c560498e48b086ab415c,Lao Xiang,52.546011,13.427489,Chinese Restaurant
52.54504492,13.42895299519004,666.6666666666666,575174f7498ef99e3c3913c0,Mo's Coffee,52.54344443257413,13.425362706184387,Café
52.54504492,13.42895299519004,666.6666666666666,4b178156f964a52004c623e3,Bekarei,52.54435463910769,13.422632217407228,Bakery
52.54504492,13.42895299519004,666.6666666666666,5ca3a5c9598e64002c13c42d,BRÄUGIER BrewPub,52.54215282039202,13.423850798790228,Beer Bar
52.54504492,13.42895299519004,666.6666666666666,5c83b977db2aeb002cdd2841,Kajumi,52.544094,13.421894,Coffee Shop
52.54504492,13.42895299519004,666.6666666666666,4f40e6a9e4b0d395c7c75c4d,BIO COMPANY,52.54405800456647,13.426940233644006,Organic Grocery
52.54504492,13.42895299519004,666.6666666666666,4f85abf310812d9ad28b5a03,La Kritzeria,52.54191870395446,13.42452689933416,Candy Store
52.54504492,13.42895299519004,666.6666666666666,50bcfaa1e4b0de82eb92e1bb,Falafel Aladdin,52.54395989235535,13.42430591583252,Falafel Restaurant
52.54504492,13.42895299519004,666.6666666666666,585584250a3d541975c956d6,Walid Speisemeisterei,52.547723,13.42335,German Restaurant
52.54504492,13.42895299519004,666.6666666666666,5afff400012358002cd4f92f,Kaffee.Bar,52.54462786807113,13.422829466378404,Café
52.54504492,13.42895299519004,666.6666666666666,4af28718f964a520d7e721e3,Fräulein Dickes,52.54526166993868,13.421142883356502,Café
52.54504492,13.42895299519004,666.6666666666666,4b196aa8f964a520f4dc23e3,Zaika,52.548138,13.422789,Indian Restaurant
52.54504492,13.42895299519004,666.6666666666666,4df75be662845f605bb695d4,Victoria met Albert,52.54275011124199,13.420867785230792,Boutique
52.54504492,13.42895299519004,666.6666666666666,4b2d0448f964a52065cc24e3,Goldhahn & Sampson,52.54219963187534,13.420430615306818,Gourmet Shop
52.54504492,13.42895299519004,666.6666666666666,54af0c2a498e85d1b90acd0f,Salt n Bone,52.54404686487403,13.42010231458886,Gastropub
52.54504492,13.42895299519004,666.6666666666666,508afe06e4b032cef1b7e2a9,Atopia,52.541599149173,13.425483087362789,Bar
52.54504492,13.42895299519004,666.6666666666666,4bd4528eb221c9b6134edbd0,Spielplatz am Humannplatz,52.54904272576531,13.421953896660204,Playground
52.54504492,13.42895299519004,666.6666666666666,5454eda7498ee281f036eddf,Pastificio Tosatti,52.5435,13.419621,Italian Restaurant
52.54504492,13.42895299519004,666.6666666666666,52c4840d11d221d9ea8d6277,Trattoria Zoe,52.541842,13.423225,Trattoria/Osteria
52.54504492,13.42895299519004,666.6666666666666,58ad912613af1c1875ff3b28,Bricole - Bar Hors d'œuvre,52.540971446408086,13.422471284866331,French Restaurant
52.54504492,13.42895299519004,666.6666666666666,4aeaa27ff964a520fbbb21e3,Café Liebling,52.54209866252614,13.420647382736206,Café
52.54504492,13.42895299519004,666.6666666666666,51a4e1fd498eb4e0cf12ff5b,Herr Nilsson GODIS,52.545074437241325,13.421586032314885,Candy Store
52.54504492,13.42895299519004,666.6666666666666,581e616a4e1d9a19240c9591,höschen,52.542260157110334,13.42077612876892,Bar
52.54504492,13.42895299519004,666.6666666666666,518667b5498e8e931c3c1394,Goldschmied Schmuck Schmiede,52.54172420112961,13.422179776562032,Jewelry Store
52.54504492,13.42895299519004,666.6666666666666,51f02bc1498ed5e8bd0f1672,Lecker Song,52.544249,13.42011,Dim Sum Restaurant
52.54504492,13.42895299519004,666.6666666666666,4b3c9883f964a5206b8525e3,Al Hamra,52.54178686339695,13.42126218085173,Middle Eastern Restaurant
52.54504492,13.42895299519004,666.6666666666666,5a984687c0cacb5d67359a74,Caravaggi,52.542869,13.420122,Italian Restaurant
52.54504492,13.42895299519004,666.6666666666666,4e22dd50091a49c13e12852b,Misirlou Bar,52.54240865670678,13.420687500355816,Bar
52.54504492,13.42895299519004,666.6666666666666,4adcda8df964a520784a21e3,Ausland,52.54486043741404,13.419425280749444,Music Venue
52.54504492,13.42895299519004,666.6666666666666,4c4acd81712ac9286e19fb6b,Der Andere Spieleladen,52.54003671436465,13.424460589186516,Toy / Game Store
52.54504492,13.42895299519004,666.6666666666666,5deb70ee89d1b10008b86511,Kanaan,52.543599,13.419848,Mediterranean Restaurant
52.54504492,13.42895299519004,666.6666666666666,4c0f386d336220a14a84cd77,Humannplatz,52.54910110924915,13.422203063964844,Park
52.54504492,13.42895299519004,666.6666666666666,4bb0e473f964a52070673ce3,Schwimmhalle Ernst-Thälmann-Park,52.5409910220435,13.43376874923706,Pool
52.549540920000005,13.42163293278506,666.6666666666666,5aef2f729ba3e5003971c596,Nabil Falafel Schawarma,52.54996553137204,13.422583937644958,Falafel Restaurant
52.549540920000005,13.42163293278506,666.6666666666666,4b7688a4f964a520d9502ee3,Black Dog Comics,52.5506137,13.4178893,Comic Shop
52.549540920000005,13.42163293278506,666.6666666666666,4b0cafcbf964a520ff4023e3,Wok Show,52.55205548775524,13.419139854919306,Dim Sum Restaurant
52.549540920000005,13.42163293278506,666.6666666666666,4de93e9952b1741cdb17e0cd,Hokey Pokey,52.54676547402726,13.417608402042816,Ice Cream Shop
52.549540920000005,13.42163293278506,666.6666666666666,4c16581e7f7f2d7f9ed0e368,Voland Russian Restaurant,52.54974051971053,13.418119586059149,Russian Restaurant
52.549540920000005,13.42163293278506,666.6666666666666,4d821ed66282721ee9f4eb4d,Bäckerei Günter Kroll,52.55101912474682,13.424198627471924,Bakery
52.549540920000005,13.42163293278506,666.6666666666666,4b48b718f964a520df5326e3,1001 Falafel,52.54688206647712,13.4173126972072,Falafel Restaurant
52.549540920000005,13.42163293278506,666.6666666666666,5527c483498ea157a1b1a740,Friedl Rösterei & Kekse,52.54636320240167,13.418019888019916,Bakery
52.549540920000005,13.42163293278506,666.6666666666666,4b86ab8af964a520409531e3,Sonntags-Club,52.551277013837286,13.418536362155976,Café
52.549540920000005,13.42163293278506,666.6666666666666,4f8816e2e4b005979cf31a8d,Terra Sarda,52.54850421926733,13.420380912043765,Italian Restaurant
52.549540920000005,13.42163293278506,666.6666666666666,4bf030c8c601a5936863c3d1,Spielplatz hinter der Gethsemanekirche,52.547864730342816,13.416940076780646,Playground
52.549540920000005,13.42163293278506,666.6666666666666,5053569be4b02204c1e360c1,BadFish,52.54668740995205,13.417764298661544,Bar
52.549540920000005,13.42163293278506,666.6666666666666,4dcc1f561f6ea1401d4f98c7,Kino Krokodil,52.55245284648684,13.419472046019749,Indie Movie Theater
52.549540920000005,13.42163293278506,666.6666666666666,4b5aeda1f964a520b0da28e3,Signore Batistin,52.546101,13.418705,Deli / Bodega
52.549540920000005,13.42163293278506,666.6666666666666,52adfaef11d26643910a5982,Mayflower,52.55112706553743,13.418289672008466,Chinese Restaurant
52.549540920000005,13.42163293278506,666.6666666666666,535cffd7498e40a294172ad0,Schneiderei,52.55214401770024,13.419189436197248,Café
52.549540920000005,13.42163293278506,666.6666666666666,5a157cb281635b7a9d84d1af,Giomecca,52.552105,13.415195,Pastry Shop
52.549540920000005,13.42163293278506,666.6666666666666,4afeae88f964a520ea2f22e3,Crêpestation,52.5463054846968,13.417988469785616,Creperie
52.549540920000005,13.42163293278506,666.6666666666666,581b24a1cd49d21757cff9a1,Anh Thi,52.549788,13.418694,Vietnamese Restaurant
52.549540920000005,13.42163293278506,666.6666666666666,560984da498e263b8162eb13,Blackbeards,52.546853,13.418332,Burger Joint
52.549540920000005,13.42163293278506,666.6666666666666,4b44db07f964a5204bfe25e3,Zia Maria,52.54595611949305,13.41762881944121,Pizza Place
52.549540920000005,13.42163293278506,666.6666666666666,5471f736498ea09f2bcf22bb,Liquid Garden,52.54680914983472,13.41750318547853,Juice Bar
52.549540920000005,13.42163293278506,666.6666666666666,4adcda8cf964a520394a21e3,BühnenRausch,52.55130382205434,13.418376329996144,Indie Theater
52.549540920000005,13.42163293278506,666.6666666666666,597dd59a9ba3e566d4db8e87,Café It's Love,52.546823,13.418452,Coffee Shop
52.549540920000005,13.42163293278506,666.6666666666666,4b11a46df964a520328123e3,Die Bar,52.547833,13.415339,Cocktail Bar
52.549540920000005,13.42163293278506,666.6666666666666,599c164f8194fc41f1cdac6a,JOHN REED Women's Club,52.5508288,13.4135106,Gym / Fitness Center
52.549540920000005,13.42163293278506,666.6666666666666,5766c4cd498e7d23f41e618c,Guten Dag Korean Fried Chicken,52.54831304153391,13.413515447811514,Fried Chicken Joint
52.549540920000005,13.42163293278506,666.6666666666666,5803b46438faaf1a8ffd6a30,Klement's,52.551193,13.414746,German Restaurant
52.549540920000005,13.42163293278506,666.6666666666666,4b18388cf964a5200acf23e3,Le Midi,52.54716942402416,13.415257964432527,Café
52.549540920000005,13.42163293278506,666.6666666666666,4bbee72cf353d13ae8d67d10,Hacker Bäckerei Konditorei,52.5463436498829,13.41864838447845,Bakery
52.549540920000005,13.42163293278506,666.6666666666666,4b4a2959f964a520e37c26e3,'A Magica,52.547985,13.415465,Pizza Place
52.549540920000005,13.42163293278506,666.6666666666666,5bf6add667e5f200398ed979,Lamm Bar,52.553337,13.415194,Cocktail Bar
52.549540920000005,13.42163293278506,666.6666666666666,50277b7be4b031f7a25f6951,Vietnam-Aroma,52.5502746536998,13.415716389952063,Vietnamese Restaurant
52.549540920000005,13.42163293278506,666.6666666666666,4cbaea0c9552b60cf3dddc8b,Krümel,52.54686452998733,13.417434498363193,Café
52.549540920000005,13.42163293278506,666.6666666666666,4dc3f8992271f2705106d1e2,Prenzl Apotheke,52.55022785170975,13.41395053780296,Pharmacy
52.549540920000005,13.42163293278506,666.6666666666666,5c09287f31ac6c00390e99f1,7 Dumpling,52.548105,13.4131,Dumpling Restaurant
52.549540920000005,13.42163293278506,666.6666666666666,576a613f498ea58a10196bc0,dean&david,52.549741242599296,13.41400026377851,Salad Place
52.549540920000005,13.42163293278506,666.6666666666666,4ff43e91e4b05ae522c86f34,Caffè Monelli,52.547962,13.415492,Café
52.549540920000005,13.42163293278506,666.6666666666666,4af5fd2ef964a520dbff21e3,Becketts Kopf,52.54548368774649,13.417096063531709,Cocktail Bar
52.549540920000005,13.42163293278506,666.6666666666666,5dfc9a55c73f09000834e115,P-Berg Coffee,52.55291,13.414805,Coffee Shop
52.549540920000005,13.42163293278506,666.6666666666666,4b1ad41ff964a520b6f223e3,Van Hoa,52.54759282385181,13.414642536350147,Vietnamese Restaurant
52.549540920000005,13.42163293278506,666.6666666666666,525934f011d261e80971b93b,dm-drogerie markt,52.550973,13.413431,Drugstore
52.549540920000005,13.42163293278506,666.6666666666666,5909af6e26659b21bc68db4d,Junge - Die Bäckerei,52.549616080870514,13.414982502750336,Bakery
52.549540920000005,13.42163293278506,666.6666666666666,4f92ef75e4b01cffa14e3780,moto,52.55222027763351,13.41287850533008,Bar
52.549540920000005,13.42163293278506,666.6666666666666,4afdbfd8f964a520872a22e3,Sasaya,52.544309738166525,13.418225103137416,Japanese Restaurant
52.549540920000005,13.42163293278506,666.6666666666666,4efeaf0af9abd5b38f7f00a8,Konditorei Krautzig,52.546301261612605,13.413970413342586,Bakery
52.549540920000005,13.42163293278506,666.6666666666666,4cf935a2ce1da1cdf85fcce1,denn's Biomarkt,52.54951021968417,13.414352849526024,Organic Grocery
52.549540920000005,13.42163293278506,666.6666666666666,501184c8e4b0c3d590714f74,kalaa yoga,52.54453418887381,13.41748852419068,Yoga Studio
52.549540920000005,13.42163293278506,666.6666666666666,4e9a9f3902d5df1b50518a7e,BackAnstalt,52.550777522946,13.41268034926269,Bakery
52.549540920000005,13.42163293278506,666.6666666666666,4f1aaee3e4b035290d6ef29f,Goldmarie,52.54758814994614,13.414826534627313,Shoe Store
52.549540920000005,13.42163293278506,666.6666666666666,4bdb139863c5c9b633372668,Alnatura,52.55173339268699,13.413797628578251,Organic Grocery
52.549540920000005,13.42163293278506,666.6666666666666,4ba8c367f964a52009ed39e3,Mühlenbäck,52.54982690432176,13.417146474164204,Bakery
52.549540920000005,13.42163293278506,666.6666666666666,514233ffe4b0158defea8d8f,schwalbe,52.54539858035244,13.416860103607178,Sports Bar
52.549540920000005,13.42163293278506,666.6666666666666,57bc41cb498e78cae49ad5a7,Formidable,52.547062310393386,13.412906527519226,Bistro
52.549540920000005,13.42163293278506,666.6666666666666,55cf804d498e97349bf413c6,Al Safa,52.549021522729205,13.413803549881449,Falafel Restaurant
52.549540920000005,13.42163293278506,666.6666666666666,4bc06ffe2a89ef3b937df088,Kebaphaus Ilayda,52.551377588902106,13.413971262231197,Falafel Restaurant
52.549540920000005,13.42163293278506,666.6666666666666,4d67f1e4fd1b8cfa56af24f0,bärenhöhle,52.553322,13.414399,Gay Bar
52.549540920000005,13.42163293278506,666.6666666666666,4bf944db4a67c9287b8a26cf,DECK5,52.54942078432014,13.416152000427246,Beach Bar
52.549540920000005,13.42163293278506,666.6666666666666,5202b809ccda1753671ce773,Abonim,52.55364798428744,13.41680052590288,Korean Restaurant
52.549540920000005,13.42163293278506,666.6666666666666,5b922e726e46500039fbf285,Budni,52.54850742079663,13.413169384002686,Drugstore
52.549540920000005,13.42163293278506,666.6666666666666,4da1a6e20f578cfa199b9018,Gethsemane-Apotheke,52.5476337123261,13.414751894423633,Pharmacy
52.549540920000005,13.42163293278506,666.6666666666666,572232dc498e027fa19d83c1,Tiger,52.54955308790543,13.415060617608242,Gift Shop
52.549540920000005,13.42163293278506,666.6666666666666,4bf52250ff90c9b65cf55528,Thanh Long,52.55271295211926,13.414343028877878,Vietnamese Restaurant
52.549540920000005,13.42163293278506,666.6666666666666,4b898003f964a520563c32e3,Eselsbrücke,52.54835155942612,13.416052509393468,Pub
52.549540920000005,13.42163293278506,666.6666666666666,5392de6f498e14bd1c88e3ac,Bisquitte,52.55213157318261,13.414615961675604,Bakery
52.549540920000005,13.42163293278506,666.6666666666666,5d29a8d0abc6ee0023306238,Espresso House,52.549843,13.413288,Coffee Shop
52.549540920000005,13.42163293278506,666.6666666666666,591702c8e2ead122891d8f18,EDEKA,52.5496236,13.415339399999992,Supermarket
52.549540920000005,13.42163293278506,666.6666666666666,4c821daed4e23704d72c6488,Asia Markt,52.54873782367812,13.412795500841558,Grocery Store
52.549540920000005,13.42163293278506,666.6666666666666,4dcea0f7c65bdac71365a0ad,Asia Mekong,52.550638,13.414786,Grocery Store
52.549540920000005,13.42163293278506,666.6666666666666,51ca8368498e492b1f2435a3,Spreegold,52.547772,13.413919,Bistro
52.549540920000005,13.42163293278506,666.6666666666666,4b822f4bf964a5209bcc30e3,immergrün,52.54958582398121,13.414465899352113,Salad Place
52.549540920000005,13.42163293278506,666.6666666666666,4cb2fd1439458cfa98d116a0,Lidl,52.55259057046256,13.421460364418069,Supermarket
52.549540920000005,13.42163293278506,666.6666666666666,4cac4d385a1e9521e17a8ece,Pension Absolut Berlin,52.55134557749421,13.418016469732724,Bed & Breakfast
52.549540920000005,13.42163293278506,666.6666666666666,4b4e3cd9f964a52066e626e3,Dänen Minimarkt,52.54963504806428,13.41307038335546,Food & Drink Shop
52.549540920000005,13.42163293278506,666.6666666666666,55325293498e0d57987d36f1,Daheim,52.55302290056599,13.423904443753855,German Restaurant
52.549540920000005,13.42163293278506,666.6666666666666,5685f31e498ef577ec7a5fca,Hintersee,52.5475532205006,13.41528136094827,Bar
52.549540920000005,13.42163293278506,666.6666666666666,4af5ab71f964a5200efb21e3,Fitness First,52.5495986,13.4146766,Gym / Fitness Center
52.549540920000005,13.42163293278506,666.6666666666666,4d453e0cbefe236a9874fde2,BioBackHaus,52.54802232413917,13.413513613856695,Bakery
52.549540920000005,13.42163293278506,666.6666666666666,4bbf8727f8219c74f321b010,H Stahlheimer Straße / Wisbyer Straße,52.552597836509854,13.424627780914308,Tram Station
52.549540920000005,13.42163293278506,666.6666666666666,551e950b498ee9d455041b49,März,52.547416760954114,13.415405026172108,German Restaurant
52.54504492,13.414312870380082,666.6666666666666,4b2b45c7f964a5207fb524e3,Kutzner & Kutzner,52.54628748628879,13.41309057477672,Organic Grocery
52.54504492,13.414312870380082,666.6666666666666,53d95fce498e8e0d4b39488c,"CAFÉ gestern, heute & morgen",52.546792,13.412589,Café
52.54504492,13.414312870380082,666.6666666666666,5b2d5cd966f3cd00397d8ea3,Dr. Maury,52.54571779653821,13.412921661343049,Wine Bar
52.54504492,13.414312870380082,666.6666666666666,577944d9498e3d8851d97c50,Hum vegan cuisine,52.54365117699298,13.41649562512907,Vietnamese Restaurant
52.54504492,13.414312870380082,666.6666666666666,4e0cc5d0d1646f1517899b81,Sophak Thai Massage,52.54356191867642,13.41491217809899,Massage Studio
52.54504492,13.414312870380082,666.6666666666666,4be533992457a593823cab15,Pakolat,52.54381372971663,13.416153352998345,Coffee Shop
52.54504492,13.414312870380082,666.6666666666666,55b0d184498ec2c7ef77e14c,Zum Starken August,52.54370868802825,13.412740230560305,Bar
52.54504492,13.414312870380082,666.6666666666666,4b867844f964a5206a8b31e3,Der Fischladen,52.54599,13.41256,Seafood Restaurant
52.54504492,13.414312870380082,666.6666666666666,52714b2e11d252b8e27b5c6f,Suzette,52.54335681852204,13.414827973512976,Creperie
52.54504492,13.414312870380082,666.6666666666666,4fcfa2eae4b05e014d3050a2,Osmans Töchter,52.54316300819961,13.414681008538407,Turkish Restaurant
52.54504492,13.414312870380082,666.6666666666666,56fd0500498e4f56df2da93a,OAK & ICE,52.54286062146601,13.412397943671383,Ice Cream Shop
52.54504492,13.414312870380082,666.6666666666666,4cc2ceb382388cfaf6de6235,Supalife Kiosk,52.54383307038778,13.416111208205075,Art Gallery
52.54504492,13.414312870380082,666.6666666666666,5c714d25872f7d0039a39153,SPRO Scones Bakery & Coffee,52.542423,13.412743,Bakery
52.54504492,13.414312870380082,666.6666666666666,53a8039c498e5ee8a09c246d,NO WÓDKA,52.542643,13.414197,Clothing Store
52.54504492,13.414312870380082,666.6666666666666,55a90eff498e8f5cf91f1fd9,Ushido,52.54230345760376,13.416069667398542,Japanese Restaurant
52.54504492,13.414312870380082,666.6666666666666,5044d7e4e4b02607d1ea1e8c,Mon Plaisir,52.54245936958345,13.413827720964669,Pastry Shop
52.54504492,13.414312870380082,666.6666666666666,4fbfe24be4b0519068103eb6,La Käserie,52.541523533430656,13.415084461337107,Cheese Shop
52.54504492,13.414312870380082,666.6666666666666,565c1237498eccbbe5a6aa68,Takumi NINE,52.54382,13.415724,Ramen Restaurant
52.54504492,13.414312870380082,666.6666666666666,4b621fa0f964a520fb362ae3,CORE,52.542338716980254,13.413706150465488,Korean Restaurant
52.54504492,13.414312870380082,666.6666666666666,5a6dd12028374e56b2733adb,Zeit für Brot,52.54115904393887,13.411777183842078,Bakery
52.54504492,13.414312870380082,666.6666666666666,4adcda7ef964a520db4721e3,Helmholtzplatz,52.54308556459545,13.41876983642578,Plaza
52.54504492,13.414312870380082,666.6666666666666,53c8b583498e9de2835fd656,La Buvette,52.54744398074463,13.409124612808228,Wine Bar
52.54504492,13.414312870380082,666.6666666666666,5a59225a0868a24e8b1edfa8,Rhinoçéros,52.54815,13.40997,Bar
52.54504492,13.414312870380082,666.6666666666666,4adcda79f964a5208c4621e3,Wohnzimmer,52.54339639006464,13.419287620066626,Café
52.54504492,13.414312870380082,666.6666666666666,4b7407f2f964a5209ec42de3,Bar Salumeria Sigismondo,52.54885574142543,13.411567326359338,Coffee Shop
52.54504492,13.414312870380082,666.6666666666666,59353278c5b11c6c16fec87d,Haferkater,52.541151282054216,13.411323991030672,Breakfast Spot
52.54504492,13.414312870380082,666.6666666666666,4b0d7a5df964a520394923e3,Pizza Nostra,52.540985,13.414694,Pizza Place
52.54504492,13.414312870380082,666.6666666666666,572484f6498e33891f5f8d2e,Brettspielgeschäft Berlin,52.54127486777599,13.41106116771698,Hobby Shop
52.54504492,13.414312870380082,666.6666666666666,5dc73056c976fd00088aa430,Burgermeister,52.540663,13.412514,Burger Joint
52.54504492,13.414312870380082,666.6666666666666,4c41a6133735be9aacaf18a4,Ratzekatz Spielzeugland,52.54310987021834,13.4177579573999,Toy / Game Store
52.54504492,13.414312870380082,666.6666666666666,54e8876d498e51bac91b4b7a,Wim Kaffee,52.54782110753511,13.409815194969818,Coffee Shop
52.54504492,13.414312870380082,666.6666666666666,4f8c75d2e4b0b1c4b29898f0,Les Valseuses,52.54127330169977,13.410824596357996,French Restaurant
52.54504492,13.414312870380082,666.6666666666666,4f7c6674e4b076d3e797c674,BUCHBOX!,52.54330665081859,13.419347069075506,Bookstore
52.54504492,13.414312870380082,666.6666666666666,5a5ca954fc9e94066537331d,Tilda,52.5429469102725,13.4177827835083,Café
52.54504492,13.414312870380082,666.6666666666666,4faea556e4b0ec82893bbb05,Nothaft,52.540269136969584,13.412257663002183,Café
52.54504492,13.414312870380082,666.6666666666666,5bb0fca99fca56002cfecc11,Rüyam Gemüse Kebap,52.5405629922514,13.412208178078076,Doner Restaurant
52.54504492,13.414312870380082,666.6666666666666,554b952d498eeefb080fef21,Bierlinie,52.54088497927016,13.416760615897996,Beer Store
52.54504492,13.414312870380082,666.6666666666666,4d5425f3f9f9b60c9b222be6,Spielplatz Helmholtzplatz,52.54311396378938,13.418469696449945,Playground
52.54504492,13.414312870380082,666.6666666666666,515c64e8e4b0ee49fa6798fe,Pizza Alla Grande,52.543707,13.418359,Pizza Place
52.54504492,13.414312870380082,666.6666666666666,576d9a9e498eeb2c045eae4c,Asteria,52.5415876638317,13.41202236442795,Greek Restaurant
52.54504492,13.414312870380082,666.6666666666666,518b8132498e7ebebf79690e,häppies,52.54146560357877,13.419871504217673,Dumpling Restaurant
52.54504492,13.414312870380082,666.6666666666666,570a611e498e59fb697b8052,Hedwig,52.5430234228502,13.417964662903191,Ice Cream Shop
52.54504492,13.414312870380082,666.6666666666666,4bd9ecb53904a5930f46449e,Guru Shop,52.54125957285794,13.412580717150282,Clothing Store
52.54504492,13.414312870380082,666.6666666666666,5bd4b4742be425002c4c7d35,Kokio,52.539875,13.41632,Korean Restaurant
52.54504492,13.414312870380082,666.6666666666666,55771844498eb08a2079f2a7,Lorch & Söhne,52.54037670566916,13.41708725992568,Café
52.54504492,13.414312870380082,666.6666666666666,4aef5cbaf964a520d9d721e3,Omoni,52.54916084567979,13.408934562386694,Sushi Restaurant
52.54504492,13.414312870380082,666.6666666666666,5813828e38fab8658afe7fec,Mr. Le,52.54211106574643,13.411990868009026,Vietnamese Restaurant
52.54504492,13.414312870380082,666.6666666666666,50335ae3e4b068ac48ade2a0,Berlin on Bike,52.53980914191299,13.413384233903482,Bike Rental / Bike Share
52.54504492,13.414312870380082,666.6666666666666,5028f5b0e4b004413adef40a,Linnen,52.54144125924865,13.408958315849304,Bed & Breakfast
52.54504492,13.414312870380082,666.6666666666666,4c377b4adfb0e21ebfddaca8,Fischfabrik,52.53998694053296,13.41709895968961,Seafood Restaurant
52.54504492,13.414312870380082,666.6666666666666,4be5de69d4f7c9b6d10e2620,Doors,52.539912375406814,13.41456504468078,Bar
52.54504492,13.414312870380082,666.6666666666666,4af18fb8f964a5205fe121e3,Maria Bonita,52.540366,13.418131,Mexican Restaurant
52.54504492,13.414312870380082,666.6666666666666,52876b5411d2728dfe41dcc9,Museum in der Kulturbrauerei,52.54024691416204,13.413872059432167,History Museum
52.54504492,13.414312870380082,666.6666666666666,593917d34928140396e2e3a0,Rosa Wolf,52.541104,13.409779,Café
52.54504492,13.414312870380082,666.6666666666666,4b2e780cf964a520b1e024e3,Onkel Ho,52.54704441052437,13.40604622876056,Vietnamese Restaurant
52.54504492,13.414312870380082,666.6666666666666,55f6ad00498ec2e383922df6,Zweistromland,52.54029281898408,13.415819406509398,Falafel Restaurant
52.54504492,13.414312870380082,666.6666666666666,52cbf133498e78d875c9f01f,K'UPS Gemüsekebap,52.53999731196545,13.411222019202992,Doner Restaurant
52.54504492,13.414312870380082,666.6666666666666,5706a2fe498e60ef83efa4ff,BIO COMPANY,52.54764030189013,13.41206306057418,Organic Grocery
52.54504492,13.414312870380082,666.6666666666666,50b0ff51e4b01d0e2bb83d10,Uslar & Rai,52.54019905817791,13.412277452928466,Bookstore
52.54504492,13.414312870380082,666.6666666666666,533e8fe4498e4f4391ed60ec,Song Nguu,52.54670539928432,13.405606068495455,Vietnamese Restaurant
52.54504492,13.414312870380082,666.6666666666666,5c97b5c09be522002ca72778,Tipsy Bear,52.541054,13.410651,Bar
52.54504492,13.414312870380082,666.6666666666666,5af5e4aa829b0c002ba3f8a0,Anh Dao,52.540176,13.419122,Vietnamese Restaurant
52.54504492,13.414312870380082,666.6666666666666,4ade2c76f964a520987321e3,Kohlenquelle,52.5491948878409,13.40795265707412,Pub
52.54504492,13.414312870380082,666.6666666666666,5b8ad835a0215b002c504103,Neoprivée,52.539975,13.413211,Health & Beauty Service
52.54504492,13.414312870380082,666.6666666666666,4b611125f964a5207c082ae3,Pratergarten,52.54017536317262,13.409757614135742,Beer Garden
52.54504492,13.414312870380082,666.6666666666666,5b2a26333f5c69002ce67ace,Holy Flat,52.540983,13.410994,Vegetarian / Vegan Restaurant
52.549540920000005,13.4069928079751,666.6666666666666,59636fb6e2da191dcb678a07,Unser Café,52.550083,13.408408,Café
52.549540920000005,13.4069928079751,666.6666666666666,5311cf6e498e95b8db3b6061,Cafe Kraft,52.551228,13.403916,Coffee Shop
52.549540920000005,13.4069928079751,666.6666666666666,4e1ff29345dd950bb0154a97,Veganz,52.55085,13.408428,Grocery Store
52.549540920000005,13.4069928079751,666.6666666666666,5801480bd67c5f0866939491,Restorani Tbilisi,52.55181155867533,13.408228915591163,Caucasian Restaurant
52.549540920000005,13.4069928079751,666.6666666666666,55e82454498e83719d5b2704,REWE,52.55074794435115,13.409915555464863,Supermarket
52.549540920000005,13.4069928079751,666.6666666666666,4b7eb473f964a52033fa2fe3,Blaumilchkanal,52.55137628328503,13.404216514363604,Bar
52.549540920000005,13.4069928079751,666.6666666666666,4b9211eaf964a520dce533e3,Bäckerei und Konditorei Siebert,52.55286319203129,13.408512700891809,Bakery
52.549540920000005,13.4069928079751,666.6666666666666,544b8506498eac061c29ed1e,Lola was here,52.55190000123299,13.410665714790376,Café
52.549540920000005,13.4069928079751,666.6666666666666,4e0f5c3ab0fb59de67dfbef9,Asiaküche Phuoc,52.55129978077859,13.405170043818746,Vietnamese Restaurant
52.549540920000005,13.4069928079751,666.6666666666666,5cf385bf031320002c4335eb,Sveda,52.547613,13.401106,Café
52.549540920000005,13.4069928079751,666.6666666666666,55996bef498e7530fe77206d,La Lupa e l'orso,52.55214912752602,13.408402956529333,Italian Restaurant
52.549540920000005,13.4069928079751,666.6666666666666,4ff853a1e4b01ead02a02f9a,Sugafari - Candy from all over the world,52.5489446343944,13.409520747600824,Candy Store
52.549540920000005,13.4069928079751,666.6666666666666,4c07d1e43f200f47fa1609d1,Falkplatz,52.5461290370566,13.40450802223054,Park
52.549540920000005,13.4069928079751,666.6666666666666,4aef258bf964a5200cd621e3,Bornholmer Hütte,52.553659570556846,13.411802790903618,Pub
52.549540920000005,13.4069928079751,666.6666666666666,4adcda8ef964a520834a21e3,Haus der Sinne,52.54913651862875,13.404115540552892,Theater
52.549540920000005,13.4069928079751,666.6666666666666,4fb27eaae4b01bca555ceb8c,Café Frau Krüger,52.5483019673496,13.400737592221304,Café
52.549540920000005,13.4069928079751,666.6666666666666,4dac537c6e81162ae7ff46a3,Jugendfarm Moritzhof,52.54795578240846,13.400322806821835,Farm
52.549540920000005,13.4069928079751,666.6666666666666,4bbdfddaf57ba59324baaeb9,Café Meta,52.54580310091016,13.4060937166214,Comfort Food Restaurant
52.549540920000005,13.4069928079751,666.6666666666666,4af1be23f964a520b2e221e3,Arnimplatz,52.55367546440812,13.407206888364364,Park
52.549540920000005,13.4069928079751,666.6666666666666,4dbd6aaef7b1ab37dd754a70,Cholila,52.54683194099644,13.403927694498824,Ice Cream Shop
52.549540920000005,13.4069928079751,666.6666666666666,4adcda80f964a5203b4821e3,Friedrich-Ludwig-Jahn-Sportpark,52.544077338041056,13.407118320465088,Stadium
52.549540920000005,13.4069928079751,666.6666666666666,4f99b2f1e4b03f9bd57e35e0,Finn15,52.55366028819812,13.401536877785675,Lounge
52.549540920000005,13.4069928079751,666.6666666666666,5919acb4916bc17c58cd5eee,Manjodh Restaurant,52.553556,13.411306,Restaurant
52.549540920000005,13.4069928079751,666.6666666666666,4db9e041cda173a95d0bc507,Birkenwäldchen im Mauerpark,52.54574438041536,13.401185274124144,Forest
52.549540920000005,13.4069928079751,666.6666666666666,4c66fae68e9120a1d586d964,Gleimtunnel,52.54647838095405,13.400273323059082,Tunnel
52.549540920000005,13.4069928079751,666.6666666666666,58a0af9d04f4d712773e0aed,Arirang Bulgogi,52.55395641534746,13.409892395438584,Korean Restaurant
52.549540920000005,13.4069928079751,666.6666666666666,5724a41c498e82cf957b635b,Bolle Eis,52.554305,13.408108,Ice Cream Shop
52.549540920000005,13.4069928079751,666.6666666666666,4e83680a0039d38881209b6b,Kiez Späti,52.55289133283905,13.40433178018017,Convenience Store
52.549540920000005,13.4069928079751,666.6666666666666,4b64746af964a52079b42ae3,ALDI NORD,52.54891191270208,13.401265740394592,Supermarket
52.549540920000005,13.4069928079751,666.6666666666666,5381ebab498ec7f8330a1ee4,Café Bäckerei Zimtmühle,52.55438058601715,13.408596555808304,Bakery
52.549540920000005,13.4069928079751,666.6666666666666,56100a15498e7850822a2ea6,Seth Fathe,52.553131,13.403095,Pakistani Restaurant
52.549540920000005,13.4069928079751,666.6666666666666,4fc106e3e4b0730dec05530f,Hotel 103,52.55304825378163,13.413191145803136,Hotel
52.549540920000005,13.4069928079751,666.6666666666666,4d407dc6255d8cfafb596605,Zum Bayernmichel,52.55374059329254,13.41086327786413,German Restaurant
52.549540920000005,13.4069928079751,666.6666666666666,507e8925e4b04a6406a61773,Steak Company,52.55419489000054,13.410935734318686,Steakhouse
52.549540920000005,13.4069928079751,666.6666666666666,4e95c82f02d5c92d4682e4be,Lidl,52.55396026928192,13.40099885298514,Supermarket
52.549540920000005,13.4069928079751,666.6666666666666,4c11ce7f17002d7faeece609,H Björnsonstraße,52.55441938175228,13.403499565725085,Tram Station
52.549540920000005,13.4069928079751,666.6666666666666,4f75cf0ce4b042526a93aa80,Skiservice Berlin,52.5540308334994,13.406322131436006,Sporting Goods Shop
52.549540920000005,13.4069928079751,666.6666666666666,4d9ecd187f1b721e4f928f0f,Paint Supply GmbH,52.55395759468245,13.41215124561644,Sporting Goods Shop
52.549540920000005,13.4069928079751,666.6666666666666,5730e2abcd102ed57bd02f53,SF Embassy: Berlin,52.554954345649016,13.406647093913929,Border Crossing
52.549540920000005,13.4069928079751,666.6666666666666,4df20388d22d8c5470d7887d,Tabakfreund,52.55316259928933,13.414441681108032,Smoke Shop
52.54504492,13.399672745570122,666.6666666666666,4adcda7ff964a520f84721e3,Mauerpark,52.54371195043132,13.402676582336426,Park
52.54504492,13.399672745570122,666.6666666666666,4bd01759462cb7133fc4d707,Sonntagskaraoke im Mauerpark,52.54287400199544,13.40341355989825,Karaoke Bar
52.54504492,13.399672745570122,666.6666666666666,4c45fd66f1b5c9b6bc2f78ef,Tortenwerkstatt,52.54626615824266,13.397768503628976,Café
52.54504492,13.399672745570122,666.6666666666666,4b813652f964a520a49a30e3,Flohmarkt am Mauerpark,52.54158481216926,13.402118682861328,Flea Market
52.54504492,13.399672745570122,666.6666666666666,541d81d6498e1ced3b65e9f1,The Juicery,52.54071043710187,13.40554118156433,Juice Bar
52.54504492,13.399672745570122,666.6666666666666,4adcda88f964a520834921e3,The Bird,52.546305,13.405921,Burger Joint
52.54504492,13.399672745570122,666.6666666666666,560042df498e141bde4ec9eb,Mauerwinzer,52.539412,13.402179,Wine Bar
52.54504492,13.399672745570122,666.6666666666666,4d41b1b7de17a093d99d036c,Hundeauslauf Mauerpark,52.54157554890411,13.404704522037475,Dog Run
52.54504492,13.399672745570122,666.6666666666666,5b7992417564f7002cbccb28,Hirsch & Hase,52.541924,13.393521,Gastropub
52.54504492,13.399672745570122,666.6666666666666,577e84cc498e7c7b69a91e3f,Cookies and Cream,52.53935244997205,13.402386903762816,Ice Cream Shop
52.54504492,13.399672745570122,666.6666666666666,53cb7a3b498e9b1d665b41a1,norah,52.546919,13.406335,Café
52.54504492,13.399672745570122,666.6666666666666,4adcda89f964a520a54921e3,Max-Schmeling-Halle,52.54492554755223,13.404393196105955,Stadium
52.54504492,13.399672745570122,666.6666666666666,4bd466a5a8b3a593ddae6b5f,Eisstübchen Madlen,52.54039602540935,13.40495448051878,Ice Cream Shop
52.54504492,13.399672745570122,666.6666666666666,4bbaea30cf2fc9b6790aa202,Best Friends,52.54702109687461,13.40583823155858,Japanese Restaurant
52.54504492,13.399672745570122,666.6666666666666,514f6d61e4b0f713ba43b0d5,Mauermarkt,52.547054358941615,13.406262049067395,Grocery Store
52.54504492,13.399672745570122,666.6666666666666,4dcfe79645ddbe15f8acd998,Schwesterherz,52.54896148658892,13.406254728118409,Café
52.54504492,13.399672745570122,666.6666666666666,4adcda79f964a5209e4621e3,Schönwetter,52.54095905141669,13.402882447881712,Beach Bar
52.54504492,13.399672745570122,666.6666666666666,4b06d8a9f964a52054f122e3,Bäckerei Harmonie,52.547455916858816,13.405228799104256,Bakery
52.54504492,13.399672745570122,666.6666666666666,58cfc1d02ec3647b45da3063,East Moon,52.54050106891077,13.404944059908107,Vietnamese Restaurant
52.54504492,13.399672745570122,666.6666666666666,4afc7017f964a520b62222e3,Pattaya,52.54728363479725,13.40843062076886,Thai Restaurant
52.54504492,13.399672745570122,666.6666666666666,536cfa36498e321c3f3a2770,Rocca Pizza & Pasta,52.5470750320779,13.40639371686972,Pizza Place
52.54504492,13.399672745570122,666.6666666666666,524b0e43498ea1110f87cb53,denn's Biomarkt,52.54032544554256,13.40431809425354,Organic Grocery
52.54504492,13.399672745570122,666.6666666666666,5b437031a6031c002cac30d9,Samer Café,52.547334,13.408378,Café
52.54504492,13.399672745570122,666.6666666666666,4c66fe677abde21ed5306568,Gleim Shop Spätkauf,52.54712613095748,13.407236463368578,Convenience Store
52.54504492,13.399672745570122,666.6666666666666,591ef6249746170f47c1b5f8,Nguyen Kitchen,52.540191,13.395002,Vietnamese Restaurant
52.54504492,13.399672745570122,666.6666666666666,4c6fe62cf52cb7132f5aabaf,VEB Orange,52.54021316353339,13.405287579291944,Thrift / Vintage Store
52.54504492,13.399672745570122,666.6666666666666,54f619e4498eae166290b547,Dan's Dim Sum & Noodles,52.54730828036152,13.408704370792677,Dim Sum Restaurant
52.54504492,13.399672745570122,666.6666666666666,59a0813fd3cce849ca74388b,Supersonico,52.539383341602345,13.399474464618793,Italian Restaurant
52.54504492,13.399672745570122,666.6666666666666,4cb603921b0af04d2a8ccd25,H+ Hotel 4Youth,52.53971206218531,13.401871919631958,Hostel
52.54504492,13.399672745570122,666.6666666666666,4adcda7af964a520e44621e3,Mauersegler,52.54065823505441,13.403143286705015,Beer Garden
52.54504492,13.399672745570122,666.6666666666666,5290da1211d25762cbc03040,Tante Käthe,52.540413537129446,13.403025269508362,Sports Bar
52.54504492,13.399672745570122,666.6666666666666,54d5c920498ead5140856748,Läckerei,52.542931305948144,13.39239991819911,Bakery
52.54504492,13.399672745570122,666.6666666666666,4c238afc11de20a12d9586ce,Aral,52.54099135721675,13.393665006638814,Gas Station
52.54504492,13.399672745570122,666.6666666666666,50a7faf2e4b078585002b55d,El Sabor,52.54684747872598,13.405666388560608,Latin American Restaurant
52.54504492,13.399672745570122,666.6666666666666,4da1bbb89aa4721eb78c001a,Eis Henri,52.54592390109061,13.390159666197082,Ice Cream Shop
52.54504492,13.399672745570122,666.6666666666666,4e1c8869c65bc4a776bbbe05,Prinzen Falafel,52.5403645973808,13.402853608131409,Falafel Restaurant
52.54504492,13.399672745570122,666.6666666666666,53badb96498eb188fa42e6dd,Oderburger,52.540394,13.405352,Burger Joint
52.54504492,13.399672745570122,666.6666666666666,4e96a76b4690385f1adc4f23,Mond & Stern Croissanterie & Bäckerei,52.54285335110461,13.39240010016982,Bakery
52.54504492,13.399672745570122,666.6666666666666,4e12fb8bb0fbfef99b9eda69,Café Libertad,52.54732178591585,13.408625411854072,Ice Cream Shop
52.54504492,13.399672745570122,666.6666666666666,4c00c98d9cf52d7f535814e7,Lidl,52.5445528,13.3916214,Supermarket
52.54504492,13.399672745570122,666.6666666666666,4b56b463f964a5200d1928e3,H Wolliner Straße,52.53988145912049,13.401754625484289,Tram Station
52.54504492,13.399672745570122,666.6666666666666,588a07d9158b964a9c35b360,Unicorn.Canteen,52.540751,13.394369,Café
52.54504492,13.399672745570122,666.6666666666666,4b632f18f964a520df682ae3,H Friedrich-Ludwig-Jahn-Sportpark,52.54089300343062,13.405881457922488,Tram Station
52.549540920000005,13.39235268316514,666.6666666666666,55682d59498efaa3cd2b0f0c,Hostelo Berlin,52.55045176738218,13.39151534555728,Hostel
52.549540920000005,13.39235268316514,666.6666666666666,4b39de5bf964a520585f25e3,Berliner Unterwelten e.V.,52.54774454143173,13.388863673656248,History Museum
52.549540920000005,13.39235268316514,666.6666666666666,4de0c505fa76425c54210061,Berliner Unterwelten Tour 1,52.54765723765202,13.388872930560026,Trail
52.549540920000005,13.39235268316514,666.6666666666666,583877bac0df76608666cd6d,John Reed Fitness,52.5480237,13.3896053,Gym / Fitness Center
52.549540920000005,13.39235268316514,666.6666666666666,5a2ff88f9e0d540b973be09b,REWE Center,52.54975087,13.38744469,Supermarket
52.549540920000005,13.39235268316514,666.6666666666666,4b6dcb34f964a52076902ce3,Curry Baude,52.54942017309213,13.386998598840623,Currywurst Joint
52.549540920000005,13.39235268316514,666.6666666666666,4beb27466295c9b6ce5c8708,Offside,52.55326874947898,13.39186254357669,Whisky Bar
52.549540920000005,13.39235268316514,666.6666666666666,4d989b3fc19fb60c1d00b265,Rosengarten,52.547565015384365,13.38720702048652,Garden
52.549540920000005,13.39235268316514,666.6666666666666,53e77dac498e03a758e9706b,Miss Ploff,52.55396129013737,13.391898244448864,Coffee Shop
52.549540920000005,13.39235268316514,666.6666666666666,4d603686ef378cfa048d7aa6,F-Bar,52.55190846583408,13.386492881397304,Dive Bar
52.549540920000005,13.39235268316514,666.6666666666666,4b8d0776f964a520f1e432e3,La Femme,52.5501068352242,13.385303814583947,Breakfast Spot
52.549540920000005,13.39235268316514,666.6666666666666,55e2ec42498eae67c1bc4d32,Dilekerei,52.554024,13.3915615,Café
52.549540920000005,13.39235268316514,666.6666666666666,55e7fa11498edd01d1f10b41,denn's Biomarkt,52.54879932882594,13.388637894952028,Organic Grocery
52.549540920000005,13.39235268316514,666.6666666666666,4b0fa456f964a520ce6323e3,Kaufland,52.54767793729389,13.389022935830626,Big Box Store
52.549540920000005,13.39235268316514,666.6666666666666,4b052930f964a520485722e3,Flakturm Humboldthain,52.54728735823434,13.384412478550338,Historic Site
52.549540920000005,13.39235268316514,666.6666666666666,535023b4498e2fd3be89d33d,DaGiorgio's,52.55233367160287,13.386915693844443,Italian Restaurant
52.549540920000005,13.39235268316514,666.6666666666666,5aa1a45b72475052b099e7b1,MOXY Berlin Humboldthain Park,52.549568249587495,13.384071431974007,Hotel
52.549540920000005,13.39235268316514,666.6666666666666,4cc2c13238aaa093cf210862,eurogida,52.55006093628966,13.385788515861456,Grocery Store
52.549540920000005,13.39235268316514,666.6666666666666,4b705ad5f964a520d6142de3,Shalimar Restaurant,52.5523345102005,13.387930512604544,Pakistani Restaurant
52.549540920000005,13.39235268316514,666.6666666666666,4bcd798fcc8cd13a6e97c2cf,Volkspark Humboldthain,52.54551275991975,13.385403156280518,Park
52.549540920000005,13.39235268316514,666.6666666666666,514e02b7e4b0c56a35535ff0,Il Milanese del Tacco,52.5517715972638,13.3841072406509,Gourmet Shop
52.549540920000005,13.39235268316514,666.6666666666666,4e72d880196b52816e04af8b,Studio8,52.55192522392607,13.386392184944087,Bar
52.549540920000005,13.39235268316514,666.6666666666666,59a82b1c67e5f236ada52c57,TK Maxx,52.55000575730891,13.390336060834988,Clothing Store
52.549540920000005,13.39235268316514,666.6666666666666,535a5628498e9880fbf2c5f4,Berliner Unterwelten Tour M,52.54991007838847,13.385360240936278,Trail
52.549540920000005,13.39235268316514,666.6666666666666,4c73b3823c26ef3b88dfe5d5,Thalia,52.549623,13.3882892,Bookstore
52.549540920000005,13.39235268316514,666.6666666666666,5076e415e4b062c08658b4d5,dm-drogerie markt,52.55138510725133,13.384346999999934,Drugstore
52.549540920000005,13.39235268316514,666.6666666666666,536bbdb9498e1507574a2214,Echo Bücher,52.551990072329474,13.386620540973404,Bookstore
52.549540920000005,13.39235268316514,666.6666666666666,4cb6bd8555af224b1f0c9c7e,Dunkin',52.549693,13.38762,Donut Shop
52.549540920000005,13.39235268316514,666.6666666666666,4d344e858250f04d134c04e1,Rossmann,52.548059820779,13.3904329005722,Drugstore
52.549540920000005,13.39235268316514,666.6666666666666,4e133d4e2fb6744af78ef9eb,Telekom Shop,52.549698,13.38793,Mobile Phone Shop
52.549540920000005,13.39235268316514,666.6666666666666,504b3e1de4b086a8f9e1b113,C&A,52.54968837801101,13.387952005062967,Clothing Store
52.549540920000005,13.39235268316514,666.6666666666666,578542f1498e900c0a14a470,Wonder Waffel,52.5508126428986,13.384897248801924,Ice Cream Shop
52.549540920000005,13.39235268316514,666.6666666666666,4f26e52ce4b0008744c4939a,Lidl,52.5509487,13.3832753,Supermarket
52.549540920000005,13.39235268316514,666.6666666666666,5459d324498eb1f620e91b5b,Korn Bäckerei,52.547283,13.389672,Bakery
52.549540920000005,13.39235268316514,666.6666666666666,4c6003c1de6920a123ed9464,Bella Italia,52.54736920948017,13.38912031059014,Italian Restaurant
52.549540920000005,13.39235268316514,666.6666666666666,4ff3075fe4b0ac27471cb7d9,Gleis 5/6,52.54879835360707,13.389984369277954,Platform
52.549540920000005,13.39235268316514,666.6666666666666,5224e84dbce6f4ef2428ee82,H S Bornholmer Straße,52.55488090511484,13.395847160324768,Tram Station
52.54504492,13.385032620760162,666.6666666666666,515c4010fe701fcb8267a454,uberall HQ,52.5419157,13.3831489,IT Services
52.54504492,13.385032620760162,666.6666666666666,4aec60e0f964a5207ec621e3,Magic Mountain Kletterhalle,52.54861255286821,13.381901681283116,Climbing Gym
52.54504492,13.385032620760162,666.6666666666666,566bddcd498eba8f2f2f551c,Flying Roasters,52.5438163472016,13.377061486244202,Coffee Shop
52.54504492,13.385032620760162,666.6666666666666,5bcab6790d8a0f002cc73f62,Sotto,52.54283109279643,13.376388251781464,Pizza Place
52.54504492,13.385032620760162,666.6666666666666,5692e518498eaf25cd440eef,Kleine Bar,52.54340613674283,13.377689485845886,Bar
52.54504492,13.385032620760162,666.6666666666666,5ba5ed2f5c6838002cc04516,Baldon,52.54912,13.381062,Restaurant
52.54504492,13.385032620760162,666.6666666666666,4c595b042fa89c7474a11323,Freysinn,52.53958224408168,13.388077852841825,Café
52.54504492,13.385032620760162,666.6666666666666,51841bd5e4b063a5e4f9e27a,Humboldthain Club,52.54430298987952,13.378567947131744,Nightclub
52.54504492,13.385032620760162,666.6666666666666,4c39b20f0a71c9b6d2e242c9,Sommerbad Humboldthain,52.54527511891685,13.381450568709516,Pool
52.54504492,13.385032620760162,666.6666666666666,57aede0d498eca015fafc08c,Möbel Kraft Wedding,52.54866402700487,13.37737319642966,Furniture / Home Store
52.54504492,13.385032620760162,666.6666666666666,4e2aa9731f6ebe54424a8dc7,dm-drogerie markt,52.5498284,13.3879803,Drugstore
52.54504492,13.385032620760162,666.6666666666666,4f368850e4b0edf91bf42b2c,Tchibo,52.54981617588424,13.388591669441327,Coffee Shop
52.54504492,13.385032620760162,666.6666666666666,503fbd0a7e2752ec471b5510,Rossmann,52.54983429744819,13.38809868549348,Drugstore
52.54504492,13.385032620760162,666.6666666666666,4d970c810caaa143862f87b3,H&M,52.54971086296672,13.389029503887398,Clothing Store
52.54504492,13.385032620760162,666.6666666666666,4c4aaf0346240f477a253df2,Lichtburg,52.55024598896703,13.388060612939862,Café
52.54504492,13.385032620760162,666.6666666666666,4c247d04a852c928e329e36c,Berliner Unterwelten Tour 3,52.54947949989637,13.386197090148926,Trail
52.54504492,13.385032620760162,666.6666666666666,4b992f36f964a520d16735e3,Pizza Pasta Tralala,52.54945551575543,13.388902582031706,Italian Restaurant
52.54504492,13.385032620760162,666.6666666666666,56c2af5bcd104fc36695c885,Wiener Feinbäckerei,52.54920549320182,13.38909387588501,Bakery
52.54504492,13.385032620760162,666.6666666666666,4e0e2aa07d8bb178a8a64f8d,Yeşil Fırın Kebap Haus,52.55094298149633,13.384143705727915,Kebab Restaurant
52.54504492,13.385032620760162,666.6666666666666,4bc9e2cc0687ef3bf7aadacc,DAV Kletteranlage Humboldtbunker,52.54754836863872,13.3848237991333,Rock Climbing Spot
52.54504492,13.385032620760162,666.6666666666666,5a4e8046f870fd2b52e8884e,Kentucky Fried Chicken,52.54909,13.38809,Fast Food Restaurant
52.54504492,13.385032620760162,666.6666666666666,4c5efebcd25320a1ab34ca7a,Kebap-Haus,52.54919998340138,13.3885739470497,Doner Restaurant
52.54504492,13.385032620760162,666.6666666666666,4bc7794193bdeee11f6c37ae,Citylight Hotel,52.5488773546806,13.382699474492634,Hotel
52.54504492,13.385032620760162,666.6666666666666,4d75f79d6c22b60c9fc0e1d6,Neo Kyma,52.54118624742224,13.388008894709223,Diner
52.54504492,13.385032620760162,666.6666666666666,4f4243bae4b0f4d09d5ac432,NORDSEE,52.54973589266388,13.388970476226138,Seafood Restaurant
52.54504492,13.385032620760162,666.6666666666666,4d57ccf4e319a1cdd4d10834,Asia Garten,52.54980855337576,13.38918721798555,Chinese Restaurant
52.54504492,13.385032620760162,666.6666666666666,5198cb08498e0a8709949ffe,Backshop,52.547786357110496,13.389465258422115,Bakery
52.54504492,13.385032620760162,666.6666666666666,4f929bdce4b0b2dfcfe2eef9,Hanne-Sobek-Platz,52.5485139448892,13.388707637786863,Plaza
52.54504492,13.385032620760162,666.6666666666666,4dd3a2ff81dca7315d615d5d,SUBWAY,52.5496708,13.3876365,Sandwich Place
52.54504492,13.385032620760162,666.6666666666666,528a901711d224c0ed746ef0,U Gesundbrunnen,52.548765121715775,13.388267755508425,Metro Station
52.54504492,13.385032620760162,666.6666666666666,4f2b80e5e4b0d656b273b356,ServiceStore DB,52.54847768599145,13.389638813553322,Convenience Store
52.54504492,13.385032620760162,666.6666666666666,50a20658e4b06f46811c0098,Gleis 9/10,52.54840629723777,13.390231132507324,Platform
52.54504492,13.385032620760162,666.6666666666666,5a3bf2f775eee46f198b8d81,McDonald's,52.54980569611165,13.3893084526062,Fast Food Restaurant
52.54504492,13.385032620760162,666.6666666666666,5802d33ed67c977679af27ef,Aldimashqi,52.55070272320204,13.38485062122345,Middle Eastern Restaurant
52.54504492,13.385032620760162,666.6666666666666,504b3d34e4b027ee7e84be96,New Yorker,52.54952132484264,13.38882218216041,Clothing Store
52.54504492,13.385032620760162,666.6666666666666,52f1184011d24bedb975a485,Restaurant Kochmütze,52.54835736639983,13.378300666809082,Buffet
52.54504492,13.385032620760162,666.6666666666666,4ba63335f964a520013b39e3,Mitte Museum,52.54969755826927,13.380583764657798,History Museum
52.549540920000005,13.37771255835518,666.6666666666666,525096d811d2baeefcf02912,Dujardin,52.55078507397972,13.373720076713314,Bar
52.549540920000005,13.37771255835518,666.6666666666666,4da9e51793a04642f0729f95,Uferstudios,52.55254408601933,13.375853908593722,Dance Studio
52.549540920000005,13.37771255835518,666.6666666666666,4fb6b87fe4b03f883691dec8,Piano Salon Christophori,52.55165518280535,13.37382674217224,Piano Bar
52.549540920000005,13.37771255835518,666.6666666666666,5097b589e4b0cb50cd84649b,Café Pförtner,52.55195266468632,13.374412706997814,Café
52.549540920000005,13.37771255835518,666.6666666666666,5609736b498e62a807c00e49,akko restaurant,52.55196898059,13.381105642328356,Halal Restaurant
52.549540920000005,13.37771255835518,666.6666666666666,5464f565498e19366a337faa,Kunstgalerie Wilma,52.55325655862451,13.378619336219222,Bar
52.549540920000005,13.37771255835518,666.6666666666666,4f3fdcd4e4b045d4ecba4da3,Imren Grill,52.55267626958907,13.379352925571062,Turkish Restaurant
52.549540920000005,13.37771255835518,666.6666666666666,50193612e4b082c7af266286,Nezha,52.55173227341282,13.382649239435922,Syrian Restaurant
52.549540920000005,13.37771255835518,666.6666666666666,5571d19a498e3cef89c0dddf,THE BASE,52.5524226566702,13.37396388291564,Soccer Field
52.549540920000005,13.37771255835518,666.6666666666666,5998a5312bf9a935d42e38ee,Yöre Gözleme ve Manti Evi,52.553261,13.382469,Turkish Restaurant
52.549540920000005,13.37771255835518,666.6666666666666,4c7e94801c409521d21682ee,Dan Thai Food,52.547587499002105,13.36925024409534,Thai Restaurant
52.549540920000005,13.37771255835518,666.6666666666666,4c82abe4d34ca143d5962e80,Tangoloft,52.54501586792985,13.373401615394355,Dance Studio
52.549540920000005,13.37771255835518,666.6666666666666,4d12564512916dcb392cd58a,CrossFit Werk,52.545036005284985,13.37352038725445,Gym / Fitness Center
52.549540920000005,13.37771255835518,666.6666666666666,4d83caadf1e56ea867f3678a,Panke,52.5449967599661,13.373890999263054,Performing Arts Venue
52.549540920000005,13.37771255835518,666.6666666666666,4bb0b0e6f964a52047553ce3,ExRotaprint Kantine,52.550426777366006,13.369833263702342,Restaurant
52.549540920000005,13.37771255835518,666.6666666666666,520d338111d2ff90eeae9b0c,Art Loft Berlin,52.545185423229455,13.373583119775144,Art Gallery
52.549540920000005,13.37771255835518,666.6666666666666,4fb79025e4b01fc532672bf3,Brunnenplatz,52.55015487644891,13.37317018044008,Park
52.549540920000005,13.37771255835518,666.6666666666666,57092132498eaefd5f87a3d3,Örnek Lahmacun Evi,52.55415087341781,13.38297739462506,Pide Place
52.549540920000005,13.37771255835518,666.6666666666666,562e8f98498e238e20c076ea,Lezziz Kuruyemis,52.55184,13.38195,Chocolate Shop
52.549540920000005,13.37771255835518,666.6666666666666,520551cf11d28a4dafc96f5b,Oh! Calcutta,52.55525669183957,13.377172817765558,Bar
52.549540920000005,13.37771255835518,666.6666666666666,5234e93c11d211f57d29f39c,Anita Berber,52.54522389031273,13.373513445892334,Nightclub
52.549540920000005,13.37771255835518,666.6666666666666,4c8adad2a92fa093e27895bf,Jatz,52.550326782170295,13.368970443848337,Bar
52.549540920000005,13.37771255835518,666.6666666666666,4e4d675552b1e05e59edda27,Kiki Sol,52.54759,13.368839,Bar
52.549540920000005,13.37771255835518,666.6666666666666,50d716afe4b028bbd4632847,Altin Saray,52.55174817869906,13.382577163662669,Turkish Restaurant
52.549540920000005,13.37771255835518,666.6666666666666,56c763ddcd10aa917fba5747,Kater & Goldfisch,52.55349588037809,13.376705447538916,Café
52.549540920000005,13.37771255835518,666.6666666666666,4c7aec812d3ba143a9ec92d0,Analog,52.55109617899823,13.372222834223846,Dive Bar
52.549540920000005,13.37771255835518,666.6666666666666,4da19ae2d686b60c3429a828,Uferlos,52.550711564538446,13.37351774348041,Restaurant
52.549540920000005,13.37771255835518,666.6666666666666,4f733a05e4b0979fe77f647b,Kochende Welten,52.5450265177236,13.37337400438398,Performing Arts Venue
52.549540920000005,13.37771255835518,666.6666666666666,4c49cc17b5eec9b67ca33ca5,Lidl,52.5493923,13.3694466,Supermarket
52.549540920000005,13.37771255835518,666.6666666666666,50e5d78be4b063b2737d6fe3,Alte Kantine,52.552558695582526,13.374738693237305,Public Art
52.549540920000005,13.37771255835518,666.6666666666666,547a8b08498e910f8bfa3f83,Reyna,52.54657932015744,13.369321317805356,Bar
52.54504492,13.370392495950204,666.6666666666666,598cc3f99411f22af3e65ca8,ernst,52.544677611082754,13.367968797683714,Modern European Restaurant
52.54504492,13.370392495950204,666.6666666666666,50d4563ae4b0ca04f6e12d86,Coffee Circle Café,52.54381308480629,13.36785614490509,Café
52.54504492,13.370392495950204,666.6666666666666,58d15e41158b96044e9c5ad1,Mirage,52.54494557523719,13.36920096317614,Bistro
52.54504492,13.370392495950204,666.6666666666666,4e205c1022717a5245bf2b91,Darklands,52.543677,13.367306,Men's Store
52.54504492,13.370392495950204,666.6666666666666,4e44c2802271bdbcf6788d0c,Falafel Dream 2010,52.54318461520355,13.364903285908891,Falafel Restaurant
52.54504492,13.370392495950204,666.6666666666666,51e84d3f498e3ae2ffb57f0f,The Forsberg,52.54439048015399,13.371590451996166,Bar
52.54504492,13.370392495950204,666.6666666666666,4cee33acb80da093076e2600,Bio-Bäckerei Bucco,52.54280988674659,13.370479345321652,Bakery
52.54504492,13.370392495950204,666.6666666666666,4c797bbb93ef236a46c9af0f,Gerichtshöfe,52.544102866836624,13.372661088156958,Art Gallery
52.54504492,13.370392495950204,666.6666666666666,55abad8d498e00ffdc943b49,Lecker Asia,52.54256683205909,13.370109200477598,Asian Restaurant
52.54504492,13.370392495950204,666.6666666666666,58b57d0119b1ad10adee79af,MARS Küche & Bar,52.545074,13.366457,Restaurant
52.54504492,13.370392495950204,666.6666666666666,4cb8eff043ec6dcb1db89931,Zum Magendoktor,52.54410996178689,13.369368910789488,Dive Bar
52.54504492,13.370392495950204,666.6666666666666,4d52fee1e0275481c287bab6,Alaturka,52.54515279557312,13.369422160188224,Middle Eastern Restaurant
52.54504492,13.370392495950204,666.6666666666666,53c3c5c8498e1034bcc95320,Café des Schicksals,52.543755,13.373034,Bistro
52.54504492,13.370392495950204,666.6666666666666,598af0c4fc9e9467c3649784,Louis Alfons,52.544355,13.371478,Burger Joint
52.54504492,13.370392495950204,666.6666666666666,4bb11263f964a520d6773ce3,Prime Time Theater,52.54346575118403,13.363546143711243,Indie Theater
52.54504492,13.370392495950204,666.6666666666666,51a380e4498eae4ecb95154e,Himmelbeet,52.547949445967234,13.362340621685677,Garden
52.54504492,13.370392495950204,666.6666666666666,5610fbab498e447ac0131110,Mr. Hoang,52.54475634711417,13.368906569867397,Vietnamese Restaurant
52.54504492,13.370392495950204,666.6666666666666,570d0e54498ec8fc1c192076,BESTE Bar,52.544224,13.360643,Bar
52.54504492,13.370392495950204,666.6666666666666,4c6d6df7f338236a7595071b,Fressnapf,52.54245515602148,13.3675311871804,Pet Store
52.54504492,13.370392495950204,666.6666666666666,4c562a3b73fd2d7f54150dcf,NOKA KOREA Karaoke,52.549672628561545,13.365501944716677,Karaoke Bar
52.54504492,13.370392495950204,666.6666666666666,5649f739498ef53f763d86ae,Safran Konya Etli ekmek,52.5449133391177,13.362219508953576,Turkish Restaurant
52.54504492,13.370392495950204,666.6666666666666,4b9ba54ff964a520591636e3,Café Desd,52.54038762914075,13.375346861207763,Bakery
52.54504492,13.370392495950204,666.6666666666666,4f5de00fe4b035e315b706e8,Vatan Bäckerei,52.54513433507183,13.360927999019625,Bakery
52.54504492,13.370392495950204,666.6666666666666,4e0769cd52b165b7d7ae2569,Ital Eis Dal Col,52.54539522970515,13.361454280386278,Ice Cream Shop
52.54504492,13.370392495950204,666.6666666666666,56ffd780498e2916311373ee,H Wiesenstraße,52.54762,13.37384,Bus Stop
52.549540920000005,13.363072433545222,666.6666666666666,56eb2934498e64058fecd56a,Basalt,52.55084017306586,13.36078223703918,Bar
52.549540920000005,13.363072433545222,666.6666666666666,5438343b498edc9273ab5927,Stranero,52.55213605629426,13.36400082389332,Pizza Place
52.549540920000005,13.363072433545222,666.6666666666666,5597af1b498ef8cc246f861f,eismanufaktur Berlin,52.54993506286856,13.36366539986049,Ice Cream Shop
52.549540920000005,13.363072433545222,666.6666666666666,4bfd72e6f7c82d7f55348e04,Café Cralle,52.55061901645171,13.363448964664055,Bar
52.549540920000005,13.363072433545222,666.6666666666666,4ebbe7089a52d00625143d5b,Café Largo,52.55069431563843,13.359548799632645,Café
52.549540920000005,13.363072433545222,666.6666666666666,5af8443d7e4b4e0030a38528,Motte,52.549521,13.361872,Café
52.549540920000005,13.363072433545222,666.6666666666666,512887c4e4b016a0d7c6f454,Hak-Bäckerei,52.55202383127641,13.36616737247823,Bakery
52.549540920000005,13.363072433545222,666.6666666666666,4bf99b6a8d30d13a4b850218,Mastul,52.55189339754282,13.358213571788529,Comedy Club
52.549540920000005,13.363072433545222,666.6666666666666,4f8d8650e4b076cabc31375b,Pingolino Eis,52.54959129512073,13.36156409444089,Ice Cream Shop
52.549540920000005,13.363072433545222,666.6666666666666,52a7035611d28cd591e781f8,Safari Imbiss,52.54882533859031,13.35490872760837,African Restaurant
52.549540920000005,13.363072433545222,666.6666666666666,54381747498ea44ee2640ed3,dm-drogerie markt,52.54580419599019,13.35962827976232,Drugstore
52.549540920000005,13.363072433545222,666.6666666666666,4c7a4b0b566db60c5890470e,Pamfilya,52.54614111749985,13.358741099343542,Turkish Restaurant
52.549540920000005,13.363072433545222,666.6666666666666,4ddb991845ddf752bfc44414,Müller,52.54764993563578,13.357271511487763,Drugstore
52.549540920000005,13.363072433545222,666.6666666666666,4c41793d3735be9a087f18a4,Coffee Star Wedding,52.54791644541,13.356585782276197,Coffee Shop
52.549540920000005,13.363072433545222,666.6666666666666,4eefc8490e01e1fde1b50caa,WG Bar,52.54944512055773,13.362060841987589,Bar
52.549540920000005,13.363072433545222,666.6666666666666,4b0833fcf964a520290623e3,Auf der Suche nach dem verlorenen Glück,52.54895295253606,13.361233553708391,Café
52.549540920000005,13.363072433545222,666.6666666666666,54fdfe28498e33990009e21d,Servet's Original Gemüsekebab,52.545908824193205,13.358402611943012,Doner Restaurant
52.549540920000005,13.363072433545222,666.6666666666666,4f5b538fe4b0c8398266c4f7,Pizza De Lux,52.54576277234332,13.358245416077104,Pizza Place
52.549540920000005,13.363072433545222,666.6666666666666,4c6863f94b0d9c74efd3b492,Krua Thai,52.545885,13.357921,Thai Restaurant
52.549540920000005,13.363072433545222,666.6666666666666,4ca37209a73cb60c49dd1878,Karstadt Lebensmittel by REWE,52.546295697522886,13.36035132408142,Supermarket
52.549540920000005,13.363072433545222,666.6666666666666,4b811b27f964a520f99630e3,Çarık Kuruyemiş & Cafe,52.54996812672292,13.353563180480318,Café
52.549540920000005,13.363072433545222,666.6666666666666,4b01976ff964a520b24322e3,Schraders,52.55177897002464,13.357930385541067,Bar
52.549540920000005,13.363072433545222,666.6666666666666,5932938b123a1963f54ff598,Lino's Barbecue,52.549359,13.361592,BBQ Joint
52.549540920000005,13.363072433545222,666.6666666666666,4bce122cef10952136718386,Osteria da Pino,52.54430460687562,13.360309757251162,Trattoria/Osteria
52.549540920000005,13.363072433545222,666.6666666666666,4e1360738877ac23b672398a,Simit Evi,52.54709361706437,13.3578142709748,Café
52.549540920000005,13.363072433545222,666.6666666666666,59df8a3f0457b77fd13a0440,The Visit Coffee,52.547196,13.358168,Coffee Shop
52.549540920000005,13.363072433545222,666.6666666666666,4ba673a8f964a520fa5339e3,McFIT,52.55368806039361,13.360465317964554,Gym / Fitness Center
52.549540920000005,13.363072433545222,666.6666666666666,4da059f59883d7ceeea503dc,Dedecan Best Gemüse Kebap,52.545899066460045,13.358384378678188,Kebab Restaurant
52.549540920000005,13.363072433545222,666.6666666666666,544258c9498e71ae5f2d7b79,BIO COMPANY,52.54923381001504,13.354253654248586,Organic Grocery
52.549540920000005,13.363072433545222,666.6666666666666,5122d3d1e4b003538daeb49e,Zum Schinken,52.54562961179684,13.358003700766726,Pub
52.549540920000005,13.363072433545222,666.6666666666666,56dc9a51498e275339d6ed97,Mandi,52.55179080419174,13.354758385000853,Yemeni Restaurant
52.549540920000005,13.363072433545222,666.6666666666666,55a99e12498ec54e62dd8ef0,Ris A Chicken,52.54742708449943,13.357389541000064,Fast Food Restaurant
52.549540920000005,13.363072433545222,666.6666666666666,4fa7de67e4b01208fc68fde0,Frites van Holland,52.54662679636061,13.359396269373182,Fast Food Restaurant
52.549540920000005,13.363072433545222,666.6666666666666,4c07e22798e69c74d1e2c61d,Baba Sultan Köfteci,52.54598451111222,13.358697665813873,Turkish Restaurant
52.549540920000005,13.363072433545222,666.6666666666666,53517db3498ea10a3b9a5eb9,Schäfer,52.55259381594814,13.361794258513656,Mediterranean Restaurant
52.549540920000005,13.363072433545222,666.6666666666666,54a052f8498e03eea5fc1a71,Divan Simit Evi,52.54934166791308,13.354079788804729,Café
52.549540920000005,13.363072433545222,666.6666666666666,593283d7e185f327ff8c5500,Bio Company Bäckerstand,52.549037,13.354195,Bakery
52.549540920000005,13.363072433545222,666.6666666666666,58e55eaa01621703f07327fb,ULTramen,52.550564,13.36613,Ramen Restaurant
52.549540920000005,13.363072433545222,666.6666666666666,4b52e7bff964a520588a27e3,Taverna Hellas,52.5498,13.357828,Taverna
52.549540920000005,13.363072433545222,666.6666666666666,5c1262400802d4002c68258f,REWE,52.54897982497609,13.354056258090168,Supermarket
52.549540920000005,13.363072433545222,666.6666666666666,505d87e5e4b08887c616b376,Der Genter Wochenmarkt,52.546856,13.354842,Farmers Market
52.549540920000005,13.363072433545222,666.6666666666666,4b2e4e70f964a5201cde24e3,Galeria Karstadt Kaufhof,52.54605375,13.36073146,Department Store
52.549540920000005,13.363072433545222,666.6666666666666,4da0810157802d43af138c81,Kaplan Döner,52.54630694256442,13.359082560953658,Doner Restaurant
52.549540920000005,13.363072433545222,666.6666666666666,4d7090cc766da1439d4d50ad,Dunkin',52.54710690724625,13.357968026390104,Donut Shop
52.549540920000005,13.363072433545222,666.6666666666666,4ecde8db9adf25445418da8d,Max-Josef-Metzger-Platz,52.54455800403429,13.364703378432331,Park
52.549540920000005,13.363072433545222,666.6666666666666,4db942bd5da3b5fa68d064d9,Asia Food,52.54456894643911,13.360813813465606,Asian Restaurant
52.549540920000005,13.363072433545222,666.6666666666666,54746480498e895b632d38f3,Parma di Vini benedetti,52.550901,13.359807,Deli / Bodega
52.549540920000005,13.363072433545222,666.6666666666666,5915d4b04a7aae486e53a9f8,Leo Leo,52.545853,13.360379,Burger Joint
52.549540920000005,13.363072433545222,666.6666666666666,4e16e843d22d334ac05896ea,Wochenmarkt am Leopoldplatz,52.54693631557348,13.35857947020499,Farmers Market
52.549540920000005,13.363072433545222,666.6666666666666,4dad6bce8154b108febd9e15,Vietnamesische Küche - Com Pho Viet,52.54590945569875,13.358392132334648,Vietnamese Restaurant
52.549540920000005,13.363072433545222,666.6666666666666,4c6fb78a34443704f8ca215f,H&M,52.549197,13.35471,Clothing Store
52.549540920000005,13.363072433545222,666.6666666666666,503f86cee4b049bb5a286f14,Bolu Market Müllerstraße,52.54888648140621,13.354848888167812,Food & Drink Shop
52.549540920000005,13.363072433545222,666.6666666666666,57603a5b498e1a28f8c2ad45,Sam Yuk Gu,52.55484043458259,13.361033887789812,Korean Restaurant
52.549540920000005,13.363072433545222,666.6666666666666,4d10cd0a59606dcb6db4773e,Kral Discount,52.544437,13.36007,Grocery Store
52.549540920000005,13.363072433545222,666.6666666666666,4dd4c8b8183859a589aab14f,Back & Snack,52.5472923051972,13.357612138052176,Bakery
52.549540920000005,13.363072433545222,666.6666666666666,4c1a4585b4e62d7f4380d793,H Osram-Höfe,52.55381666325215,13.358545662581578,Tram Station
52.549540920000005,13.363072433545222,666.6666666666666,4adcda88f964a520544921e3,LaLuz,52.55259671945198,13.360379516438826,Event Space
52.549540920000005,13.363072433545222,666.6666666666666,4ccbda67566aa09354951dfd,Leopoldplatz,52.546418306525865,13.359184917568776,Plaza
52.549540920000005,13.363072433545222,666.6666666666666,4eca9d7a0e6158ba02337452,Wedding Walls | Urban Art + Streetart Berlin,52.54763615038367,13.357892108015884,General Entertainment
52.549540920000005,13.363072433545222,666.6666666666666,4b72ab59f964a52007832de3,Restaurant Rossi,52.55329513441541,13.360214493847003,German Restaurant
52.549540920000005,13.363072433545222,666.6666666666666,57570532498ed0e6854a9e29,Eurogida,52.548283,13.356456,Grocery Store
52.549540920000005,13.363072433545222,666.6666666666666,4bf3e436e5eba593eaf81e90,Cittipoint,52.5492480789228,13.354215660850969,Miscellaneous Shop
52.549540920000005,13.363072433545222,666.6666666666666,4b597ff4f964a5204a8a28e3,Fit im Wedding,52.55086001357933,13.354089283437895,Gym
52.549540920000005,13.363072433545222,666.6666666666666,4cee36ac3b03f04df0da38dc,Zieten Apotheke,52.54497121990698,13.368569612503052,Pharmacy
52.549540920000005,13.363072433545222,666.6666666666666,51f18648498ed647078f0739,Ustad Café,52.54477386135304,13.357923964310004,Convenience Store
52.54504492,13.355752371140245,666.6666666666666,50292f04e4b0dd4acd708986,Hopfen & Malz,52.5430391101864,13.355775313190334,Beer Store
52.54504492,13.355752371140245,666.6666666666666,4b06da02f964a52075f122e3,Eschenbräu,52.54359391453048,13.359637723459,Brewery
52.54504492,13.355752371140245,666.6666666666666,5363611e498ed0312c5a7144,Bioladen * Café,52.542763363436855,13.35667883954114,Café
52.54504492,13.355752371140245,666.6666666666666,5490ad3b498ecba4999eedfc,Freya Fuchs,52.542090327396885,13.356902812424972,Bar
52.54504492,13.355752371140245,666.6666666666666,51dadde3498e62a20adec62e,Göttlich Essen & Trinken,52.54190361750728,13.3571313673713,Café
52.54504492,13.355752371140245,666.6666666666666,52991e5911d21b0fa3bc8c73,Atti Asiamarkt,52.54337540230432,13.359966788182213,Grocery Store
52.54504492,13.355752371140245,666.6666666666666,57bf2ee238faf7b0f857cfdd,Cozymazu,52.54198353152991,13.355853000201668,Chinese Restaurant
52.54504492,13.355752371140245,666.6666666666666,5a3549075d891b1944dd0e24,Chibee,52.542890118231455,13.35643574019376,Korean Restaurant
52.54504492,13.355752371140245,666.6666666666666,51e828d9498ee9d071504660,Vagabund Brauerei,52.54803292188691,13.349612739920028,Brewery
52.54504492,13.355752371140245,666.6666666666666,4b71bde0f964a520b4592de3,Valle dei Templi,52.54764909282134,13.351236158211726,Italian Restaurant
52.54504492,13.355752371140245,666.6666666666666,53aaffd2498ef1dd73cf0e8d,Kleine Mensa,52.54329523700613,13.356670764573703,Café
52.54504492,13.355752371140245,666.6666666666666,4adcda91f964a520804b21e3,Zeichen-Center Ebeling,52.54231263227667,13.35086554717492,Arts & Crafts Store
52.54504492,13.355752371140245,666.6666666666666,4adcda8df964a5205c4a21e3,ATZE Theater und Konzerthaus für Kinder,52.54317939288812,13.352140735750847,Theater
52.54504492,13.355752371140245,666.6666666666666,4fa95a5de4b0144c6d6cb627,Don Pasquale,52.541972435446255,13.35043695500739,Trattoria/Osteria
52.54504492,13.355752371140245,666.6666666666666,503cba21e4b09e16682af3c8,Shikgoo,52.54296561041669,13.35645400333056,Korean Restaurant
52.54504492,13.355752371140245,666.6666666666666,4e48120214959d51c178bc50,Corallo,52.547451,13.353636,Italian Restaurant
52.54504492,13.355752371140245,666.6666666666666,4b9ad06bf964a52064d835e3,Asia Deli,52.54985868072399,13.351169044362925,Chinese Restaurant
52.54504492,13.355752371140245,666.6666666666666,4f61132ce4b0800f6159a0a3,Sparrplatz,52.54287479811958,13.359772500523018,Park
52.54504492,13.355752371140245,666.6666666666666,5a4b862ef870fd694c655a44,Lei‘s Küche China Restaurant,52.549702,13.350969,Chinese Restaurant
52.54504492,13.355752371140245,666.6666666666666,4c49a6f5b5eec9b6ea0308a5,Vinh-Loi,52.550065126653685,13.352789658264062,Grocery Store
52.54504492,13.355752371140245,666.6666666666666,55709cb8498ea7cbfd9f9c9f,Phönicia,52.54945644462209,13.3497026028775,Middle Eastern Restaurant
52.54504492,13.355752371140245,666.6666666666666,4b9bd272f964a520692936e3,Kubi,52.5416426915797,13.350225697929632,Asian Restaurant
52.54504492,13.355752371140245,666.6666666666666,4d2361a75c4ca1cd6c80b93d,Naveena Path,52.54174097111441,13.357280578904811,Indian Restaurant
52.54504492,13.355752371140245,666.6666666666666,516c3849e4b08b60e8c953eb,SPICE Authentic Vietnamese Food,52.54191403566376,13.349123146491378,Vietnamese Restaurant
52.54504492,13.355752371140245,666.6666666666666,4adcda75f964a520944521e3,Escargot (L`),52.54670938197299,13.34964639503753,French Restaurant
52.54504492,13.355752371140245,666.6666666666666,4ba2454ff964a5209de837e3,Ya Karim,52.54990999082264,13.35295026903617,Middle Eastern Restaurant
52.54504492,13.355752371140245,666.6666666666666,4adcda75f964a520934521e3,Deichgraf,52.53978676264183,13.352245753556591,German Restaurant
52.54504492,13.355752371140245,666.6666666666666,51cc0fe5498efbcc88d0381c,The Tipperary,52.54310300284539,13.356399858033702,Bar
52.54504492,13.355752371140245,666.6666666666666,4fa2c617e4b0b4ed78b1e08c,Rossmann,52.550060427386086,13.353195296850574,Drugstore
52.54504492,13.355752371140245,666.6666666666666,4ca7c342ae1eef3b10e83147,Java House,52.5469975651487,13.350053581080884,Indonesian Restaurant
52.54504492,13.355752371140245,666.6666666666666,52bf2e3f11d29120c11edad2,Café Chokkolatta,52.55023067977097,13.352477613130674,Café
52.54504492,13.355752371140245,666.6666666666666,5223439f498e4ca24816f09c,Weddingmarkt,52.53984865026077,13.353700949230404,Flea Market
52.54504492,13.355752371140245,666.6666666666666,4bf2d88a98ac0f47983562a8,Cineplex Alhambra,52.55042382723295,13.35143521151736,Multiplex
52.54504492,13.355752371140245,666.6666666666666,4c2f423c213c2d7faa7c305d,Fünf&Sechzig,52.53990966160571,13.352638118027444,Restaurant
52.54504492,13.355752371140245,666.6666666666666,4c49ad219f2ad13a285f9e53,dm-drogerie markt,52.5502011,13.3530174,Drugstore
52.54504492,13.355752371140245,666.6666666666666,5113eb71e4b0def9684849e2,Thai Son Imbiss,52.54071548232074,13.351412998442072,Thai Restaurant
52.54504492,13.355752371140245,666.6666666666666,4c5c03d26147be9aa5018e09,DIDIM,52.54196737998242,13.349371903608988,Turkish Restaurant
52.54504492,13.355752371140245,666.6666666666666,51b5d5c7498ee78205164e10,My Chicken Center,52.542079,13.349057,Falafel Restaurant
52.54504492,13.355752371140245,666.6666666666666,4cf7bf99eb096ea8364ecc48,China Box,52.549942397707845,13.352922475340003,Asian Restaurant
52.54504492,13.355752371140245,666.6666666666666,4ef062a20aaf9ae28312447b,Doc+ Apotheke,52.549942601009,13.352642876700989,Pharmacy
52.54504492,13.355752371140245,666.6666666666666,5072c651f136065063ae2d1e,Thoben´s Backwaren,52.54993617391888,13.35237979888916,Bakery
52.53772485759502,13.44359312,666.6666666666666,4da5bfeb5da3d30fafbf3466,Centro Italia,52.53921972665431,13.43862574936534,Supermarket
52.53772485759502,13.44359312,666.6666666666666,4bf9af62508c0f47e28b3f31,Blackland,52.53933740715996,13.436481502272466,Pub
52.53772485759502,13.44359312,666.6666666666666,572e0c89498e8539a4c3b331,Come Và Và,52.534494,13.435989,Pizza Place
52.53772485759502,13.44359312,666.6666666666666,54cbf204498e0e154a4293f4,Mensch Meier,52.53529166859128,13.452162767054602,Nightclub
52.53772485759502,13.44359312,666.6666666666666,4ed348f34fc68d9eb499876a,Bäckerei Kädtler,52.53509932648522,13.43537012881591,Bakery
52.53772485759502,13.44359312,666.6666666666666,4be45207d4f7c9b6e4fa2320,Lidl,52.53433480293345,13.445665687322617,Supermarket
52.53772485759502,13.44359312,666.6666666666666,4dc539c6887717c8801cd5d7,Sportanlage Paul-Heyse-Straße,52.532513955470336,13.44820976257324,Soccer Field
52.53772485759502,13.44359312,666.6666666666666,4cde77baf8a4a143c44cd7bc,BowlHouse,52.53625216466172,13.451098781364356,Bowling Alley
52.53772485759502,13.44359312,666.6666666666666,4dd276f3fa767fb70792f21e,easy Apotheke,52.54098668386008,13.44029595755566,Pharmacy
52.53772485759502,13.44359312,666.6666666666666,5769066ecd105c894e06294f,Mäc-Geiz,52.541295,13.440984,Department Store
52.53772485759502,13.44359312,666.6666666666666,4af62a07f964a520d70122e3,S Greifswalder Straße,52.5403384961592,13.43877911567688,Light Rail Station
52.53772485759502,13.44359312,666.6666666666666,4f84ffb2e4b013f9e5ce4288,H Kniprodestraße / Storkower Straße,52.53747808364552,13.450196667488337,Bus Stop
52.53772485759502,13.44359312,666.6666666666666,4e2866e57d8b6133618c3d93,Shoe4You,52.54160060128563,13.44080608875464,Shoe Store
52.53772485759502,13.44359312,666.6666666666666,4adcda89f964a520aa4921e3,Schaubude Berlin,52.5408803661465,13.438762394694631,Theater
52.53772485759502,13.44359312,666.6666666666666,55f4841c498e58358417b0cb,Packstation 251,52.5414908690453,13.439595720736405,Shipping Store
52.53772485759502,13.44359312,666.6666666666666,4fbe840de4b03a3315a5abd6,ELAN Tankstelle,52.53545179237062,13.4508568017779,Gas Station
52.53772485759502,13.44359312,666.6666666666666,4f994ce3e4b031f829b39003,H Stedingerweg,52.538952754362086,13.451833946336354,Bus Stop
52.53772485759502,13.44359312,666.6666666666666,52e81451498ecb21552aa526,SG Prenzlauer Berg 1990,52.53988178796408,13.451956654280751,Soccer Field
52.53772485759502,13.44359312,666.6666666666666,4ec266537ee54e4cd3d1e0b2,Sandwich Lounge,52.54304695196869,13.44099088692216,Sandwich Place
52.53772485759502,13.44359312,666.6666666666666,4e05c8cdb0fbba5eee112756,Kunstrasenplatz,52.53995223189518,13.452350811284694,Soccer Field
52.53772485759502,13.44359312,666.6666666666666,5afe8b69aa6c95002cda0d23,Action,52.54356840446674,13.442555665969849,Discount Store
52.53772485759502,13.44359312,666.6666666666666,4cff5b7cc00a5941740b9087,pro-samed Apotheke,52.54357581960982,13.441747436702434,Pharmacy
52.54222085759503,13.43627305759502,666.6666666666666,4c21ebce9a67a593af95db87,Ernst-Thälmann-Park,52.53864840902703,13.43329668045044,Park
52.54222085759503,13.43627305759502,666.6666666666666,4adcda8bf964a520d74921e3,Theater unterm Dach,52.53746074130734,13.4307861328125,Indie Theater
52.54222085759503,13.43627305759502,666.6666666666666,4b83c7ecf964a520361031e3,Schnitzelkönig,52.53690797338464,13.434021766926325,German Restaurant
52.54222085759503,13.43627305759502,666.6666666666666,4e6ca34d1495f349259e0385,Café Laelia,52.53682368873121,13.433757073508056,Café
52.54222085759503,13.43627305759502,666.6666666666666,4adcda8df964a520654a21e3,WABE,52.53783788360987,13.431056371485075,Concert Hall
52.54222085759503,13.43627305759502,666.6666666666666,5336e3ca498ec1f5635d4c9c,Saray Grill,52.54455373348704,13.427239753763764,Doner Restaurant
52.54222085759503,13.43627305759502,666.6666666666666,4e4e8b01d22daf51d268973b,REWE,52.53638418963067,13.436695950932403,Supermarket
52.54222085759503,13.43627305759502,666.6666666666666,4f22c187e4b006e5c05e12b3,Teich im Ernst-Thählmann-Park,52.539148409508094,13.434590215986097,Lake
52.54222085759503,13.43627305759502,666.6666666666666,4e30055b149532963309da22,hatoki,52.545096,13.429634,Asian Restaurant
52.53772485759502,13.42895299519004,666.6666666666666,56693c69498eaa5ce9d9038f,denn’s Biomarkt,52.53899327070821,13.425192803024242,Organic Grocery
52.53772485759502,13.42895299519004,666.6666666666666,5d40494a287ebc0008a68e45,Cafelix,52.535471,13.426628,Café
52.53772485759502,13.42895299519004,666.6666666666666,57212d4a498ef736dde75099,Birra - Italian Craft Beer,52.53862401663207,13.423833782819282,Beer Bar
52.53772485759502,13.42895299519004,666.6666666666666,5a748b9a6fd6265d55599347,Chili & Paprika,52.53631180359912,13.43246073571716,Gourmet Shop
52.53772485759502,13.42895299519004,666.6666666666666,5310bcf311d2b14c744cd049,Gilgamesch,52.5347556968551,13.431398049907218,Middle Eastern Restaurant
52.53772485759502,13.42895299519004,666.6666666666666,4c6d76a2a437224bfa202db1,Fröbelplatz,52.53857505105468,13.426495313795074,Plaza
52.53772485759502,13.42895299519004,666.6666666666666,590106b7f870fd51dc856281,La Criolla Empanadas,52.534793388813846,13.424606792515412,Empanada Restaurant
52.53772485759502,13.42895299519004,666.6666666666666,4ba923def964a520980e3ae3,Sorsi e Morsi,52.5346405502197,13.424978739344986,Wine Bar
52.53772485759502,13.42895299519004,666.6666666666666,5c30f6c415173e0038c9095c,Enzo Sushi Bar,52.534618,13.425019,Sushi Restaurant
52.53772485759502,13.42895299519004,666.6666666666666,51d1bb1a498ea981c8d93f3d,Zia Maria,52.53430868773753,13.42592085170306,Pizza Place
52.53772485759502,13.42895299519004,666.6666666666666,52c1f8b811d2ad7942c6ed68,Banh Xeo Saigon,52.53417066026806,13.430935861086638,Vietnamese Restaurant
52.53772485759502,13.42895299519004,666.6666666666666,554dd8c8498e6819b490bb0d,Bäckerei Aura,52.53569769173637,13.432574995004464,Bakery
52.53772485759502,13.42895299519004,666.6666666666666,4b01c059f964a520244522e3,Zweistrom,52.5393128298324,13.421396575082154,Falafel Restaurant
52.53772485759502,13.42895299519004,666.6666666666666,5f1c2043f0497b588173d55d,Five Elephant,52.539194,13.421335,Coffee Shop
52.53772485759502,13.42895299519004,666.6666666666666,5262c45c498e948ea3cab358,Izzy,52.53543965450813,13.434184741250805,Dive Bar
52.53772485759502,13.42895299519004,666.6666666666666,59dd1c0849281428e57d09a2,Duc Anh,52.53336652408397,13.428694547588124,Vietnamese Restaurant
52.53772485759502,13.42895299519004,666.6666666666666,5a993d20772fbc4393a81e43,Brammibal's Donuts,52.5394045042812,13.42298043479712,Donut Shop
52.53772485759502,13.42895299519004,666.6666666666666,52570f7311d27f925e6b81a2,Monterey Bar,52.53963049460394,13.422444462776184,Beer Bar
52.53772485759502,13.42895299519004,666.6666666666666,4c7bf19b2d3ba1430e8195d0,Saint George's,52.53597689739696,13.421060493864418,Bookstore
52.53772485759502,13.42895299519004,666.6666666666666,4b9b8152f964a520a60b36e3,boesner,52.5328644,13.4259908,Arts & Crafts Store
52.53772485759502,13.42895299519004,666.6666666666666,5919dd9c6e465058f788753e,Esse Osteria,52.53579118896019,13.422438151171342,Trattoria/Osteria
52.53772485759502,13.42895299519004,666.6666666666666,5cc1ed2c535d6f002c80a520,8greenbottles natural wine shop + tasting room,52.54011010980828,13.421977758407593,Food & Drink Shop
52.53772485759502,13.42895299519004,666.6666666666666,56cd96c9cd1018a6df9c58d8,Burgers Burgers,52.533541,13.430525,Burger Joint
52.53772485759502,13.42895299519004,666.6666666666666,538ffc06498e2cb938159ccd,Backstube SowohlAlsAuch,52.538119835602814,13.420464992523192,Bakery
52.53772485759502,13.42895299519004,666.6666666666666,596227ec625a6632c606caef,Cookies & Co.,52.540323,13.422044,Café
52.53772485759502,13.42895299519004,666.6666666666666,563377e8498e265460203888,Allan's Breakfast Club & Wine Bar,52.53650891039924,13.420523200128146,Breakfast Spot
52.53772485759502,13.42895299519004,666.6666666666666,4b059890f964a520a0df22e3,Delizie D'Italia,52.53915611505613,13.421155682207546,Italian Restaurant
52.53772485759502,13.42895299519004,666.6666666666666,540c6f34498e9d0f44de7620,Jubel,52.5325273943382,13.430677683140182,Pastry Shop
52.53772485759502,13.42895299519004,666.6666666666666,5c2fd688475abd0039875069,Archetyp Berlin,52.53490584169249,13.42354953289032,Coffee Shop
52.53772485759502,13.42895299519004,666.6666666666666,4adcda90f964a5204a4b21e3,Weinberg,52.53269995948009,13.42402160167694,Wine Bar
52.53772485759502,13.42895299519004,666.6666666666666,542edf37498e412bc384b638,Akemi,52.537619865261455,13.421439910844027,Asian Restaurant
52.53772485759502,13.42895299519004,666.6666666666666,59730bb6d41bb7405a0e511e,Un Fornetto,52.535624,13.42146,Bakery
52.53772485759502,13.42895299519004,666.6666666666666,4afafa28f964a520071a22e3,No Fire No Glory,52.53666,13.420291,Coffee Shop
52.53772485759502,13.42895299519004,666.6666666666666,590d7d716fa81f5f68b98575,100 Brote,52.532895711893815,13.42969720890722,Bakery
52.53772485759502,13.42895299519004,666.6666666666666,5f633f46272f6d4397fe7545,44 Brekkie,52.53668254050305,13.420456945896149,Café
52.53772485759502,13.42895299519004,666.6666666666666,522245af11d29e4ef4df2291,Muse,52.532938701483936,13.423114057701246,American Restaurant
52.53772485759502,13.42895299519004,666.6666666666666,4b29237cf964a5207f9924e3,Willy Bresch,52.53602385178464,13.43336010833403,Pub
52.53772485759502,13.42895299519004,666.6666666666666,5bd47dc267e5f2002cd7e73a,L'épicerie,52.535896,13.420355,Gourmet Shop
52.53772485759502,13.42895299519004,666.6666666666666,4b222e91f964a5203e4424e3,Fleischerei Gottschlich,52.53456251801887,13.421546567746724,Butcher
52.53772485759502,13.42895299519004,666.6666666666666,58385bf76431e579a8b171e6,REWE CITY,52.53317418801197,13.43466459759884,Supermarket
52.53772485759502,13.42895299519004,666.6666666666666,4dea0f291850bae7b8c74618,Rosa Canina,52.53255311427469,13.430705666542051,Ice Cream Shop
52.53772485759502,13.42895299519004,666.6666666666666,5828b76610a3441badfedf3b,Mitho Cha,52.53734282483232,13.42117520979976,Himalayan Restaurant
52.53772485759502,13.42895299519004,666.6666666666666,4c1cbb7863750f479ff7b667,Aromas Café,52.53326861951008,13.428851459516046,Café
52.53772485759502,13.42895299519004,666.6666666666666,4c5ff39eb6f3be9a9f185e73,BUCHBOX!,52.53297141551637,13.42961571084053,Bookstore
52.53772485759502,13.42895299519004,666.6666666666666,5c952132fc9e94002bfb9f02,Chotto,52.537678,13.419915,Japanese Restaurant
52.53772485759502,13.42895299519004,666.6666666666666,568fa9eb498e39dd9f2b73c4,Satt & Glücklich,52.53280634593438,13.430134825562302,Deli / Bodega
52.53772485759502,13.42895299519004,666.6666666666666,4adcda79f964a520c14621e3,Café Anna Blume,52.53807898849546,13.419838273086988,Café
52.53772485759502,13.42895299519004,666.6666666666666,529f538411d244431ca511c0,Quantuan,52.53321913205861,13.428933696780096,Vietnamese Restaurant
52.53772485759502,13.42895299519004,666.6666666666666,4cfa2d2cc6cca35dcd9f8432,BIO COMPANY,52.53193352835567,13.427757545131414,Organic Grocery
52.53772485759502,13.42895299519004,666.6666666666666,4adcda73f964a520554521e3,Cocktail Bar X,52.54158810155329,13.42190050530174,Cocktail Bar
52.53772485759502,13.42895299519004,666.6666666666666,51169f4ce4b0030c4a3b14b9,Myaki Sushi Lounge,52.54136515007826,13.423494605023478,Sushi Restaurant
52.53772485759502,13.42895299519004,666.6666666666666,4d50e6459ffc236ac6c51da7,La Baguette,52.541666237805934,13.422180256357027,Bakery
52.53772485759502,13.42895299519004,666.6666666666666,4e2526aed22df6f888770a1d,Zucca Coffeebar,52.54321672269851,13.426361356335406,Café
52.53772485759502,13.42895299519004,666.6666666666666,4e6f2501483bd41a3da21048,Wiener Feinbäckerei Heberer,52.54195674255261,13.425378799438477,Bakery
52.54222085759503,13.42163293278506,666.6666666666666,4b07c14af964a520cbff22e3,Der Aussteiger,52.54017571703758,13.418877943306525,Outdoor Supply Store
52.54222085759503,13.42163293278506,666.6666666666666,56716f92498e02330cc301a6,Café GULA,52.539799,13.420701,Empanada Restaurant
52.54222085759503,13.42163293278506,666.6666666666666,4b0fc4cef964a520ba6423e3,Suicide Sue,52.540462,13.419114,Café
52.54222085759503,13.42163293278506,666.6666666666666,4b0fd008f964a520266523e3,Werkstatt der Süße,52.53908151887969,13.417857877038571,Pastry Shop
52.54222085759503,13.42163293278506,666.6666666666666,4a1f3022f964a5200d7c1fe3,Bar 23,52.54247095541274,13.416110975402416,Bar
52.54222085759503,13.42163293278506,666.6666666666666,51812690498e32aa5dd32c9d,Gelati,52.53874743101089,13.422282861123753,Ice Cream Shop
52.54222085759503,13.42163293278506,666.6666666666666,4cab70a436fa6dcb6014d978,Speiches Rock- & Blueskneipe,52.54373308591658,13.416300511883453,Jazz Club
52.54222085759503,13.42163293278506,666.6666666666666,4f6cc4d3e4b01d94fc06d18c,Frau Galinou kocht,52.538452641834105,13.420743942260742,Greek Restaurant
52.54222085759503,13.42163293278506,666.6666666666666,56473ac0498eeea587b2ac7e,Hirsch & Eber,52.53841675108741,13.420164585113524,Burger Joint
52.54222085759503,13.42163293278506,666.6666666666666,5148bd55e4b038d0658bf300,L24 - Wein & Pflanzen,52.54279193110331,13.416502700305251,Wine Bar
52.54222085759503,13.42163293278506,666.6666666666666,4c6d116065eda093af7e4dd0,Thu Hanoi,52.53997701404705,13.419440548213652,Asian Restaurant
52.54222085759503,13.42163293278506,666.6666666666666,4aff1a38f964a5203e3422e3,Krüger,52.542886306139245,13.41664549369068,Bar
52.54222085759503,13.42163293278506,666.6666666666666,4adf5adff964a520cc7921e3,Kaffeehaus SowohlAlsAuch,52.5383319182967,13.420599102973938,Café
52.54222085759503,13.42163293278506,666.6666666666666,4b893b9df964a520c62432e3,Dirty Velvet,52.543724,13.417337,Bar
52.54222085759503,13.42163293278506,666.6666666666666,4c1dc3cb63750f471ad7b867,Einstern Coffee Bar,52.53962429766169,13.424449930469796,Café
52.54222085759503,13.42163293278506,666.6666666666666,4bdcbe03c79cc92852ef87e9,Perle Bar,52.53743894857355,13.422303633316384,Cocktail Bar
52.54222085759503,13.42163293278506,666.6666666666666,545417ea498e603ae5ce6497,Tuchers Bratwursthäusle,52.538254,13.416766,German Restaurant
52.54222085759503,13.42163293278506,666.6666666666666,4bc9fcaf68f976b087515e83,Zula Hummus Café,52.53753561268995,13.417467407408422,Israeli Restaurant
52.54222085759503,13.42163293278506,666.6666666666666,596e5d8f9fca56559d3a1cd4,Tribeca Ice Cream,52.53739405956309,13.421227304113174,Ice Cream Shop
52.54222085759503,13.42163293278506,666.6666666666666,5905fc33d1a4026a24155ce6,Message In A Bottle,52.538529,13.415299,Beer Bar
52.53772485759502,13.414312870380082,666.6666666666666,5356d1db498ec5d548edc84f,Baden im Wein,52.537881,13.411955,Wine Bar
52.53772485759502,13.414312870380082,666.6666666666666,54fae603498eb8d13cf12a76,Basic Wohnen & Leben,52.53804813379958,13.412082327336092,Furniture / Home Store
52.53772485759502,13.414312870380082,666.6666666666666,546a2ed8498ecc34fd51bbf1,LadyCompany,52.53896877836984,13.4130805112607,Gym / Fitness Center
52.53772485759502,13.414312870380082,666.6666666666666,4c1f6d4c63750f47c314bb67,OYE Records,52.53828829143888,13.41061826530336,Record Shop
52.53772485759502,13.414312870380082,666.6666666666666,5ddac764e2b8c00007ecf472,OTTO,52.53798,13.410142,Bistro
52.53772485759502,13.414312870380082,666.6666666666666,4b110f3df964a520cc7723e3,Wochenmarkt am Kollwitzplatz,52.53659933582729,13.41827630996704,Farmers Market
52.53772485759502,13.414312870380082,666.6666666666666,4b978891f964a520b10735e3,Schädels,52.53832015069355,13.410322670543026,German Restaurant
52.53772485759502,13.414312870380082,666.6666666666666,4adcda7df964a520624721e3,Kollwitzplatz,52.536236,13.417045,Plaza
52.53772485759502,13.414312870380082,666.6666666666666,56b3f4f3498e295f023d660b,Hotel Oderberger Berlin,52.538107105310935,13.410701808639375,Hotel
52.53772485759502,13.414312870380082,666.6666666666666,53501688498e0f886f0c9eea,Vân Anh,52.538586,13.409936,Vietnamese Restaurant
52.53772485759502,13.414312870380082,666.6666666666666,4adcda8cf964a5203b4a21e3,Dock 11,52.536545908552746,13.408585150976046,Indie Theater
52.53772485759502,13.414312870380082,666.6666666666666,4af9ae6af964a5204c1322e3,Weinladen Schmidt,52.5346997965944,13.416316645041784,Wine Shop
52.53772485759502,13.414312870380082,666.6666666666666,54a023da498ebe84f4d937b8,Cát Tường,52.5381849061917,13.409276763077653,Vegetarian / Vegan Restaurant
52.53772485759502,13.414312870380082,666.6666666666666,519e4bb1498e8864b86cdad7,MDC Cosmetic,52.53496545839637,13.4178760373489,Cosmetics Shop
52.53772485759502,13.414312870380082,666.6666666666666,4b9ad22cf964a520fbd835e3,Hausbar,52.534898,13.418957,Cocktail Bar
52.53772485759502,13.414312870380082,666.6666666666666,4b4f1adbf964a52069fa26e3,Habba Habba,52.538968,13.409878,Middle Eastern Restaurant
52.53772485759502,13.414312870380082,666.6666666666666,5cd3f9062bf29b002d07c0d6,Süßfein,52.535415,13.419287,Ice Cream Shop
52.53772485759502,13.414312870380082,666.6666666666666,51cb21b1498ebfb681538a08,Spätkauf Wörther Str. 33,52.536441186925565,13.418747741475404,Convenience Store
52.53772485759502,13.414312870380082,666.6666666666666,5756fc8b498e1522aee2715f,Modern Graphics,52.53679586076086,13.407884605206188,Comic Shop
52.53772485759502,13.414312870380082,666.6666666666666,4d4401f91ed56dcb171caa54,Park am Wasserturm,52.53387144031121,13.418126106262209,Park
52.53772485759502,13.414312870380082,666.6666666666666,4adcda7df964a520634721e3,Wasserturm,52.53419122630572,13.418587446212769,Historic Site
52.53772485759502,13.414312870380082,666.6666666666666,5c30be5d135b39002c562868,Le Belfort,52.533332,13.415582,Bistro
52.53772485759502,13.414312870380082,666.6666666666666,4adcda74f964a5207f4521e3,Gugelhof,52.535539,13.416587,French Restaurant
52.53772485759502,13.414312870380082,666.6666666666666,4adcda79f964a520c24621e3,Kauf Dich Glücklich,52.53942444662857,13.407460064934028,Café
52.53772485759502,13.414312870380082,666.6666666666666,4c813046d92ea0931f7f3e72,Etc:Bar,52.534070432050434,13.41966198704896,Bar
52.53772485759502,13.414312870380082,666.6666666666666,4adcda86f964a520224921e3,Pasternak,52.53465906029785,13.418682027809362,Russian Restaurant
52.53772485759502,13.414312870380082,666.6666666666666,53677d21498e567ae5c7e8f3,Umami,52.534477,13.419286,Vietnamese Restaurant
52.53772485759502,13.414312870380082,666.6666666666666,5596298b498e7530f507aba3,Kaffee Käthe,52.53390313900558,13.41543638112108,Café
52.53772485759502,13.414312870380082,666.6666666666666,4c489e8e31e41b8df4b65035,Spielplatz am Wasserturm,52.533891019112495,13.418866395950316,Playground
52.53772485759502,13.414312870380082,666.6666666666666,4c2afe458abca593cd80ff1f,EastSeven Berlin Hostel,52.53346187395801,13.41054917570367,Hostel
52.53772485759502,13.414312870380082,666.6666666666666,553e1fb6498e07ead1e9be53,rou,52.535233,13.407213,Vegetarian / Vegan Restaurant
52.53772485759502,13.414312870380082,666.6666666666666,4c4c9ac1f96ac9b687b76098,Pizza Pane,52.53716754796844,13.408160132081074,Pizza Place
52.53772485759502,13.414312870380082,666.6666666666666,52c2a77311d221d9d4217f1a,Betty'n Caty,52.534872,13.418119,Breakfast Spot
52.53772485759502,13.414312870380082,666.6666666666666,4bb89ddb314e9521dd90489d,Babel,52.5366667072201,13.407710761010254,Middle Eastern Restaurant
52.53772485759502,13.414312870380082,666.6666666666666,50cf70ede4b05e0e62b2d398,HERMAN,52.5323916321789,13.412292397754532,Beer Bar
52.53772485759502,13.414312870380082,666.6666666666666,4cdffd61f8cdb1f7bcad9412,Café KRONE,52.53985166473068,13.40614232632102,Coffee Shop
52.53772485759502,13.414312870380082,666.6666666666666,4c04e5d0f423a5933b24d216,Cem Grill,52.54048026041455,13.416576918682166,Fast Food Restaurant
52.53772485759502,13.414312870380082,666.6666666666666,4af28ef8f964a520eae721e3,Bonanza Coffee,52.539992653508016,13.405530452728271,Coffee Shop
52.53772485759502,13.414312870380082,666.6666666666666,4bd17cc3046076b0b4dc7171,Hüftengold,52.54012017414925,13.40594061919277,Café
52.53772485759502,13.414312870380082,666.6666666666666,4adf5fb3f964a520007a21e3,Konnopke’s Imbiß,52.54037196757232,13.412027166540405,Currywurst Joint
52.53772485759502,13.414312870380082,666.6666666666666,4ba898d4f964a520c4e139e3,Impala Coffee,52.532549,13.412092,Coffee Shop
52.53772485759502,13.414312870380082,666.6666666666666,5a60e8edc5b11c5742e7b262,MontRaw Restaurant,52.53186,13.415882,Israeli Restaurant
52.53772485759502,13.414312870380082,666.6666666666666,54198830498e1a6158ad411f,Jute Bäckerei,52.54303382951432,13.412314631650354,Bakery
52.53772485759502,13.414312870380082,666.6666666666666,538462dc498e59fc128718a0,Masel Topf,52.53481773905417,13.419456481933594,Israeli Restaurant
52.54222085759503,13.4069928079751,666.6666666666666,5443e763498edf77dae81625,Minty,52.54439034405498,13.412349759782176,Vietnamese Restaurant
52.54222085759503,13.4069928079751,666.6666666666666,4af408a9f964a520deef21e3,Wochenmarkt Arkonaplatz,52.53736647776339,13.40205558667522,Farmers Market
52.54222085759503,13.4069928079751,666.6666666666666,4b439e25f964a52075e425e3,Restaurant Lorbeer,52.543324,13.414482,German Restaurant
52.54222085759503,13.4069928079751,666.6666666666666,4b48eb5bf964a5205b5d26e3,Mamay,52.54557148072443,13.413206934928894,Vietnamese Restaurant
