search_spot_lat,search_spot_lon,search_radius,id,Name,Latitude,Longitude,Category
41.05465992,29.069148119999998,666.6666666666666,556f03f8498e8a0e4b724f1e,Mehmet Çakır Kültür Ve Spor Merkezi,41.05411192793162,29.070049713712073,Water Park
41.05465992,29.069148119999998,666.6666666666666,4d1b0e1370d76ea8c95d4b73,Çağıl Ev Yemekleri,41.05268182546572,29.06893944185341,Turkish Home Cooking Restaurant
41.05465992,29.069148119999998,666.6666666666666,509d0531e4b0d60e8cda9bfe,Çengelköy Börekçisi,41.05206599418844,29.07098747464461,Bakery
41.05465992,29.069148119999998,666.6666666666666,5743104a498e6adb99b3ce0b,Maia Handmade Chocolate Atolye,41.05195440417318,29.07156650828918,Café
41.05465992,29.069148119999998,666.6666666666666,562fac68498e435d24b84cc8,Kilim Kitapevi,41.057583824571154,29.066403065236845,Stationery Store
41.05465992,29.069148119999998,666.6666666666666,4e89865ee5fa170427dc815a,Shapes For Women Sport,41.05197653118525,29.071828939445428,Gym
41.05465992,29.069148119999998,666.6666666666666,4efdcb734fc6fc240ebecd34,Spordium Fitness & Sports Club,41.05573809281331,29.07481272781284,Gym / Fitness Center
41.05465992,29.069148119999998,666.6666666666666,5b2120fb018cbb002c07e00f,Zeyyan pasta&cafe,41.05552790689942,29.074450929104355,Pastry Shop
41.05465992,29.069148119999998,666.6666666666666,4e11e8a4fa769d21e9f0f24c,Asbaşak Fırın,41.057886608866504,29.072030001529466,Bakery
41.05465992,29.069148119999998,666.6666666666666,5c9775e58496ca002cbc2b55,Nazenin Fırın,41.056977200081704,29.073548469080002,Pastry Shop
41.05465992,29.069148119999998,666.6666666666666,589a04a980e1af7cfe63063d,Starbucks,41.058416,29.070013,Coffee Shop
41.05465992,29.069148119999998,666.6666666666666,52054636498ef7bcc021f8b9,Azimoğlu Dondurma,41.05766788116263,29.075036924436755,Ice Cream Shop
41.05465992,29.069148119999998,666.6666666666666,5a99b9014c9be67f05765b5a,Tokat Sofrasi,41.057555133227105,29.074617516966697,Kebab Restaurant
41.05465992,29.069148119999998,666.6666666666666,4f81d052e4b00927804b14af,Çamlıktepe Parkı,41.04912129640794,29.067922233235425,Park
41.05465992,29.069148119999998,666.6666666666666,589e07c92f91cb5d9591d401,SE&NA KÖFTE TANTUNİ,41.05649516475466,29.074108830041954,Steakhouse
41.05465992,29.069148119999998,666.6666666666666,4e326cecb0fb3bf81099b55a,Çengelköy Cuma Pazarı,41.053893487120554,29.07289158858987,Outdoors & Recreation
41.05465992,29.069148119999998,666.6666666666666,4fa84348e4b0c1522340160d,Çengelköy Unlu Mamülleri,41.05166517515492,29.06523119236334,Bakery
41.05465992,29.069148119999998,666.6666666666666,5882428d1174200247443d81,Selfie Cafe&Bistro,41.0586071565056,29.064581085826436,Café
41.05465992,29.069148119999998,666.6666666666666,4c7dead2d461a14356b67ef5,Aşkın Kuaför,41.05468828540988,29.075120883796313,Cosmetics Shop
41.05465992,29.069148119999998,666.6666666666666,57e8f8ad498e6a85a3ed4171,CHACHA'S,41.05444975657787,29.075321207787294,Restaurant
41.05465992,29.069148119999998,666.6666666666666,590d8e31b1ec1359a6f0e9e5,Fıstıkzade Çengelköy,41.05590680708421,29.07430269061601,Dessert Shop
41.05465992,29.069148119999998,666.6666666666666,5597e526498ee9b699f486de,CarrefourSA Mini,41.05758,29.063477,Grocery Store
41.05465992,29.069148119999998,666.6666666666666,560f9986498e99a663381baf,Çengelköy Fitness Clup,41.05387588431509,29.069941714394307,Sports Club
41.05465992,29.069148119999998,666.6666666666666,53b12dc4498e4c69d75f8e00,ekolfilo/BOMOTO,41.05598222224596,29.074170719647345,Rental Car Location
41.05465992,29.069148119999998,666.6666666666666,4ea64cb1e5fa0cc4c39a6957,Palmiye Sera,41.05102742756877,29.06288149600517,Garden
41.05465992,29.069148119999998,666.6666666666666,4fb4607fe4b002d950332ff0,Huzurtepe,41.05249867473896,29.062620366789975,Mountain
41.05465992,29.069148119999998,666.6666666666666,5489cd29498e96c3ac66b9a4,Saltanat Ocakbaşı,41.05527297615641,29.07461223461792,Steakhouse
41.05465992,29.069148119999998,666.6666666666666,50595fa7e4b04e53f64ce6f5,Cinaralti Cafe,41.05051150329339,29.065388239312725,Café
41.05465992,29.069148119999998,666.6666666666666,4e74bbc0b993a71aa3651a0d,Emin Market,41.058076453541936,29.071238296360445,Grocery Store
41.05465992,29.069148119999998,666.6666666666666,5aacffcae075501838e53182,Nevnihal,41.058969,29.07023,Restaurant
41.05465992,29.069148119999998,666.6666666666666,4ff0182be4b03357dc5912ce,Mesa Havuz,41.05950618052505,29.067183708888116,Pool
41.05465992,29.069148119999998,666.6666666666666,562e7369498e686b53ec8f24,Migros Jet,41.05883023485096,29.064669508998275,Big Box Store
41.05465992,29.069148119999998,666.6666666666666,531b0820498e44240810d2dd,Mango Gurme Cafe,41.05699306479264,29.073065736516114,Breakfast Spot
41.05465992,29.069148119999998,666.6666666666666,4f7efd04e4b00dcb6a054e9f,Pizza Hit''s,41.05185042674494,29.072406683000217,American Restaurant
41.05465992,29.069148119999998,666.6666666666666,523dc94611d2737394437d80,Yildirim Beyazid Parki,41.051773752628925,29.074163715041387,Park
41.05465992,29.069148119999998,666.6666666666666,5bcb49b73d479100398a28b0,Big Mamma’s Çengelköy,41.05461724569869,29.075307857043768,Café
41.05465992,29.069148119999998,666.6666666666666,4e80e42a7ee65c3d07bf0068,Ceyhan Kebap Evi,41.05503593123031,29.07443761825561,Kebab Restaurant
41.05465992,29.069148119999998,666.6666666666666,50068d18e4b0c0c243893fcf,Hazal Teras Cafe,41.05697000413648,29.073193113088315,Café
41.05465992,29.069148119999998,666.6666666666666,4fe49d8be4b056dc1bb2aa21,Polonezkoy At Ciftligi,41.05260999657789,29.062149665635438,Farm
41.05465992,29.069148119999998,666.6666666666666,5335e521498e8b23392d91dc,Çengelköy Lisesi Halı Saha,41.055034461796396,29.069160672634133,Soccer Field
41.05465992,29.069148119999998,666.6666666666666,50084f2fe4b0b2967f6dcc55,Tufan Parkı,41.058866928479254,29.072578365162336,Park
41.05465992,29.069148119999998,666.6666666666666,4e087fd91f6e211033930dbe,Orme Sitesi Havuz Başı,41.05663589399885,29.069823071324805,Pool
41.05465992,29.069148119999998,666.6666666666666,515ebb29e4b038d490e96117,Kafe Alina Ve Ev Yemekleri,41.05749208448867,29.065335777593265,Café
41.05465992,29.069148119999998,666.6666666666666,4de2673cfa7651589efd7682,Akasya Pastanesi,41.053354458135175,29.0757987389053,Dessert Shop
41.05465992,29.069148119999998,666.6666666666666,4e70e59252b140871b70ba37,Lider Gym,41.057918167339245,29.072307534074014,Gym
41.05465992,29.069148119999998,666.6666666666666,59fad0fcbcbf7a2bdb0bb0c8,Cafe Mola,41.05510025647299,29.074819942211935,Coffee Shop
41.05465992,29.069148119999998,666.6666666666666,521f580311d2cd338ca49874,Çengelköy Medivia Hospital,41.05233592711966,29.076079786352494,Pharmacy
41.05465992,29.069148119999998,666.6666666666666,54947348498ed521a28a7230,Engin caddesi,41.0556525270045,29.070848400012707,Bar
41.05465992,29.069148119999998,666.6666666666666,50efeffce4b06a5674bbbe07,Saltanat Mangal Cafe Restorant,41.05537757473296,29.07451462759219,Steakhouse
41.05465992,29.069148119999998,666.6666666666666,567fb2c7498eb9bf7f794062,Beylerbeyi Voleybol,41.054921586783664,29.069024450637322,Volleyball Court
41.05465992,29.069148119999998,666.6666666666666,5023ed33e4b0216ddef2bb5d,Domino's Pizza,41.054446961303796,29.07518177251177,Pizza Place
41.05465992,29.069148119999998,666.6666666666666,57fbbf5dcd10f9304ab92734,Çengelköy Ülkem Kokoreç,41.05241593183909,29.069843015210076,Buffet
41.05465992,29.069148119999998,666.6666666666666,507814ebe4b0801687db93c9,Lekeci Nuri Parki,41.05566989440228,29.06607654816367,Park
41.05465992,29.069148119999998,666.6666666666666,576d54b6498e8a8a90c2f391,Şanlıurfa Baklava Ve Börek Evi,41.05806,29.068134,Pastry Shop
41.05465992,29.069148119999998,666.6666666666666,4cce94caee23a1439fa52ca8,Piramit,41.055834311941,29.074512692894775,Dessert Shop
41.05465992,29.069148119999998,666.6666666666666,514876c8e4b0ce419729631a,Dora Peyzaj,41.05758903844587,29.065422329196387,Flower Shop
41.05465992,29.069148119999998,666.6666666666666,57c71134cd10a00b877246b4,ARSEMİEA,41.052104284480805,29.06423157685402,Food Court
41.05465992,29.069148119999998,666.6666666666666,5a3795d7dee7707dd41cd1c0,İstanbul Çiğköfte,41.057675,29.064133,Cigkofte Place
41.05465992,29.069148119999998,666.6666666666666,5687cb9d498eede81b740863,Motivasyon cafe,41.053340130735776,29.062726033673247,Café
41.05465992,29.069148119999998,666.6666666666666,595b65736fd626672c6b3bff,Kafem Mesa,41.05966596745156,29.067303393555093,Café
41.05465992,29.069148119999998,666.6666666666666,54a51af7498eb8a239f500f7,Çengelköy Mesa Fitness Center,41.059685348399896,29.067314533053942,Gym
41.05465992,29.069148119999998,666.6666666666666,5159a1bae4b077ebbc8292f4,Narçiçeği Fidanlığı/Botanik bahçe,41.05765,29.063318,Garden Center
41.05465992,29.069148119999998,666.6666666666666,559e3d01498e78a87ca646b4,Çanakçı Parkı,41.049565583906265,29.071279994374937,Park
41.05465992,29.069148119999998,666.6666666666666,4ffdc48ce4b08ae581a14cbd,Boğazda Balık Keyfi,41.052487245157685,29.06261544078379,Fish & Chips Shop
41.05465992,29.069148119999998,666.6666666666666,5117de32e4b0731590cdab66,Caner Ustanın Mekanı,41.05488238729848,29.06159285130763,Snack Place
41.05465992,29.069148119999998,666.6666666666666,56dc6a65cd10611e1c69c0b4,Gönül Cafe,41.05099246383056,29.06311556322272,Café
41.05915592,29.06182805759502,666.6666666666666,55e0a644498e84ae9caa674e,Yelda'nın Bahçesi,41.058599,29.057861,Garden
41.05915592,29.06182805759502,666.6666666666666,5046142de4b0e0a4af94e4fa,Çengelköy Spor Tesisleri,41.05955976867179,29.062799703387853,Gym
41.05915592,29.06182805759502,666.6666666666666,4efb127c9a52c908445089d7,CANOBA Vakfıkebir Ekmeği - Rasathane,41.06151662804979,29.06554905455716,Bakery
41.05915592,29.06182805759502,666.6666666666666,4daeb5b41e7207bbeb154f77,Rasathane Pide & Kebap,41.063142320671574,29.066209613976003,Turkish Restaurant
41.05915592,29.06182805759502,666.6666666666666,4fce8b11e4b02f8c7804708c,Mis - Un Pastane,41.06349728788654,29.066146312620926,Bakery
41.05915592,29.06182805759502,666.6666666666666,545a03e2498e51179c00c708,Teras tepe,41.05925622832134,29.061380972766404,Nature Preserve
41.05915592,29.06182805759502,666.6666666666666,4e415087fa7697d3df8555d7,mesa evleri havuzbaşı,41.05963291748475,29.067148619906472,Pool
41.05915592,29.06182805759502,666.6666666666666,51753f57498e1d916044360e,Break Cafe,41.059736,29.067446,Café
41.05915592,29.06182805759502,666.6666666666666,51290671e4b03869855b7bc6,Lezzet Express,41.063716284914825,29.066140597600143,Turkish Restaurant
41.05915592,29.06182805759502,666.6666666666666,544f83b0498e4d8c2f1a1c40,Boğaziçi Car Rental,41.064021192729676,29.06578236578472,Rental Car Location
41.05915592,29.06182805759502,666.6666666666666,512a0515e4b0964b1aef55e5,Mesa Cengekoy Basketbol Sahasi,41.05973655858189,29.069700549122132,Basketball Court
41.05465992,29.054507995190036,666.6666666666666,4bd1bdd55e0cce725eeba184,Sumahan On The Water Hotel Istanbul,41.053864822975434,29.051875946042824,Hotel
41.05465992,29.054507995190036,666.6666666666666,4c265561c11dc9b650cb2824,Del Mare,41.054635334198956,29.05190189290373,Mediterranean Restaurant
41.05465992,29.054507995190036,666.6666666666666,4cc329ad91413704f8d1b955,Rigel Restaurant,41.0563941,29.052642,Seafood Restaurant
41.05465992,29.054507995190036,666.6666666666666,5a5ddd3442d8c2565f241efb,Sumahan On The Water Restaurant,41.05385462812871,29.051832732266277,Southern / Soul Food Restaurant
41.05465992,29.054507995190036,666.6666666666666,4b77c52bf964a520dba92ee3,Yakamoz Restaurant,41.05680049860607,29.052651410890917,Seafood Restaurant
41.05465992,29.054507995190036,666.6666666666666,53823cf3498e17831b23af8e,Cadde Cafe Çengelköy,41.051834306124505,29.05254115326682,Café
41.05465992,29.054507995190036,666.6666666666666,57babc48498e3a31d0a5f015,Nilhan Sultan Köşkü,41.052647399660664,29.05719919213772,Hookah Bar
41.05465992,29.054507995190036,666.6666666666666,4c4b82939e6dbe9a2df4250c,Kuleli Sahili,41.0586859182847,29.053013108564315,Waterfront
41.05465992,29.054507995190036,666.6666666666666,5ce91d3e65211f002c73be17,ChaCha Balık,41.05464,29.051896,Seafood Restaurant
41.05465992,29.054507995190036,666.6666666666666,5711375c498eaa8b74bbef2c,Nilda Kafe,41.050679420251896,29.05342365763469,Café
41.05465992,29.054507995190036,666.6666666666666,513b6dc7e4b0d54ad16300f5,Hurma Cafe,41.05052163667607,29.053390352488538,Restaurant
41.05465992,29.054507995190036,666.6666666666666,4beac6a162c0c9289f39e1d4,Tarihi Çınaraltı Aile Çay Bahçesi,41.05022640642304,29.052440140762624,Tea Room
41.05465992,29.054507995190036,666.6666666666666,53c199b8498e3a62e897e19a,Çengelköy Waffle,41.05015873428699,29.05339207414595,Dessert Shop
41.05465992,29.054507995190036,666.6666666666666,5714c3b4498ecc3292b4d214,Çengelköşk Cafe,41.05126203676166,29.053055387683223,Café
41.05465992,29.054507995190036,666.6666666666666,4de92b25ae602933190363c5,Bu & Bu Dondurma,41.049830054857075,29.05412395670778,Ice Cream Shop
41.05465992,29.054507995190036,666.6666666666666,58cedc897b88a71aacfedfb4,Abant Kahvecisi,41.05010049011769,29.053720764490766,Coffee Shop
41.05465992,29.054507995190036,666.6666666666666,5ab00058e7a237110514b9f7,ASMALI SOKAK,41.05085170488215,29.054263430760567,Café
41.05465992,29.054507995190036,666.6666666666666,4ff9e03ce4b0a0306d628077,Ciğerci Çengelköy,41.05025838217117,29.053210616111755,Turkish Restaurant
41.05465992,29.054507995190036,666.6666666666666,5777ff54498e1c78ed6df7fa,Hook Coffee,41.050329558017786,29.05376458281809,Coffee Shop
41.05465992,29.054507995190036,666.6666666666666,55f5760a498e324dbffea015,Çaycı İzzet Efendi,41.05055980903954,29.05415558690102,Tea Room
41.05465992,29.054507995190036,666.6666666666666,4bb9d71b3db7b713f98e229a,Çikolata & Kahve,41.04993600290602,29.05331097532988,Coffee Shop
41.05465992,29.054507995190036,666.6666666666666,5190be3b498e24323706ff8e,Çengelköy Börekçisi,41.05045573904685,29.05310093221281,Borek Place
41.05465992,29.054507995190036,666.6666666666666,4e70d88688773f007b7030fb,Lagash,41.05002200846886,29.0537103155986,Snack Place
41.05465992,29.054507995190036,666.6666666666666,57372701498ef5d24109294e,Uğrak Kahve,41.049906853861735,29.05395304246224,Café
41.05465992,29.054507995190036,666.6666666666666,5d12ed918c3f040023d466ad,Meşhur Selahattin Usta Kokoreç Uykuluk,41.050364,29.05334,Kokoreç Restaurant
41.05465992,29.054507995190036,666.6666666666666,5a709c6ddb1d81328fdb0822,Maa Lounge,41.05093090907274,29.05196646857458,Lounge
41.05465992,29.054507995190036,666.6666666666666,4be69794bcef2d7fcf4905e5,Çengelköy İskele Restaurant,41.050980570117865,29.05193239925267,Seafood Restaurant
41.05465992,29.054507995190036,666.6666666666666,5a27c92631ac6c6df42f714b,Sandal Balık,41.051105,29.052502,Seafood Restaurant
41.05465992,29.054507995190036,666.6666666666666,4ce041d0df986ea83b81e616,Çengelköy Kokoreççisi,41.05038472857993,29.053219674299886,Kokoreç Restaurant
41.05465992,29.054507995190036,666.6666666666666,5b203195e97dfb002c085e8b,Zemmekan,41.05034945438402,29.05371463446398,Café
41.05465992,29.054507995190036,666.6666666666666,4d32adc32e56236a005e1fb4,Seval Pastanesi,41.05077607542345,29.052739382797327,Dessert Shop
41.05465992,29.054507995190036,666.6666666666666,535148a2498e92e010b236a7,Hatr-ı Kahve,41.04921164632551,29.05395825082525,Café
41.05465992,29.054507995190036,666.6666666666666,5a3456146dcf047aeba6e24e,Midyeci Ahmet,41.05111190329569,29.052288422287646,Seafood Restaurant
41.05465992,29.054507995190036,666.6666666666666,5592eed2498ecbf7f16377d2,Maia Chocolates,41.050478294785115,29.053576138444406,Chocolate Shop
41.05465992,29.054507995190036,666.6666666666666,529ada5211d2cc3e32fe6d56,Sütiş Abdullah Ağa Yalısı,41.050069546222225,29.052366358695078,Dessert Shop
41.05465992,29.054507995190036,666.6666666666666,4fac02f8e4b0afd77fc9759d,Çınar Dürüm & Kokoreç,41.05096688634,29.05258660860505,Middle Eastern Restaurant
41.05465992,29.054507995190036,666.6666666666666,58cff40246563a6c4b27fb9f,Tezgah,41.05030584551525,29.05362634274235,Café
41.05465992,29.054507995190036,666.6666666666666,52d587a1498e647360f2371b,Çengelköy Peynircisi & Yoğurtçusu,41.050084620179504,29.05356144888483,Deli / Bodega
41.05465992,29.054507995190036,666.6666666666666,5c3b415a5ba046002c52b1a8,Lokmala,41.05020052240229,29.05298975551482,Dessert Shop
41.05465992,29.054507995190036,666.6666666666666,57519b56498e80be58982415,Müzelik Cafe Çengelköy,41.0506644818177,29.054155286993606,Café
41.05465992,29.054507995190036,666.6666666666666,57eab7ca498e6a85dd2a9105,Mekik Mantı,41.050853612692315,29.05426883801129,Comfort Food Restaurant
41.05465992,29.054507995190036,666.6666666666666,5379fed1498ea9fbf40679e9,Durak Cafe ve Waffle,41.05060885783404,29.052519099289928,Café
41.05465992,29.054507995190036,666.6666666666666,5d9a1364aa006a0008f625ba,Münire,41.05034,29.0545,Café
41.05465992,29.054507995190036,666.6666666666666,5ca619f198fbfc002cb893f8,Neşve,41.04894057299885,29.054290682930198,Breakfast Spot
41.05465992,29.054507995190036,666.6666666666666,5129bbe7e4b0c87c8ab546cd,Çınaraltı,41.05029557101266,29.059087161699203,Breakfast Spot
41.05465992,29.054507995190036,666.6666666666666,505c487be4b0643ab9e1a816,Çengelköy Halısaha,41.05010284424815,29.054812976807845,Soccer Field
41.05465992,29.054507995190036,666.6666666666666,552fc002498ebf4d1d5e0108,Aşhane Ev Yemekleri,41.04978506250675,29.053820375331156,Turkish Home Cooking Restaurant
41.05465992,29.054507995190036,666.6666666666666,4e9aef2377c807974c1529e9,Paşa Kokoreç ve İşkembe Salonu,41.04908982842275,29.05445574962085,Kokoreç Restaurant
41.05465992,29.054507995190036,666.6666666666666,54b27cd8498e8d9a418d7fe5,Kemal Usta Waffles,41.04995118439993,29.054005750355415,Dessert Shop
41.05465992,29.054507995190036,666.6666666666666,593adbd212f0a93a5c5d09bf,İnci Bosphorus,41.050814222818076,29.05197531567416,Restaurant
41.05465992,29.054507995190036,666.6666666666666,57641e95498e7d23ef947683,Ayla Tantuni Çengelköy,41.04988304569139,29.054124246369245,Fast Food Restaurant
41.05465992,29.054507995190036,666.6666666666666,5175079fe4b0300cb18197bd,Kandilli - Çengelköy Yolu,41.05971162892733,29.05325175693076,Trail
41.05465992,29.054507995190036,666.6666666666666,53e7c762498e6613beee34d5,Kuleli Askeri Lisesi Restorant,41.05992929021232,29.053175048552777,Comfort Food Restaurant
41.05465992,29.054507995190036,666.6666666666666,532da17e498ed89ceb53b65f,Kuleli Askeri Lisesi Yazlık Bahçe,41.05991943997241,29.053038855573206,Garden
41.05465992,29.054507995190036,666.6666666666666,5bcb63650d8a0f002c978b58,Doğan Kaymaklı Kadayıf İstanbul Çengelköy,41.04938799310701,29.054517868657342,Dessert Shop
41.05465992,29.054507995190036,666.6666666666666,55bdf667498e21f275966c2f,Selamet Safvet Yatı,41.05829430068244,29.052893784241334,Cruise Ship
41.05465992,29.054507995190036,666.6666666666666,50fbcd57e4b09003af61fc26,Kuleli Balik Tutmaca,41.059115658533074,29.053007426455807,Harbor / Marina
41.05465992,29.054507995190036,666.6666666666666,54f70458498ee95e2fbbdaa9,Kuleli,41.059894489312875,29.05286284827894,Fishing Spot
41.05465992,29.054507995190036,666.6666666666666,56294592498e586858c970a7,Çengelköy Kuleli,41.05879144012468,29.059371255558446,Tree
41.05465992,29.054507995190036,666.6666666666666,530e383411d2d1af4732f387,aşıklar merdiveni,41.051345645747716,29.060649671383608,Campground
41.05465992,29.054507995190036,666.6666666666666,533f0e03498ea74b73acb332,H A N 》SES & IŞIK SİSTEMLERİ,41.059767571294394,29.058655338020866,Concert Hall
41.05915592,29.047187932785057,666.6666666666666,58bd73b9b6e67d75695c7b0a,Easthan,41.05557473875437,29.052379673053622,Café
41.05915592,29.047187932785057,666.6666666666666,576561ef498e9e7e3d12af42,Del-mare restaurant,41.054707869747,29.05193988206496,Seafood Restaurant
41.05915592,29.047187932785057,666.6666666666666,5e160890a800b10008a4c76e,Osteria Salvatore,41.054525,29.051752,Italian Restaurant
41.05915592,29.047187932785057,666.6666666666666,50bb7bd3e4b026fe4c5eaf41,Café bosphorus,41.062059684728325,29.046450132481244,Café
41.05915592,29.047187932785057,666.6666666666666,5ab4f6f59ef8ef02d99dd489,Vapurda,41.0601,29.04215,Boat or Ferry
41.05915592,29.047187932785057,666.6666666666666,54088733498e4d077bf88ad8,eminonu sariyer vapuru,41.0569115585745,29.051626667826103,Boat or Ferry
41.05915592,29.047187932785057,666.6666666666666,528f7c1011d259e3228072cb,Eren A VIP Boğaz Turu,41.06303198897792,29.04563187155885,Boat or Ferry
41.05915592,29.047187932785057,666.6666666666666,527d552811d2b912fca7f56b,SürprizPerisi Yatı,41.056991819751225,29.042512211642578,Boat or Ferry
41.05915592,29.047187932785057,666.6666666666666,562f7ba4498e3658a1f77b66,kuleli sahil,41.06017121473695,29.052808211156663,Harbor / Marina
41.05915592,29.047187932785057,666.6666666666666,58035142d67c146547879130,İstanbul Boğaz Turu,41.063793,29.0463,Boat or Ferry
41.05915592,29.047187932785057,666.6666666666666,518e9a3c498e8e2a54c645cb,cakir Kaptan Teknesi,41.06163122465202,29.041847357865073,Boat or Ferry
41.05915592,29.047187932785057,666.6666666666666,5380e812498e7fa5d01dc42b,bousphours tekne,41.06326460959665,29.042086023655976,Turkish Restaurant
41.05915592,29.047187932785057,666.6666666666666,50db34a1e4b0e013bf36ba5a,19:30 Beşiktaş - Küçüksu Motoru,41.0628523118657,29.04148367594424,Boat or Ferry
41.05915592,29.047187932785057,666.6666666666666,55d11ac2498ec858e6b1e9ef,sudatur,41.064153971508645,29.043489598276373,Cruise Ship
41.05465992,29.03986787038008,666.6666666666666,512f85c7183f26d8004d9131,Huqqa,41.055715455944366,29.034912275051965,Café
41.05465992,29.03986787038008,666.6666666666666,51233c5fe4b01f5baebb1389,The Primetime,41.05476138147758,29.035346413229625,Boat or Ferry
41.05465992,29.03986787038008,666.6666666666666,4bf96a30b182c9b63be0785a,Park Fora,41.05403211792634,29.034857561501493,Seafood Restaurant
41.05465992,29.03986787038008,666.6666666666666,51caa31e454abd721441e8a8,The Market Bosphorus,41.05570885531377,29.035759848976753,Café
41.05465992,29.03986787038008,666.6666666666666,4d313b18b609370493aee9df,Cemil Topuzlu Parkı,41.053870480774115,29.03434624340721,Park
41.05465992,29.03986787038008,666.6666666666666,4c07fd3cffb8c9b6b48a6761,Mavi Balık Restaurant,41.058034552885225,29.035683683362247,Seafood Restaurant
41.05465992,29.03986787038008,666.6666666666666,5d17a9ac7edcd2002370be0d,Ringa Balık,41.056008,29.035736,Seafood Restaurant
41.05465992,29.03986787038008,666.6666666666666,5c8aa492d3cce8002c3b12c2,Oligark İstanbul,41.05572322802627,29.034926475890295,Nightclub
41.05465992,29.03986787038008,666.6666666666666,4c30e78aa0ced13a3fdb126e,Les Ottomans Hotel,41.058798149439255,29.036243884092755,Hotel
41.05465992,29.03986787038008,666.6666666666666,5cfaa541f5e9d7002caee6ad,Sensus wine&food,41.057962,29.035853,Wine Bar
41.05465992,29.03986787038008,666.6666666666666,4d989786daec224b80194c3e,Macrocenter,41.058104537978444,29.035499231247428,Grocery Store
41.05465992,29.03986787038008,666.6666666666666,538661bc498ec38596a3d1b0,Park Şamdan & The Bar,41.05903105529798,29.036426810682485,Lounge
41.05465992,29.03986787038008,666.6666666666666,4ba352b3f964a5202b3538e3,Aşşk Kahve,41.05797950670392,29.036091711878466,Café
41.05465992,29.03986787038008,666.6666666666666,517a741fe4b0fb92e87c61aa,Sortie Niwa Bar,41.05246520714741,29.034149958957666,Nightclub
41.05465992,29.03986787038008,666.6666666666666,536bd547498e0eacad63d0b6,Poeta Leila Tapas&Wine,41.05249031790243,29.034012361445626,Spanish Restaurant
41.05465992,29.03986787038008,666.6666666666666,4bae009af964a520c7793be3,Kuruçeşme Sahili,41.06013389074299,29.03681824217179,Waterfront
41.05465992,29.03986787038008,666.6666666666666,584ef537126ae87dbd0f14aa,Fahham Kuruçeşme,41.05599248820098,29.03455812367725,Café
41.05465992,29.03986787038008,666.6666666666666,4f64881ae4b098b3954cd784,Caudalie Spa at Les Ottomans,41.05888912013041,29.036062846116177,Spa
41.05465992,29.03986787038008,666.6666666666666,5176610e498efe5001ae652e,Inari Omakase,41.05991460565364,29.036411980613224,Sushi Restaurant
41.05465992,29.03986787038008,666.6666666666666,4c4f18e29efabe9a17282d6b,Sortie Rodizio,41.05262260272057,29.034315113073493,Brazilian Restaurant
41.05465992,29.03986787038008,666.6666666666666,5b5effe40d2be7002ce5b7e7,مجبوس Macboos,41.058384213367795,29.035296935751845,Middle Eastern Restaurant
41.05465992,29.03986787038008,666.6666666666666,5dfeb9a166d038000848c2ee,Pasha Club,41.055924,29.034557,Nightclub
41.05465992,29.03986787038008,666.6666666666666,4c153a1277cea59381ded160,Olive Farm,41.05799546821276,29.035949084131488,Gourmet Shop
41.05465992,29.03986787038008,666.6666666666666,599ad95a62420b7f4b47e107,Hubb77,41.05280136300864,29.03326120246843,Breakfast Spot
41.05465992,29.03986787038008,666.6666666666666,559adc76498ea621461528e9,Qurabiye,41.05570780177256,29.034900248694136,Café
41.05465992,29.03986787038008,666.6666666666666,588ce33c326c5a6c308a3527,"Kurucesme Ocakbasi Gani""nin Yeri",41.05987696271863,29.03630173269053,Kebab Restaurant
41.05465992,29.03986787038008,666.6666666666666,4c339040a0ced13a54d7166e,Kuruçeşme Kahvesi,41.059251332499244,29.035774147110523,Café
41.05465992,29.03986787038008,666.6666666666666,4bf6f9be5ec320a17b2286d3,Sortie,41.052448383905976,29.034149249392666,Nightclub
41.05465992,29.03986787038008,666.6666666666666,5388c006498e379b2c832ef4,the bar les ottomans hotel,41.059006183017985,29.036435479593774,Bar
41.05465992,29.03986787038008,666.6666666666666,5096aecfe4b08c7bec77861b,İncirli Şaraphane,41.059542990917826,29.03543074063952,Winery
41.05465992,29.03986787038008,666.6666666666666,4d313b1b98336dcbb42e16f0,Kuruçeşme Parkı,41.05984339558637,29.036551154572457,Park
41.05465992,29.03986787038008,666.6666666666666,4c6d6294e13db60c3b92d8b1,Sortie Venge,41.052169726509305,29.03320967886515,Restaurant
41.05465992,29.03986787038008,666.6666666666666,5cb38a7e788044002c8fa405,Oligark Wine & Dine,41.056164,29.034766,Turkish Restaurant
41.05465992,29.03986787038008,666.6666666666666,4f9bdb5de4b0e1cbfea73c15,Cafe Bosphorus,41.051198358635354,29.033712537559328,Café
41.05465992,29.03986787038008,666.6666666666666,4c063c0a517d0f47c59df515,Marina Balik Restaurant,41.05977117508408,29.03709843250818,Seafood Restaurant
41.05465992,29.03986787038008,666.6666666666666,582104082061ad660732ab01,Noir Istanbul,41.05165117647388,29.033299118041597,Nightclub
41.05465992,29.03986787038008,666.6666666666666,52d3b939498eff9a93891959,Koru İstanbul Kuruçeşme,41.05509927622911,29.03406594931637,Café
41.05465992,29.03986787038008,666.6666666666666,52663d7a11d2f992c192ea3b,NuYu Gym,41.059484160250285,29.035374831681935,Gym
41.05465992,29.03986787038008,666.6666666666666,4c13d8b9a5eb76b018b2c0b7,Kuruçeşme Balık,41.05997393247717,29.03625504828991,Seafood Restaurant
41.05465992,29.03986787038008,666.6666666666666,52b1ee9b498e65fcb810666f,Swiss Restaurant,41.0587102449935,29.035831431891364,Swiss Restaurant
41.05465992,29.03986787038008,666.6666666666666,5a82cdab3e67410fa708375e,Neşedabad,41.05791533693211,29.03610641694512,Restaurant
41.05465992,29.03986787038008,666.6666666666666,5754683d498ee5a2fb1d526b,Bijou Brasserie Istanbul Les Ottomans,41.05881635047636,29.03637988254424,Bistro
41.05465992,29.03986787038008,666.6666666666666,5081a548e4b05bd7ee02ff68,Kydonia,41.05937999459442,29.035458275789985,Seafood Restaurant
41.05465992,29.03986787038008,666.6666666666666,51965cfd498e15afa8372022,Club Albüm,41.051885673769185,29.033093230582686,Nightclub
41.05465992,29.03986787038008,666.6666666666666,50a0f0e3e4b0bae036f1dbda,Kuruçeşme Balık Musa's,41.05991779027527,29.036107901783986,Restaurant
41.05465992,29.03986787038008,666.6666666666666,572cdfbecd10a82036c1c936,ETNA Steak,41.0526057445321,29.034095776710426,Steakhouse
41.05465992,29.03986787038008,666.6666666666666,55210776498e186fc027abf7,Nilly,41.059378065201535,29.036510690069758,Café
41.05465992,29.03986787038008,666.6666666666666,54e7a296498e8a42568b3a51,Hotel Les Ottomans Jazz and More,41.058879190347554,29.036210698128393,Bar
41.05465992,29.03986787038008,666.6666666666666,50706a408055666eee9dbfd8,La Mancha,41.0594099262499,29.035310989800227,Mediterranean Restaurant
41.05465992,29.03986787038008,666.6666666666666,554cd60c498e1f4802eede3b,FishClub Sortie,41.05233248083053,29.03418565986663,Comfort Food Restaurant
41.05465992,29.03986787038008,666.6666666666666,558efc6b498e0b66342a9a85,34Album,41.051850428403334,29.033115599982672,Nightclub
41.05465992,29.03986787038008,666.6666666666666,572cbad7498e524145d8b316,zargana sortie,41.0523438911982,29.034122437384255,Fish & Chips Shop
41.05465992,29.03986787038008,666.6666666666666,51842ae0498e14c34fc1181e,Kalamata Sortie,41.05241675081354,29.034033613778682,Greek Restaurant
41.05465992,29.03986787038008,666.6666666666666,4c2fca2f213c2d7ffc87315d,8th Hill,41.05272436820617,29.033310936765076,Nightclub
41.05465992,29.03986787038008,666.6666666666666,4fd4bb00e4b03121ce881d2e,Boğaziçi Cafe,41.05120076416563,29.033670644217615,Café
41.05465992,29.03986787038008,666.6666666666666,53860858498ea537e2f24a87,Bosphorus cafe,41.05108698976342,29.034656356476642,Café
41.05465992,29.03986787038008,666.6666666666666,4e1201cf1838f8ad816097fe,Cafe De Paris,41.05263171981944,29.034094730938996,French Restaurant
41.05465992,29.03986787038008,666.6666666666666,572cd3c6498eb6873735873e,Yakup 2 Bosphorus,41.05249509796481,29.034126386008523,Restaurant
41.05465992,29.03986787038008,666.6666666666666,572ccb03498e40f47d5d43d4,ArtByAyvazŞef Sortie steakhouse&kebap,41.052457454464424,29.033935774376452,Steakhouse
41.05465992,29.03986787038008,666.6666666666666,5183a4e2498e4de322513df4,Adana Kazancılar Sortie,41.05241736732903,29.033875440933457,Middle Eastern Restaurant
41.05465992,29.03986787038008,666.6666666666666,56be3978498ee5ac0bd12437,the market at bosphorus,41.05420841928473,29.033937081143332,Café
41.05465992,29.03986787038008,666.6666666666666,51cad17d498eac9b1bfa8754,Anonim,41.05528989524765,29.033959812408884,Tea Room
41.05465992,29.03986787038008,666.6666666666666,55522ce3498e260e48dc8913,Sortie Tekne,41.052166838382966,29.03455082412938,Boat or Ferry
41.05465992,29.03986787038008,666.6666666666666,501556eae4b07ac9f254d595,Boğaz Turu,41.0499064236853,29.041585922241214,Cruise Ship
41.05465992,29.03986787038008,666.6666666666666,55fc5f9f498e1b5052de54d7,suda tur gemisi,41.05172917243022,29.033306287179084,Boat or Ferry
41.05915592,29.0325478079751,666.6666666666666,52f60df4498e6db22b29bbab,Ulus Meyve Bahcesi,41.05817818490038,29.028520342974815,Garden
41.05915592,29.0325478079751,666.6666666666666,509909d9e4b0c377d6be8e2f,TRT Boğaziçi Stüdyosu,41.06014939940874,29.030726256007586,Music Venue
41.05915592,29.0325478079751,666.6666666666666,568bbbfc498e509369db945a,FitnessFactory,41.06175611098984,29.035654218550256,Gym
41.05915592,29.0325478079751,666.6666666666666,547c3c4c498e61d2bc9854fd,SmashFitPeople,41.06174477540034,29.035627341885018,Gym
41.05915592,29.0325478079751,666.6666666666666,57ac9535498ea80ccc03d796,Bacalı Kuruçeşme,41.060208691597246,29.036261123534103,Kebab Restaurant
41.05915592,29.0325478079751,666.6666666666666,4b66b8dff964a520a7282be3,Sunset Grill & Bar,41.064120812337706,29.033130258321762,Restaurant
41.05915592,29.0325478079751,666.6666666666666,532ef3b9498e9eaed8cf8c24,Evvie Chocolate Kuruçeşme,41.06101310087011,29.03743696144809,Café
41.05915592,29.0325478079751,666.6666666666666,5284edb5498e3c9037ea5359,Ortaköy-Bebek Koşu Parkuru,41.061499835629306,29.038721323013306,Athletics & Sports
41.05915592,29.0325478079751,666.6666666666666,4b86c8c1f964a5200d9d31e3,Ulus 29,41.06446491500599,29.032156097041412,Nightclub
41.05915592,29.0325478079751,666.6666666666666,4cdc36b4c409b60c9d3bd91a,Akasya Köfte,41.060623479620546,29.035610519937524,BBQ Joint
41.05915592,29.0325478079751,666.6666666666666,4bc1a1fcb492d13aa850a660,Ulus Parkı,41.06404800883959,29.03190851211548,Park
41.05915592,29.0325478079751,666.6666666666666,5118b6b9e4b0077469993a45,29 Food Bar,41.06450280907965,29.032145476777412,Lounge
41.05915592,29.0325478079751,666.6666666666666,4bb49b4fa187ef3b4ccb4942,Dolce,41.0603316154752,29.036784630985693,Dessert Shop
41.05915592,29.0325478079751,666.6666666666666,555c50df498eec162511b4b0,After Sunset,41.06398865569509,29.033094112239496,Lounge
41.05915592,29.0325478079751,666.6666666666666,4bb783973db7b7135f13209a,Divan Kuruçeşme,41.06209574309002,29.038551458890723,Restaurant
41.05915592,29.0325478079751,666.6666666666666,4cf25e9d899c6ea8f8fff5c1,Ulus Cafe,41.064083224856624,29.031692929359973,Café
41.05915592,29.0325478079751,666.6666666666666,5809f21538fad8dc0e62b97b,La Marzocco,41.060943213188274,29.037311922385797,Coffee Shop
41.05915592,29.0325478079751,666.6666666666666,5241c0f311d2d7ef96426584,Kafes Garden Tuna'yla Canlı Müzik,41.059851,29.036063,Bar
41.05915592,29.0325478079751,666.6666666666666,52c7ce60498e527bbe383d70,Espace Privé CHENOT | D-LIFE,41.05703608330934,29.029302489792094,Spa
41.05915592,29.0325478079751,666.6666666666666,500083f3e4b0bfb88330acab,PRIVATE STUDIO Kurucesme,41.06306347809886,29.03801900115146,Speakeasy
41.05915592,29.0325478079751,666.6666666666666,4e4e91b718a8af30fd785ce7,Game Zone,41.059292091671495,29.035725551969396,Gaming Cafe
41.05915592,29.0325478079751,666.6666666666666,4c1e635beac020a1849f49c2,Marmara Sitesi,41.055720921926685,29.026513266162716,Residential Building (Apartment / Condo)
41.05915592,29.0325478079751,666.6666666666666,5810b7c338fab467101f4ce2,TOI İstanbul,41.059966559028624,29.036385343898907,Restaurant
41.05915592,29.0325478079751,666.6666666666666,55645ce8498e9707bf2797eb,Sunset Brasserie,41.06390098516853,29.032973209485974,Bistro
41.05915592,29.0325478079751,666.6666666666666,53d40283498ebed2ce25b26c,The Bar - Les Ottomans,41.05900074885746,29.03645025943941,Bar
41.05915592,29.0325478079751,666.6666666666666,4fc0b247e4b0d51624c68c26,Van Kahvaltı Evi,41.05940130096958,29.035833935416097,Turkish Restaurant
41.05915592,29.0325478079751,666.6666666666666,50f9364de4b09bf30f5f7fdc,Cafe Beliv,41.0606231261096,29.02893691969788,Café
41.05915592,29.0325478079751,666.6666666666666,4fc5c84ce4b0579a797f9b3f,Uluspark,41.06395329512149,29.03162661174731,Garden Center
41.05915592,29.0325478079751,666.6666666666666,4e12102e22713f7d7bd6a6c3,Elit Cafe,41.05931256409238,29.036468722650774,Tea Room
41.05915592,29.0325478079751,666.6666666666666,5841ab68af5c144c4ec1fd5d,hugga,41.05922148556909,29.035784653994444,Café
41.05915592,29.0325478079751,666.6666666666666,5b3d3f08b9ac380039892d16,Hoqqa,41.05698673368527,29.034920836712363,Café
41.05915592,29.0325478079751,666.6666666666666,50cc7f5ae4b00957c872f3d8,New Frank's Hot Dog,41.06195181201776,29.038971974088213,American Restaurant
41.05915592,29.0325478079751,666.6666666666666,53c2de88498eecc148cd2e95,Ulus Parkı Cafe Panorama,41.06410918986294,29.031751776560537,Restaurant
41.05915592,29.0325478079751,666.6666666666666,59426437780eee6c4359927d,Lassiette Les Ottomans,41.05877730912423,29.03641515872343,Modern European Restaurant
41.05915592,29.0325478079751,666.6666666666666,5166677ce4b0639dfdfd0dab,Beşiktaş Belediyesi Ortaköy Meyve Bahçesi,41.05838897052157,29.025014799071318,Garden
41.05915592,29.0325478079751,666.6666666666666,5aba3056d41bb731e75d1e48,Pumpkin Kuruçeşme,41.060978446319574,29.037283801195382,Coffee Shop
41.05915592,29.0325478079751,666.6666666666666,515ebba4e4b004910a6682ef,Ulus parkı cafe panorama,41.064013064528325,29.03166012244004,Garden
41.05915592,29.0325478079751,666.6666666666666,541a86a6498ef0fd44290317,Zorlu Center -Samsung Curved Cinema,41.05993906394581,29.026570836962254,Multiplex
41.05915592,29.0325478079751,666.6666666666666,53a87b6d498e6acf6f7a5f3c,The Market Bosphorus Steakhouse,41.05566529348574,29.03580591843634,Steakhouse
41.05915592,29.0325478079751,666.6666666666666,5d0a8d43838e59002c04e374,Ali Ocakbaşı,41.056009,29.035895,Kebab Restaurant
41.05915592,29.0325478079751,666.6666666666666,4ce2bb7441ed224b6e5df13c,CarrefourSA Gurme,41.058793810274395,29.024832844734192,Supermarket
41.05915592,29.0325478079751,666.6666666666666,572c6c67498eb7385b57fa3e,Cahide Aşk Gemisi,41.05516098543994,29.03571598187509,Beach Bar
41.05915592,29.0325478079751,666.6666666666666,518f9342498e7c52c8be0dfa,İsthouse Portakal Yokuşu,41.053571332632835,29.02970657255949,Hostel
41.05915592,29.0325478079751,666.6666666666666,545e4ce9498eb8917cb70991,Pique,41.05897865308791,29.02505359659646,Diner
41.05915592,29.0325478079751,666.6666666666666,5432ca15498e8015a999be72,Hayri Baba,41.057151048127565,29.034778135722487,Seafood Restaurant
41.05915592,29.0325478079751,666.6666666666666,4fc833e7e4b003326f8dccfb,Sea Haus,41.0563,29.0344,Café
41.05915592,29.0325478079751,666.6666666666666,5b368b9ec21cb1002c1e1c15,Chilia,41.056172,29.034527,Beach Bar
41.05915592,29.0325478079751,666.6666666666666,5e171babf710f60007487a38,Pasha Club İstanbul,41.055935,29.03445,Nightclub
41.05915592,29.0325478079751,666.6666666666666,5d17bebbaf35f3002549b364,Yada Sushi,41.056046,29.035468,Sushi Restaurant
41.05915592,29.0325478079751,666.6666666666666,4edbd6c8775bcc53fc479530,Arnavutköy Parkı,41.055714554936586,29.034891033667677,Playground
41.05915592,29.0325478079751,666.6666666666666,50253b71e4b0cdd7ebae1a8a,Ambarlidere EkMeK Firimi,41.063242963584585,29.030828548819233,Bakery
41.05915592,29.0325478079751,666.6666666666666,546b177d498e280fe945021b,kuruçeşme tdi marina,41.05515419818533,29.035255488970147,Pier
41.05915592,29.0325478079751,666.6666666666666,5939a7194940bc718ce6358b,Lachesis Catamaran Club,41.055217188930555,29.03558750915598,Nightclub
41.05915592,29.0325478079751,666.6666666666666,50ca1573e4b038bd705cece0,komsu fırın,41.06376539589396,29.03288359151179,Bakery
41.05915592,29.0325478079751,666.6666666666666,57e23ca8cd105064cfe87f61,Rainbow Warrior Greenpeace Güneșe Yelken Aç,41.0548,29.035446,Cruise Ship
41.05915592,29.0325478079751,666.6666666666666,537680f5498ef4af737ad81f,TCG Büyükada,41.0543028702469,29.035278220040077,Boat or Ferry
41.05915592,29.0325478079751,666.6666666666666,504baae1e4b01b58f3e98ef3,Yat,41.0547808860035,29.03674436692496,Boat or Ferry
41.05915592,29.0325478079751,666.6666666666666,4ccfef987f56a1437b6dcaa6,Savarona,41.0534825470393,29.034403071412996,Boat or Ferry
41.05915592,29.0325478079751,666.6666666666666,51e451b8498ec9be3e578ef9,bebek ulus,41.06501219935848,29.031251610948036,Cupcake Shop
41.05915592,29.0325478079751,666.6666666666666,50fa88c2e4b0aae3a33b592a,loca butik mutfak,41.06473224905442,29.029760153864135,Restaurant
41.05465992,29.025227745570117,666.6666666666666,552530cc498e80f21e922eb1,ortaköy dereboyu,41.05406222459249,29.023639518548592,Cosmetics Shop
41.05465992,29.025227745570117,666.6666666666666,5056f27ce4b0f81fa1f1c8af,Connection Records,41.05487758347516,29.026043737584494,Music Venue
41.05465992,29.025227745570117,666.6666666666666,4e3e5c5962e19d61097ae88f,Mars Cinema Group,41.05564770753408,29.0230978208021,Multiplex
41.05465992,29.025227745570117,666.6666666666666,4c2cc225b34ad13a56c8ebce,Migros,41.0557412408065,29.02302204450916,Supermarket
41.05465992,29.025227745570117,666.6666666666666,59749ecd35811b1c183708e1,Bond Coffee Co.,41.0519072347709,29.023721988057993,Coffee Shop
41.05465992,29.025227745570117,666.6666666666666,53860293498ec38596a246ad,Bem Casado Patisserie,41.0529757831606,29.023480909196994,Bakery
41.05465992,29.025227745570117,666.6666666666666,4d19f0c9401db60c7cfcfda4,Pelit Pastanesi,41.056365527575416,29.022805971354824,Bakery
41.05465992,29.025227745570117,666.6666666666666,4f86f6b5e4b0eb95c542fe91,Manzara - Keyif Tepesi,41.05569611553653,29.021940185435987,Scenic Lookout
41.05465992,29.025227745570117,666.6666666666666,5326e186498e46208e504d81,She Tours Dinner Cruise,41.05212636576996,29.023741768737082,Restaurant
41.05465992,29.025227745570117,666.6666666666666,5aeb51cb336273002c2fbc9e,Kebapçı Memet,41.052643,29.023544,Kebab Restaurant
41.05465992,29.025227745570117,666.6666666666666,5469f8e9498e5ae11a9675f5,Ortaköy Sırtları,41.05319655652945,29.028398746889724,Recreation Center
41.05465992,29.025227745570117,666.6666666666666,51c98d01498ee751684991bb,Symbola Bosphorus Hotel,41.052169523993264,29.02844045000622,Hotel
41.05465992,29.025227745570117,666.6666666666666,5a7b5f02a35dce18ca1d1da9,Pizza Dope,41.05415705538848,29.022123652435376,Pizza Place
41.05465992,29.025227745570117,666.6666666666666,4f310b98e4b0f99d87e0a2f7,Bizce Ortaköy Kuru Fasulyecisi,41.05095071580628,29.024913247625115,Turkish Restaurant
41.05465992,29.025227745570117,666.6666666666666,4e8acbf393ad2e858a8f77f1,Aysu Börek,41.05127956192749,29.024533721295946,Food
41.05465992,29.025227745570117,666.6666666666666,4fc7b1d5e4b08d84811968cd,Ulus Digital,41.05395163105561,29.022713598332505,Electronics Store
41.05465992,29.025227745570117,666.6666666666666,5304fe2211d2688ba9e9df02,motokolik,41.05458596443409,29.021616742955793,Other Repair Shop
41.05465992,29.025227745570117,666.6666666666666,541ea5da498eb661ff512d3b,Grand Cello Antik (Ortaköy),41.05584828622372,29.022634434416705,Breakfast Spot
41.05465992,29.025227745570117,666.6666666666666,54ccd1ec498ed355df4352d3,Deep Hotel,41.05241358797296,29.028642985006577,Hotel
41.05465992,29.025227745570117,666.6666666666666,4f2ac9d7e4b0e2cf5e86fa57,Bujin Fight Club,41.05881400852746,29.024286515995684,Martial Arts School
41.05465992,29.025227745570117,666.6666666666666,552e9ac7498ef13895f07741,NuSpa Ortaköy,41.05884327698626,29.024344522999638,Spa
41.05465992,29.025227745570117,666.6666666666666,4db1793ff7b1bd003adcee82,Naile Sultan Korusu,41.05313768714891,29.03107831901974,Park
41.05465992,29.025227745570117,666.6666666666666,55096834498e4ea097e8e89d,Ortaköy Profiterol,41.04998488605787,29.02570098930869,Dessert Shop
41.05465992,29.025227745570117,666.6666666666666,5872406f409f561554e967e6,Çaynik,41.04990125885205,29.024421532822704,Tea Room
41.05465992,29.025227745570117,666.6666666666666,52b592df11d2d411309e3dcd,Ortaköy Cafe & Kahvaltı,41.04978192206235,29.025125121319544,Breakfast Spot
41.05465992,29.025227745570117,666.6666666666666,4e2c0599b0fbc2edac27b8e6,Mediko 1 Havuzbasi,41.054664402195804,29.01884866746612,Pool
41.05465992,29.025227745570117,666.6666666666666,4d600bc4922960fcd6796b8b,Pizano Pizzeria,41.04952249562134,29.02515846946559,Pizza Place
41.05465992,29.025227745570117,666.6666666666666,5b537d8aa4236200399fefe8,Aurora,41.052155838580376,29.028389202863522,Restaurant
41.05465992,29.025227745570117,666.6666666666666,52cf234f11d2c571e34fddbd,Müessese,41.04941164471003,29.025185181238705,Café
41.05465992,29.025227745570117,666.6666666666666,575b24bc498e140b46a9ebe0,Mini Cafe,41.054330573518364,29.022027137883967,Breakfast Spot
41.05465992,29.025227745570117,666.6666666666666,547b652b498ef97a10a547be,MACFit,41.058771759227234,29.02417934384095,Gym / Fitness Center
41.05465992,29.025227745570117,666.6666666666666,501e991be4b01ea6a2c5989d,Cemre Cafe,41.04945084061357,29.025507448564536,Café
41.05465992,29.025227745570117,666.6666666666666,4c46d1ea19fde21efc4f0676,Krispy Kreme,41.05874057039924,29.02413739497194,Donut Shop
41.05465992,29.025227745570117,666.6666666666666,53ccc2d4498ecfa7ac17df89,dide butik-pasta,41.05400512810846,29.021457107453138,Bakery
41.05465992,29.025227745570117,666.6666666666666,558d3b64498e1bb5593603f9,Majestueux,41.049452498879994,29.026972531021304,Nightclub
41.05465992,29.025227745570117,666.6666666666666,56ead6f4498eb30b288d9db3,Zemheri Ortaköy,41.04930713712203,29.025229619718132,Food Court
41.05465992,29.025227745570117,666.6666666666666,4d512baa3062a1cdace063a3,Dokuz Sekiz Müzik,41.05930625655033,29.022356761628494,Music Venue
41.05465992,29.025227745570117,666.6666666666666,4dce8d37ae603b786d318123,Merkez Büfe,41.05005312473274,29.025628165076878,Sandwich Place
41.05465992,29.025227745570117,666.6666666666666,4d343cdb2c76a1435ad982c7,Unite iletisim,41.05507607488489,29.020384191482076,Coworking Space
41.05465992,29.025227745570117,666.6666666666666,4d937e8352ed224b50c61eac,Adnan'ın Yeri İzmir Kumru,41.04917128827098,29.026229586711654,Sandwich Place
41.05465992,29.025227745570117,666.6666666666666,5418524f498e3e9773ec8820,Kumrucu Adnan'ın Yeri,41.04916981684601,29.026238866621078,Restaurant
41.05465992,29.025227745570117,666.6666666666666,4f531e9ae4b02cf6be9a80b7,Ortaköy Fırını,41.04969293212748,29.025075598247344,Bakery
41.05465992,29.025227745570117,666.6666666666666,518b202b498e04ef573eff49,Ulus Sosyete Pazari,41.05763228897725,29.022396011429738,Thrift / Vintage Store
41.05465992,29.025227745570117,666.6666666666666,5694b60c498e0529f37de5e3,Fit 2 Move,41.06009265374626,29.0219725989288,Gym
41.05465992,29.025227745570117,666.6666666666666,4fa0f14de4b0de2b9b718df5,"Fistikli Kosk , Ortakoy",41.05099851008116,29.020393883071804,Palace
41.05465992,29.025227745570117,666.6666666666666,582b9af1001d87251ddc3960,China Big Box & Sushi,41.05646330786264,29.022847574154156,Asian Restaurant
41.05465992,29.025227745570117,666.6666666666666,5dc8f579f05500000809cf2b,Meftun İstanbul,41.058849091510275,29.024534225354724,Restaurant
41.05465992,29.025227745570117,666.6666666666666,51594ed8e4b0940330e96c65,Ortaköy Balıkçısı,41.04911333177121,29.025876467630525,Seafood Restaurant
41.05465992,29.025227745570117,666.6666666666666,5e03e03463ad2d000884c140,Bhava İstanbul,41.056317,29.019581,Nightclub
41.05465992,29.025227745570117,666.6666666666666,4e70a871b0fba1302a471825,Liji Roma Dondurmacisi,41.04889704180973,29.02640593605396,Ice Cream Shop
41.05465992,29.025227745570117,666.6666666666666,51f8c33b498ec5fb4e81a3e8,Lotus World Avm,41.05887025659523,29.02438064669274,Shopping Mall
41.05465992,29.025227745570117,666.6666666666666,50cb1d00e4b0262ed65496f6,Rossmann,41.04979754183479,29.02568421669513,Cosmetics Shop
41.05465992,29.025227745570117,666.6666666666666,4f0c02e6e4b00cf4c11978bd,SF Ses ve Işık Sistemleri,41.04989386618134,29.020465033098393,Music Store
41.05465992,29.025227745570117,666.6666666666666,4de37aed8877bcb6865c956d,Brick,41.05542677256156,29.019519424568895,Arts & Entertainment
41.05465992,29.025227745570117,666.6666666666666,4e8d9c767ee6bb6ad4414173,Ulus Pazari - Ortakoy,41.05761684434757,29.02242865856529,Flea Market
41.05465992,29.025227745570117,666.6666666666666,5003b50de4b077d350c502aa,Arçelik,41.05660860060019,29.022565404673216,Electronics Store
41.05465992,29.025227745570117,666.6666666666666,4d6fd5c09aac224b69dc32ed,Sushi Express & Chinese Express,41.0589206862453,29.024280972751686,Sushi Restaurant
41.05465992,29.025227745570117,666.6666666666666,5350fe6d11d22f34e40d0ee6,Ortaköy Olive,41.05641978243935,29.02279919494111,Mediterranean Restaurant
41.05465992,29.025227745570117,666.6666666666666,4fcca545e4b03a5761587e9b,Radyo Mega 105.4,41.04949449830193,29.021591309754694,Music Venue
41.05465992,29.025227745570117,666.6666666666666,579e7645498ebfc7995a7a05,China bigbox&sushi,41.056435105462775,29.022848843714513,Chinese Restaurant
41.05465992,29.025227745570117,666.6666666666666,4d43d9354e5d37047a7be493,Korukent Tenis Kulübü,41.058992809887286,29.020502745188377,Tennis Court
41.05465992,29.025227745570117,666.6666666666666,5232101f11d299e577e871ed,Hotel Bellezza,41.04991904464083,29.020488454227547,Hotel
41.05465992,29.025227745570117,666.6666666666666,518a720e498e8928a2443553,One & Ortaköy Residence Training Room,41.05363966315998,29.021013770122554,Gym Pool
41.05465992,29.025227745570117,666.6666666666666,4f79e969e4b00df15ddfa8e5,Ortaköy 3D Playstation Cafe,41.055996549729535,29.021860619755184,Arcade
41.05465992,29.025227745570117,666.6666666666666,4b6c62d6f964a520c7352ce3,Cosmic Bowling,41.05845234938629,29.02159034321414,Bowling Alley
41.05465992,29.025227745570117,666.6666666666666,4edf1f2761af80fe8a1f7bcd,Defne Ekmek,41.054016495945916,29.022122049694357,Bakery
41.05465992,29.025227745570117,666.6666666666666,553e2f51498eb10d0a1b4fd6,Soho Terrace,41.058783634471716,29.024159798228602,Cocktail Bar
41.05465992,29.025227745570117,666.6666666666666,5371e85f498eef29524e356f,SKYtrainingstudio,41.05657198310903,29.02271310704553,Gym
41.05465992,29.025227745570117,666.6666666666666,518a3b0e498efa9178f568ad,Ortaköy Çarşamba Pazarı,41.056651253243,29.021621922465247,Trail
41.05465992,29.025227745570117,666.6666666666666,573dbd85498e946d6ec98fc3,BLACKBIRD RECORDS,41.055159,29.020382,Recording Studio
41.05465992,29.025227745570117,666.6666666666666,56363570498ea2e47f62b165,Moto 53 Custom Care,41.05064197106533,29.022343696467836,Motorcycle Shop
41.05465992,29.025227745570117,666.6666666666666,53f38d13498e448c1030d769,Furreyya Balikcisi,41.050212106940755,29.022122049694357,Seafood Restaurant
41.05465992,29.025227745570117,666.6666666666666,555d89f4498e6e9061c39fbb,GEM tv,41.0591049088345,29.021942876359248,Movie Theater
41.05465992,29.025227745570117,666.6666666666666,5298df5211d21cbc2318c857,Şaban Bakkal,41.049835,29.022229,Convenience Store
41.05465992,29.025227745570117,666.6666666666666,50687d0be4b05eea708d05b4,Stuck in the damn traffic,41.057315920832394,29.018882560324148,Bus Station
41.05915592,29.017907683165138,666.6666666666666,51e15354498ee3891ae0258f,Studyo Marsandiz,41.06038321749987,29.021049849769014,Music Venue
41.05915592,29.017907683165138,666.6666666666666,5957b64a840fc216ec1c83f1,Ragu Lokanta,41.06352581222088,29.01848523801252,Diner
41.05915592,29.017907683165138,666.6666666666666,4c546670a724e21ee97f57f6,Jandarma Bölge Komutanlığı Sosyal Tesisleri,41.06291686545014,29.014698998282967,Military Base
41.05915592,29.017907683165138,666.6666666666666,4c68fb345be8d13aafbe617a,İstek Vakfı Özel Atanur Oğuz Koleji,41.05931204357198,29.012147613677758,College Academic Building
41.05915592,29.017907683165138,666.6666666666666,52cc3d7611d215a441b89e6c,At Origin Coffee,41.05720116004007,29.011551063978487,Coffee Shop
41.05915592,29.017907683165138,666.6666666666666,5325d663498e66024464538c,Tamirhane Vespa Service & Accessories Store,41.05682729759454,29.011342774923783,Motorcycle Shop
41.05915592,29.017907683165138,666.6666666666666,51cc6922498ecf4dd7356171,The Renaissance Bosphorus Hotel Roof,41.05935728863324,29.010286394432654,Bar
41.05915592,29.017907683165138,666.6666666666666,4fa38872e4b0baf7cbdf3edc,Renaissance Istanbul Bosphorus Hotel,41.05918366295562,29.01030368220904,Hotel
41.05915592,29.017907683165138,666.6666666666666,5491fc14498efdb6a0ec7d21,"Roof Bar, Renaissance Polat Istanbul Hotel",41.05935009055388,29.01030111455195,Lounge
41.05915592,29.017907683165138,666.6666666666666,572e038d498ebcd9ee5932ce,MOTO UĞUR,41.06156432435736,29.012151264355076,Motorcycle Shop
41.05915592,29.017907683165138,666.6666666666666,5104027be4b06b57c6362139,Renaissance R Fitness& Spa,41.05926630032458,29.01036794493933,Gym / Fitness Center
41.05915592,29.017907683165138,666.6666666666666,52eb631911d22451271787d6,Cento Per Cento / The Plaza Hotel,41.06234435660581,29.011431475401412,Italian Restaurant
41.05915592,29.017907683165138,666.6666666666666,505727b3e4b0e5434e01061f,Bar 212,41.05934641484562,29.01029703785013,Bar
41.05915592,29.017907683165138,666.6666666666666,4bd5d183cfa7b7130d7926da,Sita Balık Balmumcu,41.06072982421897,29.011087531985417,Seafood Restaurant
41.05915592,29.017907683165138,666.6666666666666,57836e32cd1018ed29edae81,İpek Hanım Çiftliği,41.06036702912248,29.010659022188424,Food Court
41.05915592,29.017907683165138,666.6666666666666,59c10af225fb7b7fd7eca110,WUNDER Pilates&Yoga,41.058249903926566,29.011188120741707,Pilates Studio
41.05915592,29.017907683165138,666.6666666666666,4d4400994e5d37042e17e693,Dedeoğlu Baklavaları,41.05588797321658,29.016542851162615,Dessert Shop
41.05915592,29.017907683165138,666.6666666666666,56e1a549498ede559ecbca82,MOTOLİZ,41.05878137423943,29.010518703353657,Motorcycle Shop
41.05915592,29.017907683165138,666.6666666666666,5775ef77498ecac8cc50421e,Mercure Istanbul The Plaza Bosphorus,41.062418883687556,29.011261038028692,Hotel
41.05915592,29.017907683165138,666.6666666666666,5596d6db498e7e817e4c511c,KEEPLOCKED,41.05960103255162,29.01071888606968,Arcade
41.05915592,29.017907683165138,666.6666666666666,4c4d8ea01b8e1b8de86ecd25,Zeynep Büfe,41.06026737910514,29.010777394490727,Fast Food Restaurant
41.05915592,29.017907683165138,666.6666666666666,4efc4500e5faadaab35eca97,Gülüm Cafe,41.05704038361638,29.011104137299842,Diner
41.05915592,29.017907683165138,666.6666666666666,4db8f2b81e7206c23d137187,Attila İlhan Parki,41.06055413688509,29.022741523206978,Park
41.05915592,29.017907683165138,666.6666666666666,4d1a2c4725cda1431f288dd6,Indesit Company,41.058780840913755,29.012192178404796,Office
41.05915592,29.017907683165138,666.6666666666666,58f39c2b35f9831804020c37,Antika Kafe & Restoran Ortaköy,41.05577793509498,29.022811874524777,Café
41.05915592,29.017907683165138,666.6666666666666,514704bfe412dab7720d52f6,Pakette,41.05745833931724,29.01195769471339,Sandwich Place
41.05915592,29.017907683165138,666.6666666666666,4dbada161e72b351ca89a711,TBMM Milli Saraylar Konuk Evi,41.054014978381176,29.014430451986037,Hotel
41.05915592,29.017907683165138,666.6666666666666,4f50f250e4b07af68e1e1252,Carisma Auto Wash,41.05494656508942,29.022960142124752,Hobby Shop
41.05915592,29.017907683165138,666.6666666666666,4b80f0e4f964a520b89230e3,Gazi Umur Paşa Sokak,41.057651117197864,29.011178958692796,Park
41.05915592,29.017907683165138,666.6666666666666,5a86fcaa0d173f4c23fe415e,EzberBozan Meyhane,41.06011477880915,29.010809867459404,Meyhane
41.05915592,29.017907683165138,666.6666666666666,4e3fd1aab0fb875af8801dec,EKS Dis Tic. Ltd. Sti. / LifeFitness,41.060512815726995,29.011022897666066,Sporting Goods Shop
41.05915592,29.017907683165138,666.6666666666666,5149a9baebca18a54f6942b8,Living Room Bistro,41.05916235966017,29.010296635655834,Café
41.05915592,29.017907683165138,666.6666666666666,50bb9e33e4b0f3072c3479c8,Kahve Dünyası,41.05478274489241,29.023133665697568,Coffee Shop
41.05915592,29.017907683165138,666.6666666666666,55aa3f4e498ee308ce69fd13,cezme,41.05758217764476,29.01189910865336,Doner Restaurant
41.05915592,29.017907683165138,666.6666666666666,5b3b5f5e3d4791002c9369bc,Mojii Restaurant,41.05454585738182,29.02297206056882,Café
41.05915592,29.017907683165138,666.6666666666666,54514f58498e06e7f32d0034,Koza Bahce,41.05712798103623,29.01247236600319,Buffet
41.05915592,29.017907683165138,666.6666666666666,502df884e4b06a779d64cfa4,Komşufırın - Ortaköy,41.05594063349084,29.02293620679824,Bakery
41.05915592,29.017907683165138,666.6666666666666,4dc286cad4c07da169f96a90,Torte Bakery,41.05475061782362,29.02300689830951,Cupcake Shop
41.05915592,29.017907683165138,666.6666666666666,4e7f9469be7b42df21b0d685,Köfteci Behçet,41.054768423613446,29.02302583131189,Fast Food Restaurant
41.05915592,29.017907683165138,666.6666666666666,523f259f0493470d7e889142,Cafe Milk,41.05682574043259,29.011687812272367,Café
41.05915592,29.017907683165138,666.6666666666666,56ab1e26498e45f9a84849cf,Şehr-i Simit Ortaköy,41.0590494403818,29.023724719151993,Big Box Store
41.05915592,29.017907683165138,666.6666666666666,4d7a74b37451236ab13fe2fe,Chinese Express,41.05671460137179,29.022974535532356,Chinese Restaurant
41.05915592,29.017907683165138,666.6666666666666,51810c51498e09482ee6b2ff,"""By Mel"" Butik",41.05646857036581,29.02275288967008,Boutique
41.05915592,29.017907683165138,666.6666666666666,506de5aee4b082a2a93e81f8,ABTM Cinema,41.05997504797165,29.024452166431644,Movie Theater
41.05915592,29.017907683165138,666.6666666666666,56572231498e1cb01a822f4a,Zorlu Center Eczanesi,41.062917802977104,29.022929069740556,Pharmacy
41.05915592,29.017907683165138,666.6666666666666,5044826ae4b0af4f741cc5eb,MEF Pastane,41.06291714550152,29.023349627800663,Dessert Shop
41.05915592,29.017907683165138,666.6666666666666,56549c91498ed65cd9b56f8f,Avronez By Gidenlerden Kalanlar,41.05445679655375,29.022059533879855,Restaurant
41.05465992,29.01058762076016,666.6666666666666,53725233498eeac4693edb79,Ziraat Bankası Balmumcu Misafirhanesi,41.05601620045207,29.008621637328474,Boarding House
41.05465992,29.01058762076016,666.6666666666666,4fc85288e4b0f2cf9de953eb,Yıldız Şale Köşkü,41.05334720121727,29.01354577878859,Art Museum
41.05465992,29.01058762076016,666.6666666666666,4bb6aeae6edc76b0e360311c,Mr. Cookies,41.05615298741944,29.00828476197159,Dessert Shop
41.05465992,29.01058762076016,666.6666666666666,53d0eaef498e560054196aae,BigFit Private Studio,41.05449028203088,29.007557663076806,Gym / Fitness Center
41.05465992,29.01058762076016,666.6666666666666,4d7c8bb9cf3f37045b365340,Hora Parki,41.05562945394296,29.007693760287992,Park
41.05465992,29.01058762076016,666.6666666666666,56e56824498e40af987a5ee0,Core Pilates Studio,41.05697431855236,29.00966635185695,Athletics & Sports
41.05465992,29.01058762076016,666.6666666666666,52125cd911d2de777ca89d2e,emREC Müzik Yapım ve Ses Kayıt,41.05492585847812,29.007634481755897,Music Venue
41.05465992,29.01058762076016,666.6666666666666,57c0694a498e03513c63f3eb,Escobar Coffee Roasters,41.05351957833598,29.006145208962746,Coffee Shop
41.05465992,29.01058762076016,666.6666666666666,5d0549240868a2002cff2932,Noa Burger,41.05678,29.006407,Burger Joint
41.05465992,29.01058762076016,666.6666666666666,4e89f9724690ceb3f17adc1d,Mi Estilo Fitness & Spa,41.0559321203853,29.00812226769699,Gym / Fitness Center
41.05465992,29.01058762076016,666.6666666666666,5bfc34e0e9b9a500251fc675,MESKEN Yeme/İçme,41.0567342781045,29.00619732756048,Coffee Shop
41.05465992,29.01058762076016,666.6666666666666,533a9771498e2a68364f7a3e,Fitintime,41.052197847796016,29.00700299326976,Gym / Fitness Center
41.05465992,29.01058762076016,666.6666666666666,5486cb50498ec850ace8ab3e,MK Pilates Studios & Academy,41.05359146865981,29.005926237288836,Gym / Fitness Center
41.05465992,29.01058762076016,666.6666666666666,5a26de3fc47cf9327288094a,Coffee Hut,41.056720789510834,29.006288127644922,Coffee Shop
41.05465992,29.01058762076016,666.6666666666666,4cc81a25be874688db3e82af,Yıldız Hamidiye Camii,41.050070644648706,29.009226824141574,Mosque
41.05465992,29.01058762076016,666.6666666666666,5d08cfa6135b39002cedcd29,Mumya Lounge,41.051025,29.00621,Lounge
41.05465992,29.01058762076016,666.6666666666666,4f3a6ab4e4b00bffdf289f15,Çamlıca Market,41.056590444694585,29.006069263708852,Grocery Store
41.05465992,29.01058762076016,666.6666666666666,4e19e9017d8b8af9139b8864,Yıldız Sarayı,41.049880302572745,29.009521757016774,History Museum
41.05465992,29.01058762076016,666.6666666666666,4e8c9322d22db1c42b46ab24,Şahin Çay Evi,41.05669637625061,29.006113027971338,Tea Room
41.05465992,29.01058762076016,666.6666666666666,55119bd2498ef1b309ae8340,Bloom Pilates,41.050515618779066,29.006981080601737,Gym
41.05465992,29.01058762076016,666.6666666666666,4d86e17f81fdb1f76f6f2ec0,Sıla Cafe & Börek,41.05663377646606,29.0062209646104,Breakfast Spot
41.05465992,29.01058762076016,666.6666666666666,4f571209e4b0be1ce2d5463b,Polat Boks Salonu,41.05589320983517,29.003103814488096,Martial Arts School
41.05465992,29.01058762076016,666.6666666666666,570b5173498eb7eb76919ff8,Campo Espresso,41.05094206626289,29.006035923957825,Coffee Shop
41.05465992,29.01058762076016,666.6666666666666,5ba9e3c0cd441c002c22b3d3,Moicano Coffee Roasters,41.055898032078574,29.00555542544076,Coffee Shop
41.05465992,29.01058762076016,666.6666666666666,4daeca350cb65a8b0d20ed11,Ada Ev Yemekleri,41.06033807711201,29.01010427995354,Turkish Home Cooking Restaurant
41.05465992,29.01058762076016,666.6666666666666,4d9f4df3a428a1cdab3fc504,Besiktas Kartal Yuvasi,41.05277041625909,29.004498111756536,Pub
41.05465992,29.01058762076016,666.6666666666666,5b2f5880b2958f002cdcf102,Gönenli Peynircmm,41.05610504054557,29.005439103627225,Breakfast Spot
41.05465992,29.01058762076016,666.6666666666666,4c95c4e558d4b60c83933529,Malta Köşkü,41.05112297269152,29.015962684734795,Historic Site
41.05465992,29.01058762076016,666.6666666666666,4c51bd749426c928cd7c4774,Büyük Mabeyn Köşkü,41.0500903695015,29.010891527668964,History Museum
41.05465992,29.01058762076016,666.6666666666666,4e04713945ddb4645578ff4d,Cihannüma Parkı,41.049727667879516,29.007355472644267,Park
41.05465992,29.01058762076016,666.6666666666666,5a3917d0772fbc374bb4d283,DEAL COFFEE,41.0504313890098,29.00716177241167,Coffee Shop
41.05465992,29.01058762076016,666.6666666666666,4bade2bbf964a52001703be3,Altın Tepsi,41.05923202884428,29.00787252474474,Restaurant
41.05465992,29.01058762076016,666.6666666666666,55a78629498e355522323264,Dikilitaş Semt Pazarı,41.054041500183914,29.004189268501513,Market
41.05465992,29.01058762076016,666.6666666666666,4dbfb11a4df0f8fd6b8c0514,Dikilitaş Parkı,41.056284200685326,29.004958020338645,Park
41.05465992,29.01058762076016,666.6666666666666,55adc686498e21efe4c37224,Bagetta Mix Cafe,41.050373341244466,29.007090808332123,Café
41.05465992,29.01058762076016,666.6666666666666,4fce5aa0e4b05f3297d114a4,Nisa Cafe Ev Yemekleri,41.04997809317711,29.007086404364113,Restaurant
41.05465992,29.01058762076016,666.6666666666666,4c8a7fa49ef0224b07755b7b,Kamos,41.05090014930103,29.005947325207604,Greek Restaurant
41.05465992,29.01058762076016,666.6666666666666,53077cbe11d226009d9207fb,Cafe'Masal,41.05123738877149,29.00656195198717,Manti Place
41.05465992,29.01058762076016,666.6666666666666,57c16b1ecd10129f95aaa89a,Yıldız Korusu,41.050607,29.012883,Nature Preserve
41.05465992,29.01058762076016,666.6666666666666,5055ecd1e4b01f3aa60e0ac7,Dikilitaş Muhtarlık Parkı,41.05486082169982,29.00312163703651,Garden
41.05465992,29.01058762076016,666.6666666666666,4c5a8276d3aee21ebedb6a55,Chinese Time,41.050893656268606,29.007094638083093,Chinese Restaurant
41.05465992,29.01058762076016,666.6666666666666,5163e99de4b02e16b09fdd9b,Urfa Kebap (Terbiyesiz Tavuk),41.06025499016489,29.009996493108844,Turkish Restaurant
41.05465992,29.01058762076016,666.6666666666666,582968e7b4f96246b728a45a,Caffé Mio,41.05004232022278,29.005691505806904,Coffee Shop
41.05465992,29.01058762076016,666.6666666666666,503499f7e4b02f4a82e7f7bc,jingle jungle,41.05972668576705,29.011477461245764,Music Store
41.05465992,29.01058762076016,666.6666666666666,4bf4c7536a31d13ab034962e,Irmak Ev Yemekleri,41.05033603644964,29.00711694048786,Restaurant
41.05465992,29.01058762076016,666.6666666666666,4f8a8f0be4b039b146194514,Ekinciler,41.0566162965132,29.00314193042951,Bakery
41.05465992,29.01058762076016,666.6666666666666,4e142ccca809548274a93b71,Sena Büfe,41.0596187364963,29.013951374693455,Food
41.05465992,29.01058762076016,666.6666666666666,519755ff498e8ad737446c59,Pepe | Nero Pizza Cafe,41.06035757509567,29.01004640906217,Italian Restaurant
41.05465992,29.01058762076016,666.6666666666666,54ed6d20498e12fe88ece524,Sena Gurme,41.05962928669894,29.014343254074838,Breakfast Spot
41.05465992,29.01058762076016,666.6666666666666,4de20814c65b7a3e21110811,Kır Kahvesi,41.05008941264436,29.012945343498103,Breakfast Spot
41.05915592,29.00326755835518,666.6666666666666,4f09f697e4b0ca3a5dd4bc12,Can Studyoları,41.05670261731696,29.002178031369038,Music Venue
41.05915592,29.00326755835518,666.6666666666666,532ac730498ebdb6aa094620,Mia Berre Hotels,41.05824398001248,29.002486848072603,Hotel
41.05915592,29.00326755835518,666.6666666666666,5a355ac8a423624b351e8e52,Mauna Coffe,41.058748,29.004384,Coffee Shop
41.05915592,29.00326755835518,666.6666666666666,4f80296ce4b0bc1416b95b40,Dutluk Parkı,41.06139103882601,29.005662782956648,Park
41.05915592,29.00326755835518,666.6666666666666,4d7b96fd136bf04d3b8c4e8d,Klinik 32,41.05714344419389,29.000022411346436,Dentist's Office
41.05915592,29.00326755835518,666.6666666666666,527faad511d247e8c5a854a2,Cengo GYM PT Studio,41.06027829536798,28.99930626153946,Gym
41.05915592,29.00326755835518,666.6666666666666,51e1c1c6498ee22b4aaad1fc,Burmalım Gaziantep Kadayıfları,41.056308,29.002903,Dessert Shop
41.05915592,29.00326755835518,666.6666666666666,5447ea45498e25a5f117c64a,a love waffle,41.05915335842541,28.99985138377668,Dessert Shop
41.05915592,29.00326755835518,666.6666666666666,53916c38498ec1ba1d982e78,Madame Kuki Lezzet Atölyesi,41.06124501287802,29.00691032409668,Café
41.05915592,29.00326755835518,666.6666666666666,4fc4e64ae4b00c62ad285d56,Adress Cafe,41.0588348948232,29.004341493216206,Café
41.05915592,29.00326755835518,666.6666666666666,4d8d0321d265236abf64e816,Kısmet Lokantası,41.05655529674648,29.0029945817149,Diner
41.05915592,29.00326755835518,666.6666666666666,507c4994e4b01dd0362f89f9,Namlı Kebap,41.05895890272169,29.00460362957154,Turkish Restaurant
41.05915592,29.00326755835518,666.6666666666666,5ab8dfaedb1d812e097969bc,Tophane Keyifli Nargile,41.060989697176524,29.006834380138375,Hookah Bar
41.05915592,29.00326755835518,666.6666666666666,54f9883c498eed240ea7f7b1,By Cunda Mezze Balık Evi,41.061098052566955,29.007069460442167,Seafood Restaurant
41.05915592,29.00326755835518,666.6666666666666,54e9926a498e0f78f8cf32d3,Fikri Oneş Sokağı,41.060349759349776,29.003381005387084,Park
41.05915592,29.00326755835518,666.6666666666666,50f6daa3e4b0a586d8e2234c,Mooi Sports Clubbing,41.05680626366474,28.99905009188873,Gym
41.05915592,29.00326755835518,666.6666666666666,4c86a274d34ca143e79a5180,Pet Corner Veteriner Polikliniği,41.06159779821665,28.99800902865765,Veterinarian
41.05915592,29.00326755835518,666.6666666666666,4cf628caf4478eecdc8710b7,BJK Süleyman Seba Spor Salonu,41.05487175258832,29.001927528829505,Gym
41.05915592,29.00326755835518,666.6666666666666,54202045498e2005467c3d08,MACFit,41.05683120170514,28.99910729631535,Gym / Fitness Center
41.05915592,29.00326755835518,666.6666666666666,53adcc97498e6b0d6e90878a,Nish Suites | Beşiktaş,41.06065019014254,29.008404901464807,Hotel
41.05915592,29.00326755835518,666.6666666666666,57efaafd498e52e07232a423,Federal Film Akademi,41.06056098786461,28.998955106741946,Performing Arts Venue
41.05915592,29.00326755835518,666.6666666666666,4f48db54e4b0e4755d415516,Acibadem Fulya Spor Sagligi Merkezi,41.0557743148853,28.999206686413537,Athletics & Sports
41.05915592,29.00326755835518,666.6666666666666,52f11197498edafbd4e992ad,Petra Roasting Co.,41.062100978809966,29.009341382768827,Coffee Shop
41.05915592,29.00326755835518,666.6666666666666,504e30bee4b0c9f2205dff67,Dikilitas Spor Kulubu Lokali,41.055084530923374,29.001254224274074,Arcade
41.05915592,29.00326755835518,666.6666666666666,58b02299f16bb551b1eb64b5,Burgerillas Fulya,41.062347719072115,29.001107240900918,Burger Joint
41.05915592,29.00326755835518,666.6666666666666,4ec38c81f5b9f024dfc72f76,H.E.C Pioneer,41.05820105027259,28.997031829388902,Music Store
41.05915592,29.00326755835518,666.6666666666666,53608edf498e2c6f818bc9d4,Acıbadem Sports,41.05442102145489,28.999433692066653,Gym / Fitness Center
41.05915592,29.00326755835518,666.6666666666666,58135ca438fa93aacfc16c80,Sinan Göker Göz Grup,41.05587318072496,28.998233293239405,Health & Beauty Service
41.05915592,29.00326755835518,666.6666666666666,52271c8711d2bbf44048dc67,Saraylı Lezzet Evi,41.06347995860004,28.99854898439076,Steakhouse
41.05915592,29.00326755835518,666.6666666666666,5dadb4237858ee0008645ed7,Chillhouse-Hookah Lounge,41.060739,29.00676,Lounge
41.05915592,29.00326755835518,666.6666666666666,5bcd829b3d47910039c85dce,Carrefour,41.054264063666125,28.999939742575684,Supermarket
41.05915592,29.00326755835518,666.6666666666666,4cf7e30bd3a8a1cd432fd943,Es-line Pilates Studio,41.05646039089998,28.99850230292629,Yoga Studio
41.05915592,29.00326755835518,666.6666666666666,58f101e91ffe974527e5472b,Teferruatfulya,41.055269069411295,28.99747651682066,Motorcycle Shop
41.05915592,29.00326755835518,666.6666666666666,5215de1711d25b8fdd219e72,Muse İstanbul,41.06212685616522,29.00933774361192,Performing Arts Venue
41.05915592,29.00326755835518,666.6666666666666,57f8a504498ed8acdb98a431,Çelen Ramok Yol Yaşam Stüdyosu,41.06140153209234,29.00894549629187,Yoga Studio
41.05915592,29.00326755835518,666.6666666666666,50a26989e4b091c0d4dc5796,Dikilitas Spor Kulübü Tesisleri,41.055061804418244,29.001383754786815,Soccer Field
41.05915592,29.00326755835518,666.6666666666666,4c1f55afb4e62d7fea70df93,Pixus Music Video Multimedia,41.063549859059584,29.001316970092184,Recording Studio
41.05915592,29.00326755835518,666.6666666666666,5b993acb237dee002ce84fba,Moment co.,41.06494888818055,29.0020760213112,Sandwich Place
41.05915592,29.00326755835518,666.6666666666666,4d26037095e8f04df4123f4d,Alen Erkek Kuaforu,41.06359666231333,29.005159131101184,Cosmetics Shop
41.05915592,29.00326755835518,666.6666666666666,4f8860c7e4b0b1c4aec00f8b,Fulya Teras,41.05801230498093,28.99673805145648,Diner
41.05915592,29.00326755835518,666.6666666666666,4c402f50af052d7f3a637b79,Aleni Ocakbaşı Restaurant,41.06085656000869,29.00956935610721,Turkish Restaurant
41.05915592,29.00326755835518,666.6666666666666,575c5821cd10eadadf545998,ACUN KASAP BURGER & STEAK HOUSE,41.063526205471845,28.998435579885776,Burger Joint
41.05915592,29.00326755835518,666.6666666666666,58e60c23d4ab730d5fcb3e6e,RUZEYNA,41.063679603732744,29.001151154978512,Restaurant
41.05915592,29.00326755835518,666.6666666666666,53f64b89498ec2bab9038136,Gelato Vita Mia,41.05894440330168,28.99686976705166,Ice Cream Shop
41.05915592,29.00326755835518,666.6666666666666,55082a72498e47cb211188cf,The Place Hotel,41.06253479069517,28.999881079269397,Hotel
41.05915592,29.00326755835518,666.6666666666666,5a4e32e7c0af570ec9588b73,Urban Bread,41.060909,29.009264,Bakery
41.05915592,29.00326755835518,666.6666666666666,4d77559fa32ca1cde32119db,Ortaklar Kanat&Dürüm Evi,41.06341893896018,28.99851963470421,Steakhouse
41.05915592,29.00326755835518,666.6666666666666,4d5a9957f8ff236a7dd3d74a,Bilim Merkezi (TBMV),41.05631021938196,28.99843048605295,Science Museum
41.05915592,29.00326755835518,666.6666666666666,508c1de2e0e246304410fbec,BiberSA,41.06357882880735,28.998515009880066,Advertising Agency
41.05915592,29.00326755835518,666.6666666666666,5433fe27498ece744ae53078,Ege'den,41.0609365858561,29.00669189382592,Turkish Restaurant
41.05915592,29.00326755835518,666.6666666666666,54eefb1b498e6a39f037fdc1,La Vita Patisserie,41.0562684563923,28.997391631046757,Bakery
41.05915592,29.00326755835518,666.6666666666666,5218622111d242c061236c5f,Mutlu Dükkan,41.063919567303586,29.001713656491564,Bakery
41.05915592,29.00326755835518,666.6666666666666,5ba52a23c9a517002c0b41bf,Kaddeh Meyhane,41.05678345244032,28.99941116681076,Meyhane
41.05915592,29.00326755835518,666.6666666666666,5c0539fd646e38002ccebeac,ESPRESSoLAB,41.053849348877456,28.999797109315026,Coffee Shop
41.05915592,29.00326755835518,666.6666666666666,4f2d13cfe4b050b648bf8f42,Avrupa Basketbol Okulu,41.06156032437934,28.996614063751903,Basketball Court
41.05915592,29.00326755835518,666.6666666666666,4ccc0e84ee23a143c0c01ba8,Ertan Kasap,41.06246288350099,29.004224190662118,BBQ Joint
41.05915592,29.00326755835518,666.6666666666666,5404592d498ed2702bdb21fc,cuda cafe bar,41.06327827526296,29.00137516116164,Italian Restaurant
41.05915592,29.00326755835518,666.6666666666666,50dc9979e4b0e687625b7125,33 TANTUNi CiGERCi ALi BABA,41.060899255822704,29.006723092757706,Turkish Restaurant
41.05915592,29.00326755835518,666.6666666666666,4cbebed5acd48cfa2be03e3f,Bibeka,41.055290675487996,28.998932059177164,Fast Food Restaurant
41.05915592,29.00326755835518,666.6666666666666,522e392311d2349c81a4d70b,Uğurlu Tekel Shop,41.05822,28.997157,Convenience Store
41.05915592,29.00326755835518,666.6666666666666,4ced7cf262ef6dcb95c6f259,Gayrettepe Parkı,41.063615230826194,29.004287123680115,Park
41.05915592,29.00326755835518,666.6666666666666,4edde7410aaf49e02daca7c5,Cafe Plus,41.05548994756057,28.999272354906118,Café
41.05915592,29.00326755835518,666.6666666666666,5163e502e4b00638e9ee636e,cotyora,41.06348380153005,29.00018256281827,Restaurant
41.05915592,29.00326755835518,666.6666666666666,4c84b888d92ea09336895f72,Gül Pastanesi,41.06247261218964,28.99784107930425,Dessert Shop
41.05915592,29.00326755835518,666.6666666666666,5174659be4b08243932ee27b,Cotyora Balık,41.06349242950503,29.000172188981225,Seafood Restaurant
41.05915592,29.00326755835518,666.6666666666666,5d21f4ee8be3b00023a617ce,Tütsü By Düvee,41.054283,28.999678,BBQ Joint
41.05915592,29.00326755835518,666.6666666666666,4df224f41fc7b84e0ea6f4e1,YEM Kitabevi Fulya Şubesi,41.05671043486804,28.99864288816542,Bookstore
41.05915592,29.00326755835518,666.6666666666666,4edcd395d3e346be372ff991,KALE - Kale Fulya Mağazası,41.05508287692692,28.999135459713056,Furniture / Home Store
41.05465992,28.995947495950197,666.6666666666666,51742fbb8055026838693f55,VINUS Wine & Spirits Nişantaşı,41.05366055046841,28.995162248611447,Wine Shop
41.05465992,28.995947495950197,666.6666666666666,55bcf47d498e08d9c9742a5b,Hümaliva Çikolata & Kahve,41.05319466117106,28.993722863521153,Chocolate Shop
41.05465992,28.995947495950197,666.6666666666666,5c992369b6eedb002cbc707e,Snap Fitness,41.054014487460556,28.99321566159923,Gym
41.05465992,28.995947495950197,666.6666666666666,4e15dbb2cc3fb9f5a437d41f,Özlem Süer House,41.053324192026146,28.997261586498507,Clothing Store
41.05465992,28.995947495950197,666.6666666666666,55e9dd52498ed2c16859df23,Bröd,41.05263744616719,28.994400339918823,Bakery
41.05465992,28.995947495950197,666.6666666666666,5790dbeecd10844317d0f304,Ada Suites Nişantaşı,41.054799,28.995816,Hotel
41.05465992,28.995947495950197,666.6666666666666,5926e8c82aff31298775c473,Yoga8,41.05190113790082,28.99573162308743,Yoga Studio
41.05465992,28.995947495950197,666.6666666666666,4f64a5a1e4b0788a8f6b1e7e,Rossmann,41.053260934595784,28.993187031290297,Cosmetics Shop
41.05465992,28.995947495950197,666.6666666666666,57b87d84498e007ab9e73a9d,You Cafe & Butik,41.05290030481559,28.992739234870594,Bar
41.05465992,28.995947495950197,666.6666666666666,58a3424314f8f408bea7b7dd,MOC express,41.05265485952972,28.994345334036975,Coffee Shop
41.05465992,28.995947495950197,666.6666666666666,4e91d255550342b5a4bbc074,Champion Fitness Center,41.05673336779035,28.995496923210386,Gym / Fitness Center
41.05465992,28.995947495950197,666.6666666666666,5a1fa56d6e46506ddb162be3,Magado Specialty Coffee,41.0526404448224,28.99353690966507,Coffee Shop
41.05465992,28.995947495950197,666.6666666666666,4d99cf3397d06ea832ee510b,Alexander Mcqueen,41.055208714305735,28.993449084273216,Women's Store
41.05465992,28.995947495950197,666.6666666666666,4c3f0e740596c928ac188578,La Vita Patisserie,41.05257669055056,28.992613905144594,Bakery
41.05465992,28.995947495950197,666.6666666666666,588ec8f9c0df762b402e003f,TZL Suites,41.0545291604839,28.99636656880719,Hotel
41.05465992,28.995947495950197,666.6666666666666,56df0416cd109a4cbf16d436,Pizzeria 14,41.05267977549585,28.994380985553654,Italian Restaurant
41.05465992,28.995947495950197,666.6666666666666,530124aa498e5c1f9025f94f,Gürkan Şef,41.05501829723069,28.995367839021995,Steakhouse
41.05465992,28.995947495950197,666.6666666666666,4e9190b55c5c4562f06a5a44,Studio Oyuncuları,41.05562283443628,28.99364226568275,Theater
41.05465992,28.995947495950197,666.6666666666666,58e20635a37d7208fd238752,Starbucks,41.051722362960625,28.99298036796645,Coffee Shop
41.05465992,28.995947495950197,666.6666666666666,5ce70741ff0306002cf920b9,Zamantaşı Meyhane,41.052798,28.993262,Meyhane
41.05465992,28.995947495950197,666.6666666666666,4fc4663fe4b0b2ce4a0832d7,Divine Brasserie & Jazz Club,41.05145101322583,28.996649571211883,Café
41.05465992,28.995947495950197,666.6666666666666,55e482ba498eb2e799c65bdd,Efendi Topağacı,41.05136531650753,28.995677154922607,Other Nightlife
41.05465992,28.995947495950197,666.6666666666666,5b92c39dbed4830039eea60c,Bronwyn,41.05190956198496,28.99255646218018,Café
41.05465992,28.995947495950197,666.6666666666666,4f06f7cae4b09a8a3d5f6ad2,Hakan Akkaya Haute Couture,41.05231476064488,28.992137943120355,Design Studio
41.05465992,28.995947495950197,666.6666666666666,5b8ff55dc47cf9002c5f5ce7,Mura Coffee & Bar,41.05071662332269,28.995441461034186,Coffee Shop
41.05465992,28.995947495950197,666.6666666666666,5756bfb8498ef2053e57dded,Tan Sağtürk Akademi Teşvikiye-Fulya,41.05701267453911,28.99460837364721,Dance Studio
41.05465992,28.995947495950197,666.6666666666666,596773e101559a13b828ff40,Federal Coffee Plus,41.05149005602914,28.996895368310238,Coffee Shop
41.05465992,28.995947495950197,666.6666666666666,51220ee1e4b0a732450eee4d,Milano Gourmet,41.05230966335112,28.992997725827482,Restaurant
41.05465992,28.995947495950197,666.6666666666666,570f0ee3498eb17fdaf29872,Petra Roasting Co.,41.051119447301105,28.99506059521263,Coffee Shop
41.05465992,28.995947495950197,666.6666666666666,4c00ecac9a950f47814e08c6,Çağrı Büfe,41.05249241906705,28.992295422413317,Fast Food Restaurant
41.05465992,28.995947495950197,666.6666666666666,58e65ada54073d4614f3f68f,Chado Tea Nişantaşı,41.050547704322575,28.99732797343648,Tea Room
41.05465992,28.995947495950197,666.6666666666666,58c1c1816ad73d0d99d157bf,İskender,41.052025552534666,28.993057175595546,Doner Restaurant
41.05465992,28.995947495950197,666.6666666666666,4c63e58258810f474bb70a1e,Mudo Concept,41.05169999811508,28.993276484343827,Furniture / Home Store
41.05465992,28.995947495950197,666.6666666666666,524238c011d20eca5f15823a,Kahvaltıcı Dede,41.05313217775778,29.000439751975506,Breakfast Spot
41.05465992,28.995947495950197,666.6666666666666,5354fbdc11d2e8996ad90bc0,BodyFit Nişantaşı - Pilates Yoga Meditasyon,41.0517976727356,28.991592228412628,Pilates Studio
41.05465992,28.995947495950197,666.6666666666666,53b1892c498e1ac3c13602e5,Zin Pilates•Yoga•25DK,41.05070675276621,28.998331335203417,Gym
41.05465992,28.995947495950197,666.6666666666666,4d345c7fc6cba35d4fcd327a,Mıstık Parkı,41.05173281757985,28.992989726215896,Dog Run
41.05465992,28.995947495950197,666.6666666666666,4ed64faa8231ee8d68a9d924,Victoria's Secret,41.05098486847467,28.992641186386894,Lingerie Store
41.05465992,28.995947495950197,666.6666666666666,50a14420e4b09f0186ba8a3f,Nişantaşı Meydanı,41.05198615718269,28.991288720627676,Plaza
41.05465992,28.995947495950197,666.6666666666666,54452cb3498e949703300783,Kozmonot,41.05134415381873,28.996505192458606,Pub
41.05465992,28.995947495950197,666.6666666666666,4ba2667ff964a52014f537e3,Yoga Şala,41.051165450352556,28.99217714986195,Yoga Studio
41.05465992,28.995947495950197,666.6666666666666,502a2367e4b0c76f3ac99b84,adL,41.05251246278114,28.990502664727217,Women's Store
41.05465992,28.995947495950197,666.6666666666666,4f0b3f5ee4b07c8f8ef45567,Ayşe Takı Galerisi,41.05130307905591,28.99409725953553,Art Gallery
41.05465992,28.995947495950197,666.6666666666666,50b8ba7be4b0073faa8efd2b,Urban Health Pilates,41.050345189431766,28.993781530316014,Gym
41.05465992,28.995947495950197,666.6666666666666,4c0cba4cd64c0f470498255d,Tatbak,41.052037394631206,28.99216705351307,Kebab Restaurant
41.05465992,28.995947495950197,666.6666666666666,4b6494aff964a5205fbf2ae3,City's Nişantaşı,41.0509105631886,28.992635020557355,Shopping Mall
41.05465992,28.995947495950197,666.6666666666666,54675d5c498e343fe5075d82,The Newyorker Pizza,41.04993404424411,28.995512501963468,Pizza Place
41.05465992,28.995947495950197,666.6666666666666,562121c9498e6aeb7b704aa7,Kruton,41.0499830576255,28.99564472065309,French Restaurant
41.05465992,28.995947495950197,666.6666666666666,4b895d6ff964a5203e2f32e3,Starbucks,41.05129237114077,28.992947867223076,Coffee Shop
41.05465992,28.995947495950197,666.6666666666666,4f8a9d15e4b0b1c4b0d16bd0,Frankie İstanbul,41.05050706468806,28.99245085521327,Mediterranean Restaurant
41.05465992,28.995947495950197,666.6666666666666,584507c9bbd6d11f8cdf52e3,SEPHORA,41.050328,28.99286,Cosmetics Shop
41.05465992,28.995947495950197,666.6666666666666,580499e238faa01463f86ede,Spada Coffee,41.0499475497295,28.995513584350057,Coffee Shop
41.05465992,28.995947495950197,666.6666666666666,557efab6498ef4813f0ae2d6,Kruvasan,41.04999608348435,28.995658675780764,Café
41.05465992,28.995947495950197,666.6666666666666,4e04ab9a1f6e97fbec334189,Hak Pasajı,41.05153580581636,28.992142322071604,Jewelry Store
41.05465992,28.995947495950197,666.6666666666666,541eb8c5498e537b408598ed,The Red Gym,41.052175183432844,28.99103225244296,Gym / Fitness Center
41.05465992,28.995947495950197,666.6666666666666,57bed660498e64ae1b82faf3,Oxygen Sports Club,41.05096696753856,28.99263633276703,Gym
41.05465992,28.995947495950197,666.6666666666666,586d5b0ad8b0ed17e6914a8b,Mami Cafe,41.05849980367843,28.993088308170908,Café
41.05465992,28.995947495950197,666.6666666666666,509a942ce4b078b1cd24584b,City's Mahalle,41.05092522202573,28.992650392776827,Food Court
41.05465992,28.995947495950197,666.6666666666666,4c640e22ec94a59302382dca,Remzi Kitabevi,41.05314680640835,28.989076435626753,Bookstore
41.05465992,28.995947495950197,666.6666666666666,4c0908d3340720a1df048493,Zara,41.05068096364533,28.99261649893908,Clothing Store
41.05465992,28.995947495950197,666.6666666666666,4b5409edf964a520e4b027e3,The Sofa Hotel Nişantaşı,41.050529429377015,28.992496132850647,Hotel
41.05465992,28.995947495950197,666.6666666666666,5d70b90ba27e1a00072a7944,Havesomecoffee,41.050045,28.993006,Breakfast Spot
41.05465992,28.995947495950197,666.6666666666666,4cf265af94feb1f7170e1dba,Paşabahçe,41.050858049927285,28.99234491940299,Arts & Crafts Store
41.05465992,28.995947495950197,666.6666666666666,5db017948e3e4e00082dcd1c,GASTO Street & Local Food,41.049402755680624,28.995722830295563,Restaurant
41.05465992,28.995947495950197,666.6666666666666,4dcc4a967d8b19012470f580,Yes Kardeşler,41.05309013941175,29.000424117240954,Turkish Restaurant
41.05465992,28.995947495950197,666.6666666666666,506da096e4b0278c7a980001,Mybestfriends Fashion Design Atelier,41.04995132768294,28.99303494191325,Women's Store
41.05465992,28.995947495950197,666.6666666666666,57badde2498ee5b32ed15584,Shopi go No:62,41.05021466891368,28.993947564133112,Clothing Store
41.05465992,28.995947495950197,666.6666666666666,5612413d498e190f20899e8d,Godiva,41.050510435660364,28.99110523606382,Chocolate Shop
41.05465992,28.995947495950197,666.6666666666666,537f4687498e635a12ba6f21,Beşiktaş Fulya Hakkı Yeten Tesisleri,41.052801963925,29.0016211819036,Soccer Stadium
41.05465992,28.995947495950197,666.6666666666666,5f0c050d90a02b480ca9ec0b,Mayson Lounge,41.0506993389964,28.99243712425232,Restaurant
41.05465992,28.995947495950197,666.6666666666666,5295a50d11d2b8c4f3f2c058,nişantaşı cadde,41.05277054841858,28.990106929095266,Department Store
41.05465992,28.995947495950197,666.6666666666666,5591160d498ec4e7699ab1a7,Dr. Mustafa Karataş,41.05107961131643,28.99054348468781,Doctor's Office
41.05465992,28.995947495950197,666.6666666666666,4b670aa7f964a52081362be3,Caffè Nero,41.05115038716811,28.991391837996296,Coffee Shop
41.05465992,28.995947495950197,666.6666666666666,4d2ace2b77a2a1cd25a277b7,Louis Vuitton,41.0495334,28.9923093,Boutique
41.05465992,28.995947495950197,666.6666666666666,52b2b0e1498ee85bd20469e3,Pelinin Ayakkabıları,41.05289259766452,28.9897569720837,Shoe Store
41.05465992,28.995947495950197,666.6666666666666,569518c8498effc731a7de49,Grey Food & Drink,41.04991065340297,28.995336724809466,Lounge
41.05465992,28.995947495950197,666.6666666666666,4d0cb72895c1a1cdbeb9fdfe,Beymen Brasserie,41.04957993910061,28.992097892030735,Café
41.05465992,28.995947495950197,666.6666666666666,4f492742e4b07d0dde810ed5,Christian Louboutin,41.04951221535357,28.992101693830904,Shoe Store
41.05465992,28.995947495950197,666.6666666666666,4cd9443651fc8cfaad12ee5d,Gratis,41.053347343335886,28.988488657242822,Cosmetics Shop
41.05465992,28.995947495950197,666.6666666666666,4c027dea0d0e0f473d26019a,Ihlamur Kasrı,41.051122138151676,29.00230326194609,Historic Site
41.05465992,28.995947495950197,666.6666666666666,5138cd6ae4b019c70dfd887f,BJK Fulya Süleyman Seba Kompleksi,41.05428134806594,28.99952069556946,Shopping Mall
41.05915592,28.98862743354522,666.6666666666666,54b3e541498e2d523bd8e9e2,Bozlu Art Project Mongeri Binası,41.05904942612373,28.989142963292135,Art Gallery
41.05915592,28.98862743354522,666.6666666666666,5acd0092340a58482406fa99,Tian Xiang Fu Small Hotpot,41.058348862712094,28.98693323135376,Chinese Restaurant
41.05915592,28.98862743354522,666.6666666666666,50960d6de4b08c7bec10ed4a,Gelecek Nesil Spor Kulübü,41.0576066100543,28.988436572469958,Basketball Court
41.05915592,28.98862743354522,666.6666666666666,5235b6ca11d2807c793d2800,Radisson Blu Botanica Fitness & SPA,41.06111579782392,28.989123898574483,Gym / Fitness Center
41.05915592,28.98862743354522,666.6666666666666,531f14dc498ecc1d78805efd,Radison Blue Şişli,41.060982064326886,28.989098792160195,Hotel
41.05915592,28.98862743354522,666.6666666666666,5517ce36498eb43066cc50c9,Trendy Kuaför,41.05885543592165,28.986293265499636,Health & Beauty Service
41.05915592,28.98862743354522,666.6666666666666,4da5b2570437667c9b31626b,Besin Kasap & Steakhouse,41.06151053620588,28.987225820357917,Steakhouse
41.05915592,28.98862743354522,666.6666666666666,5717c1de498ea9f49962aa83,A Plus Pilates & Dance Studio,41.0602818609243,28.988753011504315,Gym
41.05915592,28.98862743354522,666.6666666666666,5225c11c498e38315f7d93e9,Radisson Blu Hotel,41.06163569426531,28.98869791534412,Hotel
41.05915592,28.98862743354522,666.6666666666666,534909c0498ea75b67d95e7f,Hamdi Restaurant Şişli,41.0609311801561,28.989608891730597,Restaurant
41.05915592,28.98862743354522,666.6666666666666,4cab4d4344a8224b3db52c40,Yogatime,41.05678523587549,28.98687402095488,Yoga Studio
41.05915592,28.98862743354522,666.6666666666666,57ffa4c3d67c2cd285e37d28,Cemil Candaş Kent Kültür Merkezi,41.05791096772044,28.986985988531234,Public Art
41.05915592,28.98862743354522,666.6666666666666,4f993f39e4b05cf26c11c058,Ben DJ olmak istiyorum !,41.059127291634105,28.991513321709824,Music Venue
41.05915592,28.98862743354522,666.6666666666666,4cb87651035d236af42dcd4e,Atatürk Müzesi,41.056357159687394,28.98696674132293,History Museum
41.05915592,28.98862743354522,666.6666666666666,5ab8b2d7ccad6b5d76a01230,Mambocino Coffee,41.059330011657295,28.98721676317465,Coffee Shop
41.05915592,28.98862743354522,666.6666666666666,56b8e5db498e61baf41ea257,Dürümcü Nihat Usta,41.05875639796491,28.985736285415065,Steakhouse
41.05915592,28.98862743354522,666.6666666666666,54a666cb498efd1a465f5237,Halifaks OTEL,41.05691712348323,28.988866807886993,Roof Deck
41.05915592,28.98862743354522,666.6666666666666,55a50070498e4dc374aa3397,Dermalklinik | Uzm. Dr. Filiz Altıoğlu Çığ,41.06025090570406,28.987198615203475,Health & Beauty Service
41.05915592,28.98862743354522,666.6666666666666,4daae1804df01c19b193268c,U.S. Polo Assn.,41.0598071357381,28.987706865658765,Clothing Store
41.05915592,28.98862743354522,666.6666666666666,4e214ccf88774a43b7687b93,Mıstık Marmaris Büfe,41.05879813843217,28.986270289103068,Fast Food Restaurant
41.05915592,28.98862743354522,666.6666666666666,5a21ba1f916bc15690daf6af,Büke Hotel,41.0576116249418,28.98769623502955,Hotel
41.05915592,28.98862743354522,666.6666666666666,52c9240a11d266d2c97e9d63,Pelit Pastanesi,41.061803354231685,28.98878769201074,Café
41.05915592,28.98862743354522,666.6666666666666,4cbfd58000d8370449b9465c,Kovan Fırın,41.057040528162226,28.987091598635768,Bakery
41.05915592,28.98862743354522,666.6666666666666,4e7e03310aaf586ebb019572,Dilek Bale,41.05774092369112,28.984921830597173,Arts & Entertainment
41.05915592,28.98862743354522,666.6666666666666,51dd879b498e603ba214f3ad,Şişli Öz Karadeniz Pidecisi,41.058664,28.985953,Bakery
41.05915592,28.98862743354522,666.6666666666666,536ca526498e85bbf58e2f86,Galata Dönercisi,41.06062457727957,28.98725412571598,Doner Restaurant
41.05915592,28.98862743354522,666.6666666666666,4cc006b7575d236a4e11c28e,Şişli Köftecisi,41.06181370178894,28.98776496818483,Middle Eastern Restaurant
41.05915592,28.98862743354522,666.6666666666666,4ed514b3f5b975def56734b8,Dinamik Spor Merkezi,41.056810883992235,28.98640857727658,Gym / Fitness Center
41.05915592,28.98862743354522,666.6666666666666,4bf65e789abec9b60da625e8,Badem Cafe,41.0567358173741,28.98562299439863,Restaurant
41.05915592,28.98862743354522,666.6666666666666,5a23ea35e185f32e3a2d4734,Dual Coffee Shop,41.05874018763846,28.985542256917046,Café
41.05915592,28.98862743354522,666.6666666666666,5b9d02cf029a550039776b83,Hadika Kahvaltı Evi,41.05587,28.989817,Breakfast Spot
41.05915592,28.98862743354522,666.6666666666666,4ee5b7074690f88941b1e61e,Gratis,41.059513425972334,28.987291992999822,Cosmetics Shop
41.05915592,28.98862743354522,666.6666666666666,4ee778b0d3e34ebcf2a52288,Elmas Bufe,41.06178459761478,28.987500192417443,Fast Food Restaurant
41.05915592,28.98862743354522,666.6666666666666,54c23c8a498e259a3c050ee7,Divan Patisserie Osmanbey,41.057000645586136,28.987117908080346,Dessert Shop
41.05915592,28.98862743354522,666.6666666666666,542f8828498e14ac518ae44e,SHISHLY Cafe & Bistro,41.06223103526907,28.987631316038275,Café
41.05915592,28.98862743354522,666.6666666666666,5551c0a2498e260e4775cdb9,ilter4slim,41.05901523624412,28.987144213583935,Gym / Fitness Center
41.05915592,28.98862743354522,666.6666666666666,4df4857814954f21cf32044a,Öz Karadeniz Pide Salonu,41.058730148270975,28.985903035212473,Food
41.05915592,28.98862743354522,666.6666666666666,5895b7be18dc5328f3bcf7e2,Ekinciler,41.05608627036073,28.9868846565021,Bakery
41.05915592,28.98862743354522,666.6666666666666,4d4535ec3616b60c878eecc2,Çikas Çiçek Mağazası,41.0601609939503,28.986847400665283,Flower Shop
41.05915592,28.98862743354522,666.6666666666666,53df5173498e59584bf83084,Meat & Meet Kasap Dursun,41.05704,28.984032,Steakhouse
41.05915592,28.98862743354522,666.6666666666666,542cef72498e6526c49ea139,Jammin's Vinyl Records & Café,41.06064034542768,28.984116276072168,Record Shop
41.05915592,28.98862743354522,666.6666666666666,4e7af498cc212bd7d9c16a2e,.TURKCELL TiM. AY-TEK iLETISiM,41.06023100984968,28.987267845277383,Mobile Phone Shop
41.05915592,28.98862743354522,666.6666666666666,4b770090f964a52056732ee3,Ali Poyrazoğlu Tiyatrosu,41.06181262347242,28.987459188508144,Theater
41.05915592,28.98862743354522,666.6666666666666,5998777483e38014d8c95f38,Merletto Pizza,41.05934076858491,28.98336279125489,Pizza Place
41.05915592,28.98862743354522,666.6666666666666,50b39d9ce4b0fdf0a2ca37a0,pera pilates,41.062606250098334,28.989710035255044,Gym
41.05915592,28.98862743354522,666.6666666666666,517fb0c2e4b05ec082cd84f3,Milano Cafe,41.05908632698864,28.984460774054686,Arcade
41.05915592,28.98862743354522,666.6666666666666,559a2581498ef8cc2b1f0740,Kozmos Coffee,41.05758279282517,28.98402987315719,Coffee Shop
41.05915592,28.98862743354522,666.6666666666666,4c0b5d55ffb8c9b63a356d61,Migros,41.061622171744744,28.98916120390512,Grocery Store
41.05915592,28.98862743354522,666.6666666666666,55d6d4f2498e9bca2ab2090d,Hotel Favori,41.05506436567746,28.988568185484997,Hotel
41.05915592,28.98862743354522,666.6666666666666,5814854a38fa1979d45c4a33,MASSA BOMONTİ WINE & MEZE BAR,41.05730859233819,28.983119570561545,General Entertainment
41.05915592,28.98862743354522,666.6666666666666,4d9d53a65c33a35d0350ffa0,Joy FM,41.062777979295255,28.98963689804077,Radio Station
41.05915592,28.98862743354522,666.6666666666666,569fcee2498eda37305d4a9e,Löö Motto,41.061955954213566,28.9853532050865,Café
41.05915592,28.98862743354522,666.6666666666666,4f75ca8fe4b07eec20852ea1,Kartal Yuvası,41.06212835523527,28.992608723685443,Sporting Goods Shop
41.05915592,28.98862743354522,666.6666666666666,58064fb938fad92a71509c5f,Balkon Shisha Lounge (Radisson Blu Şişli),41.06161181623103,28.988977394713306,Hookah Bar
41.05915592,28.98862743354522,666.6666666666666,5a328efaa795bd118fdfeb4c,Harb!Yee Burger,41.06164816621374,28.987197655660385,Burger Joint
41.05915592,28.98862743354522,666.6666666666666,4d98874e942ba09323a1868c,Fenerium,41.06204871761821,28.99252801886939,Sporting Goods Shop
41.05915592,28.98862743354522,666.6666666666666,5b65cf62f4b5250039c6871f,Cafe Minik Kurabiyeciler ve Oyun Atölyesi,41.060341,28.984062,Café
41.05915592,28.98862743354522,666.6666666666666,50bc6079e4b08cfd70a21215,Şişli Meydanı,41.060789185262244,28.987450285560296,Plaza
41.05915592,28.98862743354522,666.6666666666666,4bb0f514f964a520d96d3ce3,Günay Restaurant,41.06306735059294,28.99063489032026,Nightclub
41.05915592,28.98862743354522,666.6666666666666,53c9f2cb498e5a7d7aed4b2e,Istanbul Marriott Hotel Sisli Executive Lounge,41.06377744125101,28.98776039696099,Lounge
41.05915592,28.98862743354522,666.6666666666666,54de1cc3498eb760c96e33ec,Blisstanbul Hotel,41.06237421768199,28.987637692703963,Hotel
41.05915592,28.98862743354522,666.6666666666666,4e7d967c722eb145a5f796ee,Bistro in Vivo,41.06212355085221,28.98419663712565,Italian Restaurant
41.05915592,28.98862743354522,666.6666666666666,5802130338fa63de122fdbb1,Namlı Fırın,41.06199463526494,28.988908746297216,Bakery
41.05915592,28.98862743354522,666.6666666666666,50252acce4b012d82f522d6d,Tahir Usta Dürüm ve Kebap Salonu,41.0618892513927,28.98691267232069,Turkish Restaurant
41.05915592,28.98862743354522,666.6666666666666,4f5100b9e4b0b5f9a5bb7b90,Victoria's Secret,41.06328117108989,28.99239965159254,Lingerie Store
41.05915592,28.98862743354522,666.6666666666666,4cbae55543ec6dcbd543a731,İstanbul Devlet Tiyatroları Cevahir Sahnesi,41.0620861766937,28.993542541862112,Theater
41.05915592,28.98862743354522,666.6666666666666,51f2465b498e32c728b9553e,Hotel Le Mirage,41.055604863953,28.985467756721444,Hotel
41.05915592,28.98862743354522,666.6666666666666,54f59cb0498ea9382c044d16,Renata Suites,41.05583263093884,28.986181322788287,Hotel
41.05915592,28.98862743354522,666.6666666666666,4d9ed4ca925f236a924d4144,Şişli Balıkçısı,41.06169824329122,28.986821362260144,Seafood Restaurant
41.05915592,28.98862743354522,666.6666666666666,5be04beffd16bb002c11b0c0,Hürabi,41.05618475664909,28.985635042190548,Restaurant
41.05915592,28.98862743354522,666.6666666666666,4e521c0c22710da1b3d9bb62,Galatasaray Store,41.06268417246833,28.992532176890418,Sporting Goods Shop
41.05915592,28.98862743354522,666.6666666666666,4c9719c182b56dcbccfce6aa,Saray Muhallebicisi,41.0564368639595,28.98690753421841,Dessert Shop
41.05915592,28.98862743354522,666.6666666666666,51420788e4b00a30f51b066b,köfte miss,41.06204192845175,28.98390699476511,Turkish Restaurant
41.05915592,28.98862743354522,666.6666666666666,569d0234498e2a9e10f13731,Arşiv Türk Mutfağı,41.062327266748184,28.989223850562155,Restaurant
41.05915592,28.98862743354522,666.6666666666666,529739df498e793df4b69d6e,Ayer İletişim,41.05908411809025,28.98467276231388,Mobile Phone Shop
41.05915592,28.98862743354522,666.6666666666666,4ca37819c1f1ef3b8d7290a4,D&R,41.06216618493047,28.99336781386523,Bookstore
41.05915592,28.98862743354522,666.6666666666666,521f8c6911d24bef296b152a,Nişantaşı Chocalate Cafe,41.055136919089335,28.985779477688812,Café
41.05915592,28.98862743354522,666.6666666666666,4c3f185351dee21ebf7beb6e,Watsons,41.06290218902326,28.992810872094577,Cosmetics Shop
41.05915592,28.98862743354522,666.6666666666666,5322df9b498e2362a059477e,Marriott Health Club Fitness & Spa,41.063790019660225,28.987731067922248,Gym / Fitness Center
41.05915592,28.98862743354522,666.6666666666666,4b71a538f964a52052532de3,Sports International,41.061788108951575,28.991750913323763,Gym / Fitness Center
41.05915592,28.98862743354522,666.6666666666666,5049bea7e4b0fae9a709228f,In Bakery by Divan,41.06373737181404,28.987704211466685,Dessert Shop
41.05915592,28.98862743354522,666.6666666666666,5050d16be4b062cf9b9ebf17,Pasta Sanatı Cevahir,41.063323248597705,28.992227403609377,Cupcake Shop
41.05915592,28.98862743354522,666.6666666666666,4ce948c1e888f04df627476b,Ali Baba Balıkçısı,41.06171046270833,28.98674502513904,Seafood Restaurant
41.05915592,28.98862743354522,666.6666666666666,4fbff936e4b07a4edcee0c3f,Bomonti Otel,41.058368516022625,28.98380141597743,Hotel
41.05915592,28.98862743354522,666.6666666666666,5bf2ae11b9b37b002ceaedda,Munchies Waffle,41.057467,28.982342,Restaurant
41.05915592,28.98862743354522,666.6666666666666,533cfe53498e88fc1921f0d2,The Dish Room-İstanbul Marriott Hotel,41.06380493547565,28.98769537233246,Food Court
41.05915592,28.98862743354522,666.6666666666666,52dcea75498e53fc55848de1,Nocturne,41.05908153028438,28.98327895553986,Women's Store
41.05915592,28.98862743354522,666.6666666666666,596ce7e86dcf044afaa60034,Green Salads Cevahir,41.06233009539944,28.992987629440375,Salad Place
41.05915592,28.98862743354522,666.6666666666666,4c4af02f9e6dbe9a5bcf4a0b,Baklavacı Bayramoğlu,41.061644466860606,28.987348689543655,Dessert Shop
41.05915592,28.98862743354522,666.6666666666666,5746ae96498e93f91dd2c058,Paşabahçe Osmanbey,41.055138150980795,28.98700321657176,Gift Shop
41.05915592,28.98862743354522,666.6666666666666,5a848ac335d3fc3bb9b7dbc8,bona,41.061788,28.986129,Café
41.05915592,28.98862743354522,666.6666666666666,4c8e06c0d68c6dcb5a57f8a1,Erenoğlu Lokantası,41.063717839874364,28.987496662074452,Turkish Restaurant
41.05915592,28.98862743354522,666.6666666666666,5560b511498ec92fd3bdf4d8,116 Residence,41.06268255299355,28.986327458355987,Recreation Center
41.05915592,28.98862743354522,666.6666666666666,5a3e9d13a6ec982a815ed2b2,Agusto Cafe & Restaurant,41.06185801074327,28.986127179948348,Restaurant
41.05915592,28.98862743354522,666.6666666666666,4d9ac3497668f04d26bcc293,Zara,41.063135784359744,28.99185444147172,Clothing Store
41.05915592,28.98862743354522,666.6666666666666,4efb8750c512b67189aec631,Cafe Arena,41.05705806655265,28.984831530544295,Café
41.05915592,28.98862743354522,666.6666666666666,511f58d4e4b06730a577d2bb,Lasagrada Hotel Istanbul,41.054041984477074,28.98727014934403,Hotel
41.05915592,28.98862743354522,666.6666666666666,55df406c498ed81921040317,Mahalle Lokantası,41.062906158153986,28.983669264880966,Restaurant
41.05915592,28.98862743354522,666.6666666666666,5ef378076076fb00088f640b,Gelateria Bonacci Bomonti,41.057491,28.982172,Ice Cream Shop
41.05465992,28.98130737114024,666.6666666666666,4d3ad0da687ca35d51628dc4,Dinakord Elektronik,41.054741233900245,28.9811806787553,Electronics Store
41.05465992,28.98130737114024,666.6666666666666,560148aa498ecf307ec4d11f,But First Coffee,41.05633170963387,28.981556191715264,Coffee Shop
41.05465992,28.98130737114024,666.6666666666666,51cc71cb498e99da8eca9321,Çukur Cigercisi,41.054586189513316,28.981588140838788,Turkish Restaurant
41.05465992,28.98130737114024,666.6666666666666,4b9b702ff964a5205e0736e3,Feriköy Organik Pazarı,41.05627647541447,28.980355876198775,Farmers Market
41.05465992,28.98130737114024,666.6666666666666,5d971be607183d00070cc32f,Advayta Yoga,41.0557,28.979688,Yoga Studio
41.05465992,28.98130737114024,666.6666666666666,51b22a28498e603c719bad35,Umman Pastanesi,41.054083497060006,28.980706223813637,Bakery
41.05465992,28.98130737114024,666.6666666666666,4e6a51cba809290267f4dac6,İkram Çiğköfte,41.05432612658577,28.97892135246286,Cigkofte Place
41.05465992,28.98130737114024,666.6666666666666,5bd4382f464d65002c83168e,Batard,41.05646035874185,28.9803816615415,French Restaurant
41.05465992,28.98130737114024,666.6666666666666,4d3bf8bc14aa8cfa3f13a55e,Feriköy Bit Pazarı,41.056039132002205,28.979723453521725,Flea Market
41.05465992,28.98130737114024,666.6666666666666,4bfad73865fbc9b6689a906c,Emin Eczanesi,41.05374550885645,28.982726671127097,Pharmacy
41.05465992,28.98130737114024,666.6666666666666,5d0e5b2d9300690024a782cb,Halisünasyon Coffee - Food - Art,41.057105,28.980625,Coffee Shop
41.05465992,28.98130737114024,666.6666666666666,57ac3ee4498eb5793dd079e3,Cross Fingers,41.057100502070924,28.98098558926403,Burger Joint
41.05465992,28.98130737114024,666.6666666666666,58304c1e2c55ec662d6e1cce,MOC Bomonti,41.055935411248804,28.98141652530585,Coffee Shop
41.05465992,28.98130737114024,666.6666666666666,4e476e8cae60fa7233020288,Üstün Palmiye Pastanesi,41.05172523809894,28.982092964788986,Bakery
41.05465992,28.98130737114024,666.6666666666666,569e2e89498ed4580b3107f6,Burç Döner,41.051683192066726,28.98218168645587,Doner Restaurant
41.05465992,28.98130737114024,666.6666666666666,5e0f6f15f6428c00087c8269,Blok Mekan,41.057247,28.981511,Bar
41.05465992,28.98130737114024,666.6666666666666,5b539845835c9a00395fe597,bypolatbarbecue,41.05156303944375,28.982294350862507,BBQ Joint
41.05465992,28.98130737114024,666.6666666666666,4e94b6119adf645ac38b8f48,Balık Dünyası,41.05280943251529,28.97994954148707,Fish Market
41.05465992,28.98130737114024,666.6666666666666,597b17148fb09e05edaa123a,Divan Gourmet,41.05611964663639,28.979249267257458,Restaurant
41.05465992,28.98130737114024,666.6666666666666,4d970f0b942ba09387fb618c,Elysium Eczanesi,41.05497311691005,28.981935588743674,Pharmacy
41.05465992,28.98130737114024,666.6666666666666,52ab2b7311d2d465f5e62f32,Petifür,41.05205167850855,28.981446811524144,Dessert Shop
