search_spot_lat,search_spot_lon,search_radius,id,Name,Latitude,Longitude,Category
34.733580399999994,135.5447644,666.6666666666666,573e63e8498e6979e36b0175,ライフ 旭大宮店,34.72905012769804,135.54768882026715,Supermarket
34.733580399999994,135.5447644,666.6666666666666,4de18f71fa7651589eea69f3,FamilyMart (ファミリーマート 大阪工大前店),34.72893036415703,135.54433610551752,Convenience Store
34.733580399999994,135.5447644,666.6666666666666,56cfa889cd107b385881abd8,Lawson (ローソン 大宮四丁目店),34.72858618240019,135.54532126504637,Convenience Store
34.733580399999994,135.5447644,666.6666666666666,53bebc05498e7bb35d4d1b73,FamilyMart (ファミリーマート 大宮五丁目店),34.72945515201538,135.5494922158096,Convenience Store
34.733580399999994,135.5447644,666.6666666666666,4d5cec2c9ac9a093ad857594,喫茶店 YAMA,34.729894248222784,135.5443161333824,Japanese Restaurant
34.733580399999994,135.5447644,666.6666666666666,4f1246461081cbea050dd86b,The Indoor Game (ザ・インドアゲーム),34.729539,135.544297,Arcade
34.733580399999994,135.5447644,666.6666666666666,532273f8498e22353391b73a,フレッシュバーガー M,34.72926527166527,135.54468470318616,Burger Joint
34.733580399999994,135.5447644,666.6666666666666,57d3f370498ec65fdb395a23,ネパールラーメン　金星,34.72908,135.54414,North Indian Restaurant
34.733580399999994,135.5447644,666.6666666666666,4cf0841c1c158cfa3acacab5,よってこや 城北工大前店,34.72884531217835,135.54455226533082,Ramen Restaurant
34.733580399999994,135.5447644,666.6666666666666,517c82d5e4b019c93aaba05e,大宮小学校前交差点,34.72905877262334,135.54701136659617,Intersection
34.733580399999994,135.5447644,666.6666666666666,5282062111d293929e956a8d,中国料理 風来坊,34.728689,135.544015,Chinese Restaurant
34.733580399999994,135.5447644,666.6666666666666,505679e0e4b01ef822e2bc95,中宮バス停,34.72872742583477,135.54360947987095,Bus Stop
34.733580399999994,135.5447644,666.6666666666666,4e70600e62e14d9f1384bdc0,大宮小学校前バス停,34.729140289279975,135.54740982589715,Bus Stop
34.733580399999994,135.5447644,666.6666666666666,4fcca48ae4b09d0295c16389,ニューみよし湯,34.728279437290134,135.54547338196917,Bath House
34.733580399999994,135.5447644,666.6666666666666,4b7376e2f964a520d7af2de3,力餅,34.72844003056769,135.5426162481308,Udon Restaurant
34.733580399999994,135.5447644,666.6666666666666,55974ccf498ea6e88588d765,クリーニング フタバ 大宮店,34.729214510093804,135.5494072588583,Dry Cleaner
34.733580399999994,135.5447644,666.6666666666666,4daf5b1504373a986f54369b,豊里中央公園,34.73947447975067,135.5435697883585,Park
34.7380764,135.53744433759502,666.6666666666666,4c57efd430d82d7ff3d9da62,Lawson (ローソン 豊里六丁目店),34.73903372,135.5392528,Convenience Store
34.7380764,135.53744433759502,666.6666666666666,4b5a856ff964a52083c928e3,コーナンPRO 東淀川菅原店,34.73704557561207,135.53175330162048,Furniture / Home Store
34.7380764,135.53744433759502,666.6666666666666,4d5b3748b815b60c2b3b4916,Lawson (ローソン 豊里二丁目店),34.7408014,135.5367422,Convenience Store
34.7380764,135.53744433759502,666.6666666666666,4c35874716adc92856f3c69c,コーナン 東淀川菅原店,34.73859925043275,135.5302929658534,Furniture / Home Store
34.7380764,135.53744433759502,666.6666666666666,4e3618ad1838f85189ae5c5e,FamilyMart (ファミリーマート 豊里店),34.7410715812415,135.533699646268,Convenience Store
34.7380764,135.53744433759502,666.6666666666666,5cb6ccba7564f7002c3fb084,7-Eleven (セブンイレブン 大阪菅原2丁目店),34.73927,135.53218,Convenience Store
34.7380764,135.53744433759502,666.6666666666666,51373b6be4b053957f4bfbcf,7-Eleven (セブンイレブン 大阪豊里6丁目店),34.742629677953616,135.53572431959253,Convenience Store
34.7380764,135.53744433759502,666.6666666666666,56dbe9ebcd102abc3298e204,Ministop (ミニストップ 東淀川豊里4丁目店),34.74011131985389,135.54177717572998,Convenience Store
34.7380764,135.53744433759502,666.6666666666666,4b62f475f964a520985a2ae3,フォルクス 上新庄店,34.74132079948917,135.53345316559663,Steakhouse
34.7380764,135.53744433759502,666.6666666666666,4f1a25a6e4b09189786d48ce,ファウンテン,34.73896652882123,135.539081034414,Restaurant
34.7380764,135.53744433759502,666.6666666666666,4dd521fb18505a50d998cbcb,北淀公園,34.738857361500635,135.53450402246523,Park
34.7380764,135.53744433759502,666.6666666666666,4c4c0e90959220a12fbf7110,くら寿司 菅原店,34.73963520659126,135.53107408139593,Sushi Restaurant
34.7380764,135.53744433759502,666.6666666666666,4e3557b0483bf3839a2d60dc,酒一番 菅原店,34.73856043554331,135.53284123341962,Liquor Store
34.7380764,135.53744433759502,666.6666666666666,4dce7733d22deadedd5214cd,豊里バッティングセンター,34.739021,135.532577,Gym
34.7380764,135.53744433759502,666.6666666666666,4b9c323af964a520c15336e3,McDonald's (マクドナルド),34.74384,135.536372,Fast Food Restaurant
34.7380764,135.53744433759502,666.6666666666666,4bdbdce063c5c9b6a4e02968,宮脇書店 東淀川店,34.742135178204784,135.53468120595335,Bookstore
34.7380764,135.53744433759502,666.6666666666666,5cb16c9b81a0ea002c6544cd,キリン堂東淀川豊新店,34.741057,135.532817,Drugstore
34.7380764,135.53744433759502,666.6666666666666,5381a728498e7fa5d020fb3f,吉鳥 豊里店,34.73977300735379,135.53159302869352,Sake Bar
34.7380764,135.53744433759502,666.6666666666666,4f431c5fe4b043515254b9ef,菅原2交差点,34.73974817247396,135.53156078768131,Intersection
34.7380764,135.53744433759502,666.6666666666666,54677f67498e6a5dab72e8bf,麺や 鬼徹,34.74289629469647,135.53497385161293,Noodle House
34.7380764,135.53744433759502,666.6666666666666,4bc00886461576b0bdb67932,スーパー玉出 東淀川店,34.740015,135.530701,Supermarket
34.733580399999994,135.53012427519002,666.6666666666666,58a2cd97b3cdc8794d01055e,ウエルシア 東淀川東淡路店,34.73544973791031,135.52358865737915,Drugstore
34.733580399999994,135.53012427519002,666.6666666666666,4d341c9d5c2db60c58d1d06c,松屋 東淀川菅原店,34.738504067442435,135.52719735137254,Donburi Restaurant
34.733580399999994,135.53012427519002,666.6666666666666,503ad64be4b0486977a62cab,FamilyMart (ファミリーマート 菅原二丁目店),34.73782576400725,135.52793231606483,Convenience Store
34.733580399999994,135.53012427519002,666.6666666666666,4e8011c14690084c2eaae3e3,Lawson Store 100 (ローソンストア100 東淀川菅原店),34.73835600071305,135.52578509325406,Convenience Store
34.733580399999994,135.53012427519002,666.6666666666666,4ffe57d5e4b0a95e0b75bce8,7-Eleven (セブンイレブン 大阪菅原1丁目店),34.73825243348278,135.52671923576293,Convenience Store
34.733580399999994,135.53012427519002,666.6666666666666,58cf9d7eec980f5dbb5c0407,7-Eleven (セブンイレブン 大阪東淡路1丁目店),34.73572947474665,135.52361565525962,Convenience Store
34.733580399999994,135.53012427519002,666.6666666666666,4bdfa046e75c0f4785f2cb03,麺や 輝 本店,34.73882087580486,135.52806548472162,Ramen Restaurant
34.733580399999994,135.53012427519002,666.6666666666666,5d774a22863de600076c08fe,ローソン 東淀川豊里一丁目店,34.73679,135.5362,Convenience Store
34.7380764,135.52280421278505,666.6666666666666,4bcab57068f976b04df65f83,スシロー 東淀川2号店,34.74169388271854,135.52499406076154,Sushi Restaurant
34.7380764,135.52280421278505,666.6666666666666,56a08c8d498e8525b5c8c817,セリア 東淡路店,34.73735205283156,135.52160883085514,Discount Store
34.7380764,135.52280421278505,666.6666666666666,5632b764498e0e665f065e20,ライフ 東淡路店,34.737195042761705,135.5220913544516,Supermarket
34.7380764,135.52280421278505,666.6666666666666,4c21f1c111de20a1f1ff83ce,麺や輝 淡路店,34.73959569592916,135.51616422963698,Ramen Restaurant
34.7380764,135.52280421278505,666.6666666666666,564fbea0498ef79f1e573fc2,エディオン 東淡路店,34.737381966813146,135.52174563228505,Electronics Store
34.7380764,135.52280421278505,666.6666666666666,4de064997d8b84d5dc6c28c9,餃子の王将 淡路西口店,34.73958357280155,135.5160943634179,Chinese Restaurant
34.7380764,135.52280421278505,666.6666666666666,555b1a29498e8d411132295e,世界が麺で満ちる時,34.73967658418622,135.51578254228625,Ramen Restaurant
34.7380764,135.52280421278505,666.6666666666666,5c70bd5cd48ec1002c31e578,JR-Awaji Station (JR淡路駅),34.74078257915495,135.51943512692878,Train Station
34.7380764,135.52280421278505,666.6666666666666,50695841e4b0d7d96c9d6ad7,FamilyMart (ファミリーマート 菅原七丁目店),34.74072595256369,135.52450415608328,Convenience Store
34.7380764,135.52280421278505,666.6666666666666,547ac832498e1e48fdcb408c,Lawson (ローソン 東淡路五丁目店),34.73789896374976,135.5220155190143,Convenience Store
34.7380764,135.52280421278505,666.6666666666666,4e2255511f6effe84f7b61cb,Lawson (ローソン 東淡路店),34.7353758362886,135.52081839079,Convenience Store
34.7380764,135.52280421278505,666.6666666666666,4d149d59401db60c959ad9a4,Lawson (ローソン 菅原六丁目店),34.741357868107464,135.52046587190551,Convenience Store
34.7380764,135.52280421278505,666.6666666666666,5a01aca6e65d0c19c3f09f7a,FamilyMart (ファミリーマート 菅原北公園前店),34.74266051919956,135.52435912191868,Convenience Store
34.7380764,135.52280421278505,666.6666666666666,544d38af498e45ba30044f17,7-Eleven (セブンイレブン 阪急淡路駅東口店),34.73901440104636,135.51771479867318,Convenience Store
34.7380764,135.52280421278505,666.6666666666666,5a955cba3abcaf4fc9a52228,Lawson (ローソン 阪急淡路駅前通店),34.73846284762027,135.51717951893806,Convenience Store
34.7380764,135.52280421278505,666.6666666666666,4c6a3589897b1b8d314cb117,Sukiya (すき家 阪急淡路西口店),34.73977494779963,135.51661273839494,Donburi Restaurant
34.7380764,135.52280421278505,666.6666666666666,4b7fd25ef964a5204b3f30e3,ラウンドワン 東淀川店,34.742743217632054,135.52550861718387,Bowling Alley
34.7380764,135.52280421278505,666.6666666666666,54eab8a4498e3c879d584f92,7-Eleven (セブンイレブン 阪急淡路駅西口店),34.738852889353126,135.51622072307964,Convenience Store
34.7380764,135.52280421278505,666.6666666666666,4c32ac1166e40f47b0efc68b,大阪王将 淡路店,34.740385940000415,135.51655652799377,Chinese Restaurant
34.7380764,135.52280421278505,666.6666666666666,4b7b26b2f964a5206a542fe3,Lawson (ローソン 新豊新店),34.7414468397933,135.52793323680532,Convenience Store
34.7380764,135.52280421278505,666.6666666666666,4fe1119fe4b069d9a2238ed8,デイリーヤマザキ 東淡路1丁目店,34.734483,135.518195,Convenience Store
34.7380764,135.52280421278505,666.6666666666666,50459382e4b0e4fd7f9f7a7e,菅原1交差点,34.737591,135.523472,Intersection
34.7380764,135.52280421278505,666.6666666666666,5013cd06e4b037378cc2fbbe,焼肉五苑 淡路店,34.7386131789252,135.5238420034939,BBQ Joint
34.7380764,135.52280421278505,666.6666666666666,55e04ce1498e302ff159a750,菅原バス停,34.739595,135.524142,Bus Stop
34.7380764,135.52280421278505,666.6666666666666,4c39aed90a71c9b62adf42c9,Tenkaippin (天下一品 淡路店),34.74106063130223,135.52480331223953,Ramen Restaurant
34.7380764,135.52280421278505,666.6666666666666,4b5d8f8cf964a520896129e3,Awaji Station (HK63) (淡路駅),34.73938303962959,135.51700709725435,Train Station
34.7380764,135.52280421278505,666.6666666666666,4b6b9f4cf964a520f9122ce3,McDonald’s (マクドナルド),34.7396698102479,135.51686838269234,Fast Food Restaurant
34.7380764,135.52280421278505,666.6666666666666,4b75c1b3f964a5206d222ee3,Sukiya (すき家 菅原店),34.74152957348226,135.52497666953192,Donburi Restaurant
34.7380764,135.52280421278505,666.6666666666666,4b98adb2f964a520274b35e3,東淡路一丁目バス停,34.73515036601127,135.5223637888542,Bus Stop
34.7380764,135.52280421278505,666.6666666666666,4c994bec78ffa0936ddc6275,東淀川スポーツセンター,34.73574948516862,135.51960181626114,Athletics & Sports
34.7380764,135.52280421278505,666.6666666666666,4d8724745e70224bcd3b4309,Everle (エバーレ),34.73576266249994,135.51958894803195,Shopping Mall
34.7380764,135.52280421278505,666.6666666666666,4dfff50ed1648b6167493559,東淀川屋内プール,34.735753372301176,135.5195870164344,Gym Pool
34.7380764,135.52280421278505,666.6666666666666,4bbf639730c99c749e195511,スーパーニッコー 淡路店,34.735760692504684,135.51957253045538,Grocery Store
34.7380764,135.52280421278505,666.6666666666666,56b5610d498e18dc05a9004a,フェニックスの涙,34.74133802470051,135.5249493741809,Ramen Restaurant
34.7380764,135.52280421278505,666.6666666666666,4ca6d42f97c8a1cd8b9574a5,McDonald's (マクドナルド),34.74272684653971,135.52545145154,Fast Food Restaurant
34.7380764,135.52280421278505,666.6666666666666,4bcab8ce3740b71383626165,やまや東淀川菅原店,34.740769,135.526886,Liquor Store
34.7380764,135.52280421278505,666.6666666666666,4ddb9ef9d164b4610a6436e7,東淡路商店街,34.73913,135.517708,Shopping Mall
34.7380764,135.52280421278505,666.6666666666666,4ca696dcd971b1f713f901e1,ナマステカフェ,34.742056864551294,135.52561960655387,Indian Restaurant
34.7380764,135.52280421278505,666.6666666666666,52f99db211d26e3238080b75,旨いもん処 中房屋,34.74234,135.525258,Sake Bar
34.7380764,135.52280421278505,666.6666666666666,529d91e111d28099836cdcc0,Platforms 4-5 (4-5号線ホーム),34.73933730102425,135.51702696383325,Platform
34.7380764,135.52280421278505,666.6666666666666,5a0001fca0215b3eb96dc035,エニタイム フィットネス 高槻店,34.740905,135.517889,Gym / Fitness Center
34.7380764,135.52280421278505,666.6666666666666,50dd1f07e4b0f6af4e1c939c,豊新二丁目バス停,34.74253210297731,135.525571604186,Bus Stop
34.7380764,135.52280421278505,666.6666666666666,4d2a7573342d6dcb30150dcb,淡路本町商店街,34.741094,135.516842,Shopping Mall
34.7380764,135.52280421278505,666.6666666666666,4d16de54302da1cdde2bb893,HONDA DREAM 東淀川,34.742596080408795,135.525640330364,Motorcycle Shop
34.7380764,135.52280421278505,666.6666666666666,5a97d01cb54618048051b8b4,セカンドストリート 東淀川店,34.741284,135.528395,Thrift / Vintage Store
34.7380764,135.52280421278505,666.6666666666666,4ca96d4cb0b8236a6c68bde6,ゲオ 東淀川店,34.7412629,135.528507,Bookstore
34.7380764,135.52280421278505,666.6666666666666,510e24bbe4b0898fb62596ec,昭和湯,34.740519281505364,135.51656663417816,Spa
34.733580399999994,135.51548415038008,666.6666666666666,4d469a9ebbb1a143b5505e72,ライフ 崇禅寺店,34.73276171880907,135.51110426511673,Supermarket
34.733580399999994,135.51548415038008,666.6666666666666,58a1e4f89b615c0bda700429,Lawson (ローソン 阪急崇禅寺駅前店),34.730502457525006,135.5092870690989,Convenience Store
34.733580399999994,135.51548415038008,666.6666666666666,4e296485149554c77442cd86,鳥貴族 淡路店,34.739498056656494,135.51569888671003,Sake Bar
34.733580399999994,135.51548415038008,666.6666666666666,4dfc3e69c65b31579b2dd8f2,くにじまスポーツ,34.73234264120793,135.51535096070202,Outdoors & Recreation
34.733580399999994,135.51548415038008,666.6666666666666,4dbbbef9fa8cee72733a195c,東淡路南公園,34.7362331732309,135.5170402812302,Playground
34.733580399999994,135.51548415038008,666.6666666666666,54d4cd03498eadf3928ed122,崇禅寺駅 地下改札口(河原町方面),34.731342,135.51055,Train Station
34.733580399999994,135.51548415038008,666.6666666666666,4e93e32ca17cee456fc42d6d,阪急オアシス 淡路店,34.738215,135.517101,Grocery Store
34.733580399999994,135.51548415038008,666.6666666666666,5212ffb811d286599cd7a3e6,ROYAL (レストランロイヤル),34.729956,135.511486,Restaurant
34.733580399999994,135.51548415038008,666.6666666666666,4da431e922a5f04d14cc3255,Sozenji Station (HK62) (崇禅寺駅),34.731124415167045,135.51026315877567,Train Station
34.733580399999994,135.51548415038008,666.6666666666666,58395a4504f4d70f945e8d4a,お食事処 かわ,34.738641,135.51721,Teishoku Restaurant
34.733580399999994,135.51548415038008,666.6666666666666,54d4ccd7498e306b99c2acb1,崇禅寺駅 東改札口(梅田方面),34.7306204161039,135.50978546816145,Train Station
34.733580399999994,135.51548415038008,666.6666666666666,57a2c0a3498e1926f5643776,満マル 淡路店,34.739039997120514,135.5175288315734,Sake Bar
34.733580399999994,135.51548415038008,666.6666666666666,529d922011d228cb0357ae81,Platforms 2-3 (2-3号線ホーム),34.73934455708493,135.51691949574675,Platform
34.7380764,135.5081640879751,666.6666666666666,4de8de17227148fcea398ffc,とりや 圓,34.740846838166625,135.50425367304413,Yakitori Restaurant
34.7380764,135.5081640879751,666.6666666666666,4ebba15a6c25b8c5fa105796,新大阪サンプラザホテル,34.74018962664264,135.50340588168234,Hotel
34.7380764,135.5081640879751,666.6666666666666,5b3e3d6135d3fc002c560cb8,7-Eleven (セブンイレブン JR東淀川駅西口店),34.739928,135.502449,Convenience Store
34.7380764,135.5081640879751,666.6666666666666,4c024d399a7920a11a3fce79,Lawson Store 100 (ローソンストア100 東淀川駅前店),34.73970249035059,135.50621215875066,Convenience Store
34.7380764,135.5081640879751,666.6666666666666,4b5a524bf964a5200cbd28e3,Higashi-Yodogawa Station (東淀川駅),34.73982607368667,135.50425574046906,Train Station
34.7380764,135.5081640879751,666.6666666666666,4b88ed63f964a520d41332e3,Lawson (ローソン 東淀川店),34.73983161,135.5060792,Convenience Store
34.7380764,135.5081640879751,666.6666666666666,56bdb235498e7e5fc6c2db41,7-Eleven (セブンイレブン 大阪東淀川駅前店),34.73979042441027,135.5049797240516,Convenience Store
34.7380764,135.5081640879751,666.6666666666666,5455ee04498ec939e6399574,隆勝,34.74032639372237,135.50355364897294,Noodle House
34.7380764,135.5081640879751,666.6666666666666,4ea3cea86da1455caceffc7b,Lawson Store 100 (ローソンストア100 東淀川淡路店),34.7403028270467,135.51355226049,Convenience Store
34.7380764,135.5081640879751,666.6666666666666,52b2dada498ed6ebda220735,FamilyMart (ファミリーマート 東淀川駅北店),34.740843367644565,135.504001857253,Convenience Store
34.7380764,135.5081640879751,666.6666666666666,4d6a66c5fd7ea35d5671b14a,東横イン新大阪駅東口,34.737184766984605,135.50588947127747,Bed & Breakfast
34.7380764,135.5081640879751,666.6666666666666,4b980c45f964a520b32835e3,FamilyMart (ファミリーマート 東淀川駅前店),34.7392563326673,135.503273085834,Convenience Store
34.7380764,135.5081640879751,666.6666666666666,50f52197e4b046fbc6016e65,マツモトキヨシ キリンド淡路店,34.74027065588412,135.51457284523212,Drugstore
34.7380764,135.5081640879751,666.6666666666666,4eeaa1c319835bc6eede1a47,Lawson (ローソン 新大阪東店),34.732971497906945,135.50519790881995,Convenience Store
34.7380764,135.5081640879751,666.6666666666666,57f00235498ef073c4593f4b,7-Eleven (セブンイレブン 大阪西淡路5丁目店),34.7421943655699,135.5133633336601,Convenience Store
34.7380764,135.5081640879751,666.6666666666666,4bf5246f94af2d7fba513b72,FamilyMart (ファミリーマート 新大阪駅東口店),34.73421771987178,135.50455673773115,Convenience Store
34.7380764,135.5081640879751,666.6666666666666,4dbea10e1e72b351cae4ce46,ステップイン新大阪東口 Step-In,34.73549724449375,135.5041681599888,Hotel
34.7380764,135.5081640879751,666.6666666666666,4bd2c4c477b29c74b5568f82,大阪コロナホテル,34.73548886275289,135.5043974518776,Hotel
34.7380764,135.5081640879751,666.6666666666666,4da0418e5970b1f78f68551e,日之出南公園,34.73477786228332,135.50539523363113,Park
34.7380764,135.5081640879751,666.6666666666666,4b90c686f964a520079733e3,庄平うどん,34.740072207491245,135.50373735182714,Noodle House
34.7380764,135.5081640879751,666.6666666666666,4ddb36377d8b16381776b5fd,須賀森公園,34.74229,135.507075,Park
34.7380764,135.5081640879751,666.6666666666666,4d2ad78b915fa093f00d120a,しっぽや,34.741171687134134,135.50449132919312,Japanese Restaurant
34.7380764,135.5081640879751,666.6666666666666,52580ced11d20e88e5fe71bd,養老乃瀧 東淀川店,34.74041002646218,135.50373121419972,Sake Bar
34.7380764,135.5081640879751,666.6666666666666,5066fe34e4b062f08ed7034a,日之出温泉,34.742547,135.507834,Spa
34.7380764,135.5081640879751,666.6666666666666,4ec0abe377c885a64ed3f1ff,スマイル,34.73969093502289,135.5026990595022,Grocery Store
34.7380764,135.5081640879751,666.6666666666666,56d781ab498e650085c02ba8,FamilyMart (ファミリーマート スバルJR新大阪駅前店),34.7339638283375,135.503308711825,Convenience Store
34.7380764,135.5081640879751,666.6666666666666,560b505c498ebc3a831d9cb7,関西旨味酒場 ITTOKU,34.734213,135.50402,Sake Bar
34.7380764,135.5081640879751,666.6666666666666,4c4eb0339efabe9aceef7b6a,さくら水産 新大阪東口店,34.73413223117117,135.50389443795243,Sake Bar
34.7380764,135.5081640879751,666.6666666666666,4ec3a797775b92bf9ce508ea,家族庵 淡路店,34.74027340759536,135.5142735734776,Japanese Restaurant
34.7380764,135.5081640879751,666.6666666666666,4f8d1c2ce4b041ba4496406c,クロスウイング 大阪店,34.73389176245659,135.5038186738359,Hobby Shop
34.7380764,135.5081640879751,666.6666666666666,4c9333b81221b1f726f617e2,OPPiDOM,34.73813954589744,135.50137907131318,Music Venue
34.7380764,135.5081640879751,666.6666666666666,4d6dd75aac516a31648ff7d5,淡路東宝映画館１,34.74020078697469,135.51492736961973,Movie Theater
34.733580399999994,135.5008440255701,666.6666666666666,4c6cd8f2a437224bfb8e2bb1,Rikuro's (りくろーおじさんの店),34.73429733767244,135.5015167593956,Dessert Shop
34.733580399999994,135.5008440255701,666.6666666666666,50697bb9e4b01301ed561340,Juicer Bar,34.73353414195648,135.50036666255943,Juice Bar
34.733580399999994,135.5008440255701,666.6666666666666,5690b4e3498ed48be57eccc5,Dashi-chazuke En (だし茶漬け えん),34.73419729992751,135.50184298068194,Japanese Restaurant
34.733580399999994,135.5008440255701,666.6666666666666,57392ffccd10b91a6801f7bf,魚屋スタンド ふじ,34.733620684283835,135.4987866228859,Sake Bar
34.733580399999994,135.5008440255701,666.6666666666666,4bd112f8caff9521a53ad0f0,Moja Curry (モジャカレー),34.732818470325775,135.49990967198332,Japanese Curry Restaurant
34.733580399999994,135.5008440255701,666.6666666666666,4e8d03d6b63445c4a508a97f,Negiyaki Yamamoto (ねぎ焼やまもと),34.73343013940874,135.5004298838665,Okonomiyaki Restaurant
34.733580399999994,135.5008440255701,666.6666666666666,4bd6890c637ba5935962f870,551 Horai (551蓬莱),34.73434872418196,135.50152480602264,Dim Sum Restaurant
34.733580399999994,135.5008440255701,666.6666666666666,4b7f6f80f964a520862e30e3,大阪焼肉 松屋 新大阪店,34.73308178122905,135.49986271782365,BBQ Joint
34.733580399999994,135.5008440255701,666.6666666666666,4ba9aafaf964a5208a333ae3,浪花そば,34.73405272309528,135.5020284619487,Soba Restaurant
34.733580399999994,135.5008440255701,666.6666666666666,50850de5e4b0607cea7267c8,551 Horai (551蓬莱),34.7335836,135.501561,Dim Sum Restaurant
34.733580399999994,135.5008440255701,666.6666666666666,4c3e96261ef0d13a45989280,Isoichi (磯一),34.733419465609465,135.49680780924555,Japanese Restaurant
34.733580399999994,135.5008440255701,666.6666666666666,550a0d1d498e59039cc7cc24,Starbucks,34.73417482778962,135.50168448422073,Coffee Shop
34.733580399999994,135.5008440255701,666.6666666666666,4e7e8f6a8231adf35cef4b48,やす田,34.732952,135.50401,Ramen Restaurant
34.733580399999994,135.5008440255701,666.6666666666666,54f91bc0498e902e45c7dbb3,VIA BEER OSAKA,34.73429877157381,135.50205793280503,Gastropub
34.733580399999994,135.5008440255701,666.6666666666666,4cef8a797b943704d1583353,Dotonbori Kukuru (道頓堀くくる),34.7333872635208,135.5004020022822,Takoyaki Place
34.733580399999994,135.5008440255701,666.6666666666666,5ac47eca3af9887522be1397,Wanaka (たこ焼道楽 わなか),34.733243287232945,135.50050020217896,Takoyaki Place
34.733580399999994,135.5008440255701,666.6666666666666,4b947e23f964a520507b34e3,そじ坊,34.73265075761976,135.49994491197882,Soba Restaurant
34.733580399999994,135.5008440255701,666.6666666666666,4b6e64abf964a5208abb2ce3,Starbucks,34.734292316060746,135.4967143804605,Coffee Shop
34.733580399999994,135.5008440255701,666.6666666666666,4b9a0d6cf964a520ad9c35e3,Takomasa (たこ昌 新大阪駅店),34.73311953761542,135.50044111535476,Takoyaki Place
34.733580399999994,135.5008440255701,666.6666666666666,59698cc2c876c8583234ab66,DEAN & DELUCA,34.7326167194454,135.49871385097504,Café
34.733580399999994,135.5008440255701,666.6666666666666,50697f50e4b04cedfd587b9d,たこ家 道頓堀くくる,34.73333520031102,135.500390032775,Takoyaki Place
34.733580399999994,135.5008440255701,666.6666666666666,506064e3498efd4a9c566995,Remm Shin-Osaka (レム新大阪),34.733007321367836,135.49964061679879,Hotel
34.733580399999994,135.5008440255701,666.6666666666666,55162afa498e626740dd9bc2,Hokkyokusei (北極星),34.734255776188334,135.50161395752764,Yoshoku Restaurant
34.733580399999994,135.5008440255701,666.6666666666666,5a82736335f983055ea018ec,ダイキンエアコン,34.731293,135.49855,Exhibit
34.733580399999994,135.5008440255701,666.6666666666666,56fbd89b498e48513f847978,Seijo Ishii (成城石井),34.733630371285265,135.498703796001,Grocery Store
34.733580399999994,135.5008440255701,666.6666666666666,55ea96d5498ed2272f445945,Kushikatsu Daruma (串かつだるま),34.732896744262604,135.49990779829514,Kushikatsu Restaurant
34.733580399999994,135.5008440255701,666.6666666666666,5036130fe4b0573430eb5205,Kyo-Chabana (京ちゃばな 新大阪店),34.73377232303535,135.4990642977318,Okonomiyaki Restaurant
34.733580399999994,135.5008440255701,666.6666666666666,4f410be67716e5cd5e85790a,麺家 新大阪上り店,34.733311419953765,135.50145404481313,Udon Restaurant
34.733580399999994,135.5008440255701,666.6666666666666,5a7d85a89de23b09d80ed25b,Yayoi (やよい軒),34.731829232173425,135.4979681968689,Teishoku Restaurant
34.733580399999994,135.5008440255701,666.6666666666666,541d2821498ed2c3365199d5,Shinkansen Shin-Ōsaka Station (東海道・山陽新幹線 新大阪駅),34.73362298957226,135.50070244925982,Train Station
34.733580399999994,135.5008440255701,666.6666666666666,4ba2ec57f964a520d32238e3,めっせ熊,34.73274975245067,135.5000283110047,Okonomiyaki Restaurant
34.733580399999994,135.5008440255701,666.6666666666666,4ba981d5f964a520512b3ae3,Sojibo (そじ坊),34.73399133753479,135.496961350748,Soba Restaurant
34.733580399999994,135.5008440255701,666.6666666666666,535ad82111d2c8ebb490aefb,Starbucks,34.733224,135.500005,Coffee Shop
34.733580399999994,135.5008440255701,666.6666666666666,4e017e34c65b896d116dceb1,蕎麦と地鶏串焼 弦,34.73263043725177,135.50034264769948,Japanese Restaurant
34.733580399999994,135.5008440255701,666.6666666666666,550514db498ead60ce63f8ad,JIM BEAM BAR,34.73408097455215,135.50189009709638,Whisky Bar
34.733580399999994,135.5008440255701,666.6666666666666,4bbb470a98c7ef3be7ec3302,MOS Burger (モスバーガー),34.73398831059716,135.497218083631,Fast Food Restaurant
34.733580399999994,135.5008440255701,666.6666666666666,54f84068498e4f2e2d73cc5b,Kamukura (どうとんぼり神座),34.73408521091794,135.5020281283371,Ramen Restaurant
34.733580399999994,135.5008440255701,666.6666666666666,4b6180a5f964a520e2152ae3,JR Shin-Ōsaka Station (JR 新大阪駅),34.73391440757438,135.50179793746352,Train Station
34.733580399999994,135.5008440255701,666.6666666666666,50382bbce4b0461c0136218c,Tully's Coffee (タリーズコーヒー 新大阪阪急ビル店),34.73376752845231,135.499171071131,Coffee Shop
34.733580399999994,135.5008440255701,666.6666666666666,56053617498e9b7272e6c9e8,Grill Capital Touyoutei (グリルキャピタル東洋亭),34.73319741072894,135.50004690885544,Yoshoku Restaurant
34.733580399999994,135.5008440255701,666.6666666666666,4e506fb3a80997aa8a4898ac,Starbucks,34.73364305078178,135.50030555919804,Coffee Shop
34.733580399999994,135.5008440255701,666.6666666666666,4b581906f964a520cf4a28e3,Shin-Osaka Station (新大阪駅),34.733484,135.500161,Train Station
34.733580399999994,135.5008440255701,666.6666666666666,4e912a5c550342b5a485287a,Matsuya (松屋 新大阪東口店),34.733997196250556,135.50281867952594,Donburi Restaurant
34.733580399999994,135.5008440255701,666.6666666666666,4b6a98bef964a520c2d92be3,Courtyard by Marriott Shin-Osaka Station (コートヤード・バイ・マリオット新大阪ステーション),34.7341754639983,135.49917611904903,Hotel
34.733580399999994,135.5008440255701,666.6666666666666,4fd15227e4b0ebfb5079a968,情熱うどん讃州 新大阪店,34.73781138989031,135.498086961862,Udon Restaurant
34.733580399999994,135.5008440255701,666.6666666666666,4c7a23a0794e224bd8d16728,魚居酒屋 すなおや 新大阪店,34.73049542828116,135.49518090223708,Japanese Restaurant
34.733580399999994,135.5008440255701,666.6666666666666,500603ade4b0d9eeb56f0c5b,FamilyMart (ファミリーマート 西中島七丁目店),34.73151327571009,135.49815766700866,Convenience Store
34.733580399999994,135.5008440255701,666.6666666666666,4bb0413cf964a520813e3ce3,551 Horai (551蓬莱),34.73298188782306,135.50014331540606,Dim Sum Restaurant
34.733580399999994,135.5008440255701,666.6666666666666,5086c05180555b690cf97e7e,551 Horai (551蓬莱),34.733146403853624,135.4997312604729,Chinese Restaurant
34.733580399999994,135.5008440255701,666.6666666666666,5bec55cf1fa763551760f70a,Maru de Sankaku (鯛白湯らーめん ◯de▽),34.732699328178875,135.49408796644673,Ramen Restaurant
34.733580399999994,135.5008440255701,666.6666666666666,5658edde498eeeceddd27e2f,Dining & Bar Lavarock,34.73426965650453,135.49894342629057,Bar
34.733580399999994,135.5008440255701,666.6666666666666,585a4abb44587f264f9b9d8e,うまい麺には福来たる 西中島店,34.72831217503897,135.50059542059898,Ramen Restaurant
34.733580399999994,135.5008440255701,666.6666666666666,54545c57498eada7ce629a3a,Ueshima Coffee House (上島珈琲店),34.735387124347305,135.49443975090978,Coffee Shop
34.733580399999994,135.5008440255701,666.6666666666666,4d463d04befe236a450307e3,キッチンオリジン 新大阪宮原店,34.73764723599434,135.4985948571227,Deli / Bodega
34.733580399999994,135.5008440255701,666.6666666666666,515e956ce4b03b9c21c52912,キャプテン翼スタジアム新大阪,34.733253215046595,135.49782576351606,Soccer Field
34.733580399999994,135.5008440255701,666.6666666666666,4b714564f964a520ce3e2de3,Tokiya (時屋),34.72811508327409,135.5011245754664,Ramen Restaurant
34.733580399999994,135.5008440255701,666.6666666666666,50934bcee4b0e34d61aef2a0,Komeda's Coffee (コメダ珈琲店),34.72965595707255,135.49913093447685,Café
34.733580399999994,135.5008440255701,666.6666666666666,4d993e83e07ea35d17680503,台湾料理 一路發（イロハ）,34.728674743786044,135.50016903006303,Taiwanese Restaurant
34.733580399999994,135.5008440255701,666.6666666666666,5ad82eb24c9be65bd9f33d08,APA Hotel Shin-Osaka-Ekiminami (アパホテル新大阪駅南),34.73046532102713,135.49676174699619,Bed & Breakfast
34.733580399999994,135.5008440255701,666.6666666666666,4d443c843616b60c4219e2c2,Mielparque Osaka (メルパルク大阪),34.7343965110699,135.49607745063724,Hotel
34.733580399999994,135.5008440255701,666.6666666666666,51074836e4b0304f01158fb3,三菱UFJ銀行 ニッセイ新大阪ビル出張所,34.73383623531133,135.49688458442688,ATM
34.733580399999994,135.5008440255701,666.6666666666666,4f862154e4b079949f5ea1fc,7-Eleven (セブンイレブン 大阪西中島7丁目店),34.72888299923473,135.49664030924822,Convenience Store
34.733580399999994,135.5008440255701,666.6666666666666,4e0ebf11fa76d62f444c2e0b,スギ薬局 新大阪宮原店,34.73745827996216,135.49661277021653,Pharmacy
34.733580399999994,135.5008440255701,666.6666666666666,4b7d22bdf964a520d0af2fe3,河童ラーメン本舗 新大阪店,34.73440051905793,135.4945938073301,Ramen Restaurant
34.733580399999994,135.5008440255701,666.6666666666666,5aa526e01acf110b0a55c117,Toyoko Inn Shin-Osaka Higashimikuni Ekimae (東横イン 新大阪東三国駅前),34.73912173686051,135.49888872611655,Bed & Breakfast
34.733580399999994,135.5008440255701,666.6666666666666,56519a93498e405c39b2041d,Torikizoku (鳥貴族 新大阪店),34.7327156,135.4949373,Sake Bar
34.733580399999994,135.5008440255701,666.6666666666666,4c723611d944224b431d0c29,Via Inn Shin-Osaka West (ヴィアイン新大阪ウエスト),34.73501400345881,135.49613152230788,Bed & Breakfast
34.733580399999994,135.5008440255701,666.6666666666666,4c3fdbc4cc410f4726e4a861,Daily Yamazaki (デイリーヤマザキ 西中島5丁目店),34.728405,135.500821,Convenience Store
34.733580399999994,135.5008440255701,666.6666666666666,4de615d5185067eb63f40375,7-Eleven (セブンイレブン 大阪宮原2丁目店),34.7391086571292,135.49894452095032,Convenience Store
34.733580399999994,135.5008440255701,666.6666666666666,4f1a008ee4b095bc443822a9,FamilyMart (ファミリーマート 宮原四丁目店),34.73767510156304,135.49809326741934,Convenience Store
34.733580399999994,135.5008440255701,666.6666666666666,4d818d922fb73704b1da7a11,FamilyMart (ファミリーマート 東中島一丁目店),34.7284234975363,135.5032736063,Convenience Store
34.733580399999994,135.5008440255701,666.6666666666666,4b613b4df964a520990d2ae3,FamilyMart (ファミリーマート 淀川宮原店),34.736768615597335,135.4988843634023,Convenience Store
34.733580399999994,135.5008440255701,666.6666666666666,4b5a6b5ef964a52000c428e3,メルパルクホール大阪,34.73441850316878,135.4961519083502,Concert Hall
34.733580399999994,135.5008440255701,666.6666666666666,4ba89ba8f964a52040e239e3,Lawson (ローソン 西中島店),34.72941437502569,135.4968778368053,Convenience Store
34.733580399999994,135.5008440255701,666.6666666666666,4c2efe71213c2d7f6227305d,7-Eleven (セブンイレブン SORA新大阪21店),34.73489647759013,135.49411922693253,Convenience Store
34.733580399999994,135.5008440255701,666.6666666666666,4c4cfed2f96ac9b6a515f498,がんこ 新大阪店,34.73490941673516,135.4961642303788,Sushi Restaurant
34.733580399999994,135.5008440255701,666.6666666666666,4d11ef4b80f6721eafe613eb,Daily Yamazaki (デイリーヤマザキ 西中島店),34.72790792068046,135.49978893025713,Convenience Store
34.733580399999994,135.5008440255701,666.6666666666666,4bfde42abf6576b0ad07aeb8,CoCo Ichibanya (CoCo壱番屋 淀川区西中島店),34.72813292483286,135.50038228394314,Japanese Curry Restaurant
34.733580399999994,135.5008440255701,666.6666666666666,4c2db275260bc9287e651ad3,Lawson (ローソン 宮原一丁目店),34.7378278373845,135.499367860118,Convenience Store
34.733580399999994,135.5008440255701,666.6666666666666,5640e4d4cd1088eedc1836d4,Lawson (ローソン 淀川宮原三丁目店),34.73267494567842,135.49486843785562,Convenience Store
34.733580399999994,135.5008440255701,666.6666666666666,4d632b13bd253704a934cac5,7-Eleven (セブンイレブン 大阪宮原4丁目店),34.737345,135.496331,Convenience Store
34.733580399999994,135.5008440255701,666.6666666666666,4ca9bf2fb7106dcb93157fa5,Sukiya (すき家 新大阪西宮原店),34.73428962795764,135.49423586897748,Donburi Restaurant
34.733580399999994,135.5008440255701,666.6666666666666,55a9c8a0498ee54a8ec6c8cf,Bistro Barvida (ビストロ　バルビダ　新大阪店),34.733771,135.496829,Bistro
34.733580399999994,135.5008440255701,666.6666666666666,4c33180016adc9280101c39c,火の音水の音 新大阪店,34.734823234774694,135.4968896756657,Japanese Restaurant
34.733580399999994,135.5008440255701,666.6666666666666,4f31f004e4b0d8fc0ac7597b,小だるま 新大阪宮原店,34.735764194036605,135.49423199601895,Kushikatsu Restaurant
34.733580399999994,135.5008440255701,666.6666666666666,524e328411d2969c86de90f2,軽食＆喫茶 ジュリアン,34.7330397089086,135.4959905934311,Café
34.733580399999994,135.5008440255701,666.6666666666666,4f61564ce4b0ee94994a5ef5,手作り居酒屋 かっぽうぎ 新大阪店,34.735108058647576,135.49613032746925,Sake Bar
34.733580399999994,135.5008440255701,666.6666666666666,5de0b8c7eee5510007ec2c64,Karaksa Hotel Grande Shin-Osaka Tower,34.733124,135.495561,Hotel
34.733580399999994,135.5008440255701,666.6666666666666,4bf28c7b82002d7f7fa6d0bb,くつろぎ庵,34.73346319710384,135.49496793367558,Japanese Restaurant
34.733580399999994,135.5008440255701,666.6666666666666,5672855c498e5c18a8d23f84,屋台居酒屋 満マル 新大阪店,34.7325908100748,135.4948295947892,Sake Bar
34.733580399999994,135.5008440255701,666.6666666666666,4c15bae3a1010f47a6864e18,めん処 なにわ家 新大阪店,34.73280351408279,135.49474821346755,Udon Restaurant
34.733580399999994,135.5008440255701,666.6666666666666,568f2f97498e96ff717c0a5a,九州熱中屋 新大阪LIVE,34.73471793462455,135.49462080001828,Sake Bar
34.733580399999994,135.5008440255701,666.6666666666666,4e1d1a5bd1640dd25203846d,特選神戸肉 けやき亭,34.72828660201425,135.50219839540367,Teishoku Restaurant
34.733580399999994,135.5008440255701,666.6666666666666,4ef2ac1f29c2e7e6d2c5dc30,中国料理 ティーパン,34.72897311216921,135.49678989299625,Chinese Restaurant
34.733580399999994,135.5008440255701,666.6666666666666,4c92ea5b1221b1f7d1fc15e2,かぶと亭,34.733288,135.493936,Japanese Restaurant
34.733580399999994,135.5008440255701,666.6666666666666,4e8a85381081c2778dbf219d,大石,34.72937469256346,135.4961496591568,Japanese Restaurant
34.733580399999994,135.5008440255701,666.6666666666666,5d3f965dcb2e4b00082d6112,ローソン 東淀川東中島二丁目店,34.72832,135.50371,Convenience Store
34.733580399999994,135.5008440255701,666.6666666666666,4deecb99636574e855d9ce06,神無月,34.728926805049696,135.4967038889024,Japanese Restaurant
34.733580399999994,135.5008440255701,666.6666666666666,514140b1e4b05feaa51f7b62,All Spice,34.72886609607131,135.49661070433254,Indian Restaurant
34.7380764,135.49352396316513,666.6666666666666,4c95e1e738dd8cfa77bbd662,にんにくラーメン幸ちゃん 本店,34.74081044436689,135.49348323303403,Ramen Restaurant
34.7380764,135.49352396316513,666.6666666666666,4bbea32e98f4952188a2d163,南蛮食堂,34.74005053471672,135.49745537680823,Diner
34.7380764,135.49352396316513,666.6666666666666,5407f255498e5b3655a83a31,ジョイフィット東三国,34.73968331336337,135.49553718000467,Recreation Center
34.7380764,135.49352396316513,666.6666666666666,4c43be6bf97fbe9a4554ba30,タコたこ,34.739968565648624,135.49864852637373,Takoyaki Place
34.7380764,135.49352396316513,666.6666666666666,4fadde20e4b09f9a2a2b6799,RASAHALA スリランカ料理,34.73975623235415,135.49684613810135,Sri Lankan Restaurant
34.7380764,135.49352396316513,666.6666666666666,4d35091dc6cba35de81c397a,熟成うどん なかや,34.73913177373984,135.49768143547533,Udon Restaurant
34.7380764,135.49352396316513,666.6666666666666,5b0d8b51b7008500245ad634,中華そば ココカラサキゑ,34.733716273464154,135.49071420232139,Ramen Restaurant
34.7380764,135.49352396316513,666.6666666666666,5a86a0e17dc9e1114ee6ba6a,ドミノ・ピザ東三国店,34.74016157136222,135.4938599067459,Pizza Place
34.7380764,135.49352396316513,666.6666666666666,54193f53498ea40426a34dcb,FamilyMart Izumiya (ファミリーマート×イズミヤ 東三国四丁目店),34.739712266978486,135.49543689479947,Convenience Store
34.7380764,135.49352396316513,666.6666666666666,4e93bd4bcc21f921aac2c5a5,7-Eleven (セブンイレブン 大阪東三国4丁目店),34.740432440651354,135.49358546733856,Convenience Store
34.7380764,135.49352396316513,666.6666666666666,4c1c4db5fcf8c9b6bdf7a90b,SPORTS DEPO (スポーツデポ 新大阪店),34.734567,135.492792,Sporting Goods Shop
34.7380764,135.49352396316513,666.6666666666666,52823f8a11d21fc581debe38,ライフ セントラルスクエア西宮原店,34.735395297016005,135.49364795558773,Supermarket
34.7380764,135.49352396316513,666.6666666666666,4b890ac2f964a520971932e3,ケンタッキーフライドチキン 東三国店,34.74161417680522,135.49818677803276,Fried Chicken Joint
34.7380764,135.49352396316513,666.6666666666666,5b7aa7cb35d3fc002cc8a320,ダイソー,34.734569,135.492714,Discount Store
34.7380764,135.49352396316513,666.6666666666666,4b80ba5af964a520c98830e3,Yoshinoya (吉野家 東三国店),34.74147,135.4977,Donburi Restaurant
34.7380764,135.49352396316513,666.6666666666666,4e68c58a8130df3ec1010f49,Lawson (ローソン 北中島公園前店),34.73862264859626,135.4953785300595,Convenience Store
34.7380764,135.49352396316513,666.6666666666666,4e5cf69bae60839ea2dddd2b,FamilyMart (ファミリーマート 大阪回生病院前店),34.735936625317294,135.498995911599,Convenience Store
34.7380764,135.49352396316513,666.6666666666666,4d2ced0239a3548100a2b320,Lawson (ローソン 新大阪センタービル店),34.73487664,135.4976812,Convenience Store
34.7380764,135.49352396316513,666.6666666666666,4b8f9c85f964a520e25933e3,Doutor Coffee Shop (ドトールコーヒーショップ),34.73392150904448,135.4972772147336,Coffee Shop
34.7380764,135.49352396316513,666.6666666666666,4e3035ca45ddcf0f5c8a5760,THE BAR,34.733974453165004,135.49319545060686,Bar
34.7380764,135.49352396316513,666.6666666666666,5816d56838fa2fdce6759a2f,餃子の王将 東三国店,34.74169335717479,135.49648086457506,Chinese Restaurant
34.7380764,135.49352396316513,666.6666666666666,539965e7498eab4891e24c9b,7-Eleven (セブンイレブン 大阪三国本町3丁目店),34.73698122622028,135.4894934179856,Convenience Store
34.7380764,135.49352396316513,666.6666666666666,5b6818c3ad910e002c210f37,セブンイレブン 大阪西宮原2丁目店,34.734753,135.49184,Convenience Store
34.7380764,135.49352396316513,666.6666666666666,5b969842cbcdee002c941436,ファミリーマート 淀川東三国店,34.742996,135.49321,Convenience Store
34.7380764,135.49352396316513,666.6666666666666,5793195a498eece3832dd162,Lawson (ローソン 淀川三国本町一丁目店),34.73335371028183,135.48949402331345,Convenience Store
34.7380764,135.49352396316513,666.6666666666666,56259136498ec722868dd329,7-Eleven (セブンイレブン 新大阪ブリックビル店),34.735530610447675,135.4997404659597,Convenience Store
34.7380764,135.49352396316513,666.6666666666666,4e0afad218388f71c35aad20,Torikizoku (鳥貴族 東三国店),34.739986,135.49893,Sake Bar
34.7380764,135.49352396316513,666.6666666666666,4e3fdcf21495bf24a5f9223e,FamilyMart (ファミリーマート 東三国六丁目店),34.743638660303965,135.49449000364007,Convenience Store
34.7380764,135.49352396316513,666.6666666666666,4dc650c4fa76d685cdf78ccd,Can Do (キャンドゥ 宮原店),34.733727962307746,135.49082628094135,Discount Store
34.7380764,135.49352396316513,666.6666666666666,4dcb6f2fc65bccd86746e133,印度のルー 新大阪店,34.737257165314446,135.49408872313677,Asian Restaurant
34.7380764,135.49352396316513,666.6666666666666,4bf282e79319a5933500cb51,肉 あじ蔵,34.73915635760165,135.49767830147437,BBQ Joint
34.7380764,135.49352396316513,666.6666666666666,5190d67c498e31e53b1e824e,Lawson (ローソン 東三国駅南口店),34.73990660209033,135.49923007284883,Convenience Store
34.7380764,135.49352396316513,666.6666666666666,5099f44fe4b0bd50d59add8e,FamilyMart (ファミリーマート 西宮原二丁目店),34.734715819457186,135.4906791495809,Convenience Store
34.7380764,135.49352396316513,666.6666666666666,4f376efce4b0156e87869c56,Ministop (ミニストップ 東三国店),34.743049116560506,135.49752629105183,Convenience Store
34.7380764,135.49352396316513,666.6666666666666,4b77a5fef964a5207ba52ee3,McDonald's (マクドナルド),34.741503,135.497604,Fast Food Restaurant
34.7380764,135.49352396316513,666.6666666666666,55dfea99498ef4c72b656b4f,らーめん小鉄,34.73973031647442,135.49670610907663,Ramen Restaurant
34.7380764,135.49352396316513,666.6666666666666,4e7ea27077c83fb829e5cf90,幸ちゃんラーメン 東三国駅前店,34.7400904099061,135.49873814820836,Ramen Restaurant
34.7380764,135.49352396316513,666.6666666666666,5ddca34a3e8b740008862b32,ローソン 淀川東三国二丁目店,34.741822,135.498843,Convenience Store
34.7380764,135.49352396316513,666.6666666666666,4bc1631074a9a5931ee3d1f6,ジョーシン 新大阪店,34.735056189173974,135.49290972335334,Electronics Store
34.7380764,135.49352396316513,666.6666666666666,4c7cd7e6247cb60c5f155f5e,カレーハウス 五番館 新大阪店,34.733592,135.491594,Japanese Curry Restaurant
34.7380764,135.49352396316513,666.6666666666666,4e8542445503b4de732193e8,Saizeriya (サイゼリヤ),34.73400286342589,135.4915054142475,Italian Restaurant
34.7380764,135.49352396316513,666.6666666666666,4e0090cd7d8beaa1649cc03d,Lawson (ローソン 西宮原店),34.73283232264618,135.49025035700387,Convenience Store
34.7380764,135.49352396316513,666.6666666666666,4b5874f3f964a520ae5828e3,新大阪センイシティー,34.735418,135.493168,Shopping Mall
34.7380764,135.49352396316513,666.6666666666666,4bcf0b2eef10952170fb8486,いさおや,34.739172221020155,135.49766160599165,Japanese Restaurant
34.7380764,135.49352396316513,666.6666666666666,4e3b636fb61cb577be5c32c1,風の街 東三国店,34.739738,135.497603,Okonomiyaki Restaurant
34.7380764,135.49352396316513,666.6666666666666,5996cf9b09e2837b2f6dfc04,炭火焼鶏　まくら二号店,34.739883,135.49797,Yakitori Restaurant
34.7380764,135.49352396316513,666.6666666666666,4e5efaf0fa768fe5f2cfa1ef,博多ラーメン げんこつ 東三国店,34.74111,135.497326,Ramen Restaurant
34.7380764,135.49352396316513,666.6666666666666,536daec6498ed80da1eb248e,松吟庵,34.74014064375738,135.49925718034189,Japanese Restaurant
34.7380764,135.49352396316513,666.6666666666666,4b8b2f1ef964a520889632e3,ショッピングプラザ新大阪,34.74038208160243,135.49956108376037,Food & Drink Shop
34.7380764,135.49352396316513,666.6666666666666,5bd31cf2a0215b002caaab39,hotel androoms Shin-Osaka (ホテル・アンドルームス新大阪),34.73249,135.49353,Hotel
34.7380764,135.49352396316513,666.6666666666666,4c96d7fd72dd224b1e09b091,スギ薬局 東三国駅前店,34.73988667809496,135.50006763019434,Pharmacy
34.7380764,135.49352396316513,666.6666666666666,50ac8443e4b0c5541c9b84a3,東三国2交差点,34.74182444298194,135.4987002573621,Intersection
34.733580399999994,135.48620390076016,666.6666666666666,4bcabd3a511f95216962b0c7,ひなたの湯,34.731660265517924,135.4896206121316,Spa
34.733580399999994,135.48620390076016,666.6666666666666,58c6320a84c4ed64ef99d529,7-Eleven (セブンイレブン 大阪三国本町2丁目店),34.73497,135.484332,Convenience Store
34.733580399999994,135.48620390076016,666.6666666666666,4c9c23ef03133704bc0053d5,回転寿司とれとれ屋 三国店,34.73567527293097,135.4817396957445,Sushi Restaurant
34.733580399999994,135.48620390076016,666.6666666666666,4d8c9a043bfef04dae986c86,三国そば,34.738533182176056,135.48362157384005,Noodle House
34.733580399999994,135.48620390076016,666.6666666666666,5ddf166204a63a000819bf37,Welcia ウエルシア (ウエルシア淀川三国本町店),34.73346982508757,135.48638574132895,Drugstore
34.733580399999994,135.48620390076016,666.6666666666666,4dbaf8ce4df044e524be5d6e,FamilyMart (ファミリーマート 新高一丁目店),34.7325445288322,135.482357740402,Convenience Store
34.733580399999994,135.48620390076016,666.6666666666666,4bb58b20f562ef3ba31b2f97,FamilyMart (ファミリーマート 三国本町二丁目店),34.733209323027815,135.4845564490738,Convenience Store
34.733580399999994,135.48620390076016,666.6666666666666,4dca151d45dd19439a02cef8,CoCo Ichibanya (CoCo壱番屋 淀川区三国本町店),34.73320822207,135.48550982061644,Japanese Curry Restaurant
34.733580399999994,135.48620390076016,666.6666666666666,4b8125c9f964a520639830e3,マックスバリュ 淀川三国店,34.733399901350765,135.4865973190516,Supermarket
34.733580399999994,135.48620390076016,666.6666666666666,4bb588561344b713b4739c04,ダイソー新大阪店,34.7334107729769,135.48844690858104,Discount Store
34.733580399999994,135.48620390076016,666.6666666666666,4cb06d1239458cfa5d7a02a0,Osaka Garden Palace Hotel (大阪ガーデンパレス),34.731630893863624,135.49013649440556,Hotel
34.733580399999994,135.48620390076016,666.6666666666666,4dba4331f7b144688ff5b035,FamilyMart (ファミリーマート 阪急三国駅西店),34.73643940136449,135.48302961755212,Convenience Store
34.733580399999994,135.48620390076016,666.6666666666666,4bbde49b4e069c7462409fe3,Torikizoku (鳥貴族 三国店),34.738306520819926,135.4834679807601,Sake Bar
34.733580399999994,135.48620390076016,666.6666666666666,4c407335da3dc9289550c7b9,Lawson (ローソン 阪急三国駅前店),34.73749743139557,135.48369480110475,Convenience Store
34.733580399999994,135.48620390076016,666.6666666666666,4b582539f964a520244c28e3,Gusto (ガスト 三国店),34.73480474986551,135.4823050241761,Restaurant
34.733580399999994,135.48620390076016,666.6666666666666,4b5992fdf964a520278d28e3,Mikuni Station (HK41) (三国駅),34.737605667255366,135.483006111247,Train Station
34.733580399999994,135.48620390076016,666.6666666666666,4d3c065044f5a0931e1fc9bb,Lotteria (ロッテリア),34.73769704798171,135.48314866210717,Fast Food Restaurant
34.733580399999994,135.48620390076016,666.6666666666666,4c442bb6f0bdd13a8325c9cc,Gyoza no Ohsho (餃子の王将 三国店),34.73876723313616,135.48378220792898,Chinese Restaurant
34.733580399999994,135.48620390076016,666.6666666666666,4eeda1a69911d70cb80e696b,FamilyMart (ファミリーマート 新高小学校前店),34.7328812344615,135.4792238293645,Convenience Store
34.733580399999994,135.48620390076016,666.6666666666666,4c4025fbcc410f476930a961,FamilyMart (ファミリーマート 西三国四丁目店),34.73904079919983,135.4839258676809,Convenience Store
34.733580399999994,135.48620390076016,666.6666666666666,4ba7702df964a520e39339e3,Tenkaippin (天下一品 三国店),34.73503057940013,135.48215430404656,Ramen Restaurant
34.733580399999994,135.48620390076016,666.6666666666666,4bcee1f329d4b713b527a9dc,かごの屋 三国本町店,34.7332773804667,135.48578128969052,Japanese Restaurant
34.733580399999994,135.48620390076016,666.6666666666666,4d7a01fd9f6b721ec4d3a0c0,すき家 三国本町店,34.73311316663075,135.48535785727393,Donburi Restaurant
34.733580399999994,135.48620390076016,666.6666666666666,514693e1e4b0acad0803483b,味処 笑楽亭,34.73393944286096,135.48860774697158,Japanese Restaurant
34.733580399999994,135.48620390076016,666.6666666666666,4d9ef60a35a9224b42484085,松屋 三国店,34.737461835779776,135.48360266921088,Donburi Restaurant
34.733580399999994,135.48620390076016,666.6666666666666,4e0bdd12aeb784b164d3dfa8,西宮原二丁目バス停,34.73349456060957,135.48914614355422,Bus Stop
34.733580399999994,135.48620390076016,666.6666666666666,52493bbb498eb8daa7febcae,GEO (ゲオ 三国本町店),34.733360674689166,135.48930043640385,Record Shop
34.733580399999994,135.48620390076016,666.6666666666666,4e83e5dd2c5b5929750dd8b4,味悟空 新大阪店,34.733983,135.48938,Chinese Restaurant
34.733580399999994,135.48620390076016,666.6666666666666,5ac848234a1cc06a3aa5415f,海鮮問屋 丼丸 三国店,34.733746,135.48941,Deli / Bodega
34.733580399999994,135.48620390076016,666.6666666666666,4be4d9b88a8cb713b753c4a0,Gusto (ガスト 阪急三国駅店),34.73761316771782,135.48323472646842,Restaurant
34.733580399999994,135.48620390076016,666.6666666666666,4dd0a0421f6eb12270b055aa,JAMUNA (ジャムナ 新大阪店),34.73278038912091,135.4901585299012,Indian Restaurant
34.733580399999994,135.48620390076016,666.6666666666666,564eefa4498e58f2be37e556,味噌之達人 三国店,34.73565012726725,135.4819312216352,Noodle House
34.733580399999994,135.48620390076016,666.6666666666666,4f7fd4cae4b00084d9c37542,エスニックカフェ シャムスン,34.737010538934086,135.48305848015204,Asian Restaurant
34.733580399999994,135.48620390076016,666.6666666666666,4db94528a86ee4fa7d33a78d,炭火焼肉 とき屋,34.73797595019271,135.48354620038342,BBQ Joint
34.733580399999994,135.48620390076016,666.6666666666666,56cd496f498e8978c2cd2d35,やまびこ食堂,34.72911121196819,135.48299866575525,Diner
34.733580399999994,135.48620390076016,666.6666666666666,5181dcc5498ee6ab6532e32f,お好み焼 なか道,34.73876902106436,135.48750796457546,Food Truck
34.733580399999994,135.48620390076016,666.6666666666666,51580ba2e4b07cf8ce8fd647,備長扇屋 三国駅前店,34.738621792343096,135.48402622883282,Sake Bar
34.733580399999994,135.48620390076016,666.6666666666666,4e62dfed2271573ad7d2cbd2,サンティフルみくに,34.738594,135.483908,Shopping Mall
34.733580399999994,135.48620390076016,666.6666666666666,4e128dcba809291902c104b1,ジャンボカラオケ広場 三国店,34.73848019747651,135.48354094199607,Karaoke Box
34.733580399999994,135.48620390076016,666.6666666666666,4deb5210d4c00071b83a39e7,網干総合車両所 宮原支所,34.728222,135.486508,Train Station
34.733580399999994,135.48620390076016,666.6666666666666,4fee5c98e4b0ac0d2ed91d90,三国駅前公園,34.73853809018544,135.48357380734038,Park
34.733580399999994,135.48620390076016,666.6666666666666,4baece8ff964a520acd93be3,ジョーシン新大阪店 キッズランド,34.734521891968505,135.49280720780587,Hobby Shop
34.733580399999994,135.48620390076016,666.6666666666666,4ee78368e5faffd7347e7206,アシスト阪急三国駅前店,34.7387232,135.4834569,Restaurant
34.733580399999994,135.48620390076016,666.6666666666666,52c68b8f498e851a1159c7bc,海鮮酒房 川,34.73879077894781,135.48347718306198,Japanese Restaurant
34.733580399999994,135.48620390076016,666.6666666666666,58ab771855d6223a849776c4,センイシティー南バス停,34.734104,135.49316,Bus Stop
34.7380764,135.47888383835516,666.6666666666666,529dea7611d2434284eef01a,神州温泉あるごの湯,34.738354331071456,135.4783576394397,Bath House
34.7380764,135.47888383835516,666.6666666666666,50c96189e4b0d44e44f63566,ニトリ 豊中三国店,34.73950360519839,135.4787093495134,Furniture / Home Store
34.7380764,135.47888383835516,666.6666666666666,4ba47433f964a520309e38e3,ライフ 三国橋店,34.74092226485067,135.47905035524784,Supermarket
34.7380764,135.47888383835516,666.6666666666666,4e318380aeb7d41efd956acf,Lawson (ローソン 豊中神州町店),34.73739624885241,135.4742683408712,Convenience Store
34.7380764,135.47888383835516,666.6666666666666,51f9aeff498eefe8969416be,セガ 新三国アルゴ７,34.738571,135.479484,Arcade
34.7380764,135.47888383835516,666.6666666666666,50c0730ae4b08a1463240f7a,7-Eleven (セブンイレブン 大阪西三国3丁目店),34.739808468690384,135.48493923942328,Convenience Store
34.7380764,135.47888383835516,666.6666666666666,4d72326fff6ba35d7b4f6a8a,かっぱ寿司 豊中庄内店,34.74194838609524,135.47756547327296,Sushi Restaurant
34.7380764,135.47888383835516,666.6666666666666,4b6e57e2f964a52056b92ce3,エディオン 豊中店,34.741139755286795,135.47951201836847,Electronics Store
34.7380764,135.47888383835516,666.6666666666666,53e8541a498ea1746987191f,讃岐うどん さぬき亭,34.73900319643044,135.47959857257104,Udon Restaurant
34.7380764,135.47888383835516,666.6666666666666,50e54d50e4b035f75e9f1515,まごころ居酒屋 こっつん,34.73921121391887,135.48336215441824,Japanese Restaurant
34.7380764,135.47888383835516,666.6666666666666,4c63bfd2e1621b8d01af2653,ぼてQ,34.739817705464624,135.48338951930708,Japanese Restaurant
34.726260337595015,135.5447644,666.6666666666666,4b80a196f964a520388230e3,Shintoku Onsen (神徳温泉),34.72452677741951,135.5471932801299,Bath House
34.726260337595015,135.5447644,666.6666666666666,4d804f6f360b224b3f0cd856,角屋,34.72346282771355,135.55083895964563,Dessert Shop
34.726260337595015,135.5447644,666.6666666666666,4b736d68f964a520f3ad2de3,MOS Burger (モスバーガー),34.723843479402575,135.54896235466003,Fast Food Restaurant
34.726260337595015,135.5447644,666.6666666666666,4c88d54d94f5a09345aad21e,大阪市立芸術創造館,34.72167149366846,135.542589617758,Theater
34.726260337595015,135.5447644,666.6666666666666,4bea2ee5b3352d7f9af754d2,そらの星,34.721338239571644,135.54542995384094,Ramen Restaurant
34.726260337595015,135.5447644,666.6666666666666,5649a345498eb840c3ca238f,FamilyMart (ファミリーマート 大宮二丁目店),34.72443026692316,135.54587554283512,Convenience Store
34.726260337595015,135.5447644,666.6666666666666,4e54fbb76284ed0e1c1bc7e9,鳥貴族 千林大宮店,34.724693978478626,135.54942568927075,Sake Bar
34.726260337595015,135.5447644,666.6666666666666,4dad092a0cb63c371caab1b1,FamilyMart (ファミリーマート スバル森小路店),34.72297330349834,135.5489572628948,Convenience Store
34.726260337595015,135.5447644,666.6666666666666,4cc137b8ed03370447efac23,7-Eleven (セブンイレブン 大阪中宮1丁目店),34.723138599143674,135.53896663730723,Convenience Store
34.726260337595015,135.5447644,666.6666666666666,5b3a15f7c0cacb002c5e81c9,7-Eleven (セブンイレブン 千林商店街西店),34.72404,135.55038,Convenience Store
34.726260337595015,135.5447644,666.6666666666666,520607167e48146ff5f4105a,FamilyMart (ファミリーマート 千林二丁目店),34.72471009491111,135.55093109607697,Convenience Store
34.726260337595015,135.5447644,666.6666666666666,5a2fc992e97dfb5bddd8e685,FamilyMart (ファミリーマート 生江三丁目店),34.725695502072085,135.53826436400414,Convenience Store
34.726260337595015,135.5447644,666.6666666666666,4e67452418a8bf057184a66d,7-Eleven (セブンイレブン 大阪大宮3丁目店),34.726521012237285,135.54982321327907,Convenience Store
34.726260337595015,135.5447644,666.6666666666666,4c5cdd947735c9b687bd8d72,FamilyMart (ファミリーマート 中宮店),34.7220117386748,135.541747212409,Convenience Store
34.726260337595015,135.5447644,666.6666666666666,4b60caf4f964a520d0f929e3,城北公園,34.72868302599687,135.53821211525053,Park
34.726260337595015,135.5447644,666.6666666666666,4de36ca1d22d2a4ecddcdb45,なか卯 千林大宮店,34.724993814800854,135.54954644234655,Donburi Restaurant
34.726260337595015,135.5447644,666.6666666666666,53c7a738498e6bd724bf2de9,1-2番線ホーム,34.724338103865946,135.54928221830207,Platform
34.726260337595015,135.5447644,666.6666666666666,56416cab498ef14815b1ef9d,やすどん,34.7304294282323,135.5425452335591,Deli / Bodega
34.726260337595015,135.5447644,666.6666666666666,4daffbfa415985f6e9f7106d,欧風料理イスタンブール,34.72178136022618,135.54305344820023,Restaurant
34.726260337595015,135.5447644,666.6666666666666,4fc44da7e4b066035c96b85f,福すし 大宮総本店,34.721255871453955,135.54614518937436,Sushi Restaurant
34.726260337595015,135.5447644,666.6666666666666,4dc65a2fd22dafda2fbbf4bd,リスボン 千林店,34.724538830199265,135.55089553786542,Cupcake Shop
34.726260337595015,135.5447644,666.6666666666666,4de0dc7bd164e323c7b646f4,KinPouGe,34.721726848544115,135.54832448477526,Rock Club
34.73075633759502,135.53744433759502,666.6666666666666,50419183e4b072dc95ef56e8,FamilyMart (ファミリーマート 赤川三丁目店),34.72663876951166,135.53280053581457,Convenience Store
34.73075633759502,135.53744433759502,666.6666666666666,4f38cd237beb8cc434583b6c,城北ワンド,34.73066051457506,135.53753956992136,River
34.73075633759502,135.53744433759502,666.6666666666666,4ee0bde02c5bb0e03ef9210e,城北公園前バス停,34.72799914859934,135.5375576019287,Bus Stop
34.73075633759502,135.53744433759502,666.6666666666666,5288581f11d299fbec76fcfd,南海部品 城北店,34.72749357355293,135.53858985039938,Motorcycle Shop
34.73075633759502,135.53744433759502,666.6666666666666,5bac7c0025ecca002c546f73,ワークマン 旭城北公園前店,34.727516,135.53611,Clothing Store
34.73075633759502,135.53744433759502,666.6666666666666,52f72555498ede6f70ce80d7,生江3　交差点,34.72717763401208,135.53453953263667,Intersection
34.73075633759502,135.53744433759502,666.6666666666666,4e2e90faaeb7e1b8af9bef86,業務スーパー TAKENOKO 赤川店,34.726540775568,135.53252848738455,Supermarket
34.73075633759502,135.53744433759502,666.6666666666666,4d5af84ec23f594118c00d26,ワンカルビPLUS+ 旭赤川店,34.72642887447686,135.53255888028542,BBQ Joint
34.73075633759502,135.53744433759502,666.6666666666666,50169a29e4b0f164345d3792,めしや食堂 赤川店,34.72633750539891,135.53261093485597,Diner
34.726260337595015,135.53012427519002,666.6666666666666,4b94c887f964a5202a8334e3,スシロー 赤川店,34.72623946750778,135.531998088575,Sushi Restaurant
34.726260337595015,135.53012427519002,666.6666666666666,4c636deede1b2d7f33f5e470,餃子の王将 赤川店,34.726149280211835,135.53189730438845,Chinese Restaurant
34.726260337595015,135.53012427519002,666.6666666666666,513f5ddbe4b05b65cf0e07f8,7-Eleven (セブンイレブン 大阪友渕町3丁目店),34.72072018517571,135.53073176514772,Convenience Store
34.726260337595015,135.53012427519002,666.6666666666666,4d5c80e4b9b2a143022a778c,FamilyMart (ファミリーマート 大東町二丁目店),34.7241281039565,135.528615117073,Convenience Store
34.726260337595015,135.53012427519002,666.6666666666666,5abdb7b291eaca443f0b8a91,CoCo壱番屋,34.72226436884946,135.5308359861374,Japanese Curry Restaurant
34.726260337595015,135.53012427519002,666.6666666666666,501208b4e4b020985aee6a80,Sukiya (すき家 都島IC店),34.721319012043516,135.53115616396568,Donburi Restaurant
34.726260337595015,135.53012427519002,666.6666666666666,4de8e675d1648c97963dbc53,フレッツ 赤川店,34.72625412504954,135.53209615404248,Discount Store
34.726260337595015,135.53012427519002,666.6666666666666,4b6b5edaf964a52032042ce3,赤川3交差点,34.72591815396482,135.53139925003052,Intersection
34.726260337595015,135.53012427519002,666.6666666666666,50e79935e4b0651ebf11a229,中華料理龍鳳,34.72568626019066,135.53192465181442,Chinese Restaurant
34.726260337595015,135.53012427519002,666.6666666666666,4c5399c772cf0f47032b1ed3,和食さと 赤川店,34.72460362506185,135.5317450223341,Japanese Restaurant
34.726260337595015,135.53012427519002,666.6666666666666,4d4be0d1a33fb1f7d512b880,コノミヤ 赤川店,34.72421546551752,135.53141429925267,Supermarket
34.726260337595015,135.53012427519002,666.6666666666666,5c72083d01bc5a002cd9dae7,Shirokitakoendori Station (城北公園通駅),34.72367231754349,135.53056582420857,Train Station
34.726260337595015,135.53012427519002,666.6666666666666,4e195142d22d5122588c2861,赤一かどや,34.72325510984249,135.5310559272766,Dessert Shop
34.726260337595015,135.53012427519002,666.6666666666666,4c84b6c647cc224b7dab9a9f,赤川一丁目バス停,34.72318456446103,135.5312705039978,Bus Stop
34.726260337595015,135.53012427519002,666.6666666666666,51788bc1e4b07e585ed5955e,蕪村通り商店街,34.722705338557844,135.5307409522162,Market
34.726260337595015,135.53012427519002,666.6666666666666,553b688b498efc21871f20fa,赤川1交差点,34.72271599024625,135.53167132838647,Intersection
34.726260337595015,135.53012427519002,666.6666666666666,4cf0d0a27e93f04d396b4969,大東町バス停,34.72287495612731,135.5271649580001,Bus Stop
34.726260337595015,135.53012427519002,666.6666666666666,5051c555e4b08416d81f6ee7,都島入口,34.721392903998286,135.53001785075847,Toll Plaza
34.726260337595015,135.53012427519002,666.6666666666666,5795be2c498e922ae982ea5a,スギ薬局 生江店,34.72264,135.5349,Drugstore
34.726260337595015,135.53012427519002,666.6666666666666,4b8a463af964a5209a6632e3,やすだ,34.7218990972962,135.52629198168256,Shabu-Shabu Restaurant
34.726260337595015,135.53012427519002,666.6666666666666,5548214d498e9ebe52fc0071,淀川河川公園 赤川地区,34.72837931415191,135.5240584438011,Park
34.726260337595015,135.53012427519002,666.6666666666666,4fdd4704e4b018d078f40d59,ジャパン 都島店,34.720523712419116,135.52876225932235,Drugstore
34.726260337595015,135.51548415038008,666.6666666666666,4bb2e316a32876b0e42c01fe,毛馬閘門,34.721760500596105,135.51732163021765,Canal Lock
34.726260337595015,135.51548415038008,666.6666666666666,4cf9f3a9c51fa1cd55fddd2b,淀川ゴルフクラブ,34.725497281140015,135.51143288868784,Golf Course
34.726260337595015,135.51548415038008,666.6666666666666,4fb8b4f0e4b0510baa4eaf79,蕪村生誕地,34.721885796514385,135.51733307165833,Historic Site
34.726260337595015,135.51548415038008,666.6666666666666,53f418f9498e02e3a48fe525,毛馬こうもん,34.721142655021126,135.5170327010266,Canal Lock
34.73075633759502,135.5081640879751,666.6666666666666,4efb17a6490124bf9cace88d,のり友,34.72863125823384,135.50551726428677,Japanese Restaurant
34.73075633759502,135.5081640879751,666.6666666666666,53b7a629498e018010b006a0,Hotel GOODY GOODY,34.72644609885677,135.50378645184577,Hotel
34.726260337595015,135.5008440255701,666.6666666666666,4f8809c2e4b09582a0fa708d,Human beings everybody noodles (人類みな麺類),34.72545,135.49927,Ramen Restaurant
34.726260337595015,135.5008440255701,666.6666666666666,520750f111d2e0199a026d93,The Otherside Coffee,34.72552682986829,135.49837987084976,Café
34.726260337595015,135.5008440255701,666.6666666666666,4cd66e5f7da9a35d66a3efb9,Takoyaki Juhachiban (たこ焼十八番 大阪西中島本店),34.725800654750486,135.49937029282492,Takoyaki Place
34.726260337595015,135.5008440255701,666.6666666666666,4bd100f220cd9960be9f2e9e,Hotel Consort Shin-Osaka (ホテルコンソルト新大阪),34.72516258194545,135.4991559211276,Hotel
34.726260337595015,135.5008440255701,666.6666666666666,4e1e6a14d22d7c148ce20c4d,媛,34.725983282948086,135.49608398874255,Sake Bar
34.726260337595015,135.5008440255701,666.6666666666666,4bb9c473cf2fc9b6c9bba002,和風もつ料理 あらた,34.7265225086358,135.4975624980621,Japanese Restaurant
34.726260337595015,135.5008440255701,666.6666666666666,4dc0ce0745dd472e9b69a4e9,淀川河川公園 西中島地区,34.722249832473636,135.49734592437744,Park
34.726260337595015,135.5008440255701,666.6666666666666,4b74d7b7f964a520ddf42de3,Trattoria Cielo (トラットリア チェーロ),34.728831565467054,135.4956902259372,Italian Restaurant
34.726260337595015,135.5008440255701,666.6666666666666,57b189dd498e708138ed64a5,Doutor Coffee Shop (ドトールコーヒーショップ),34.72721172066458,135.49820758402348,Coffee Shop
34.726260337595015,135.5008440255701,666.6666666666666,549b878e498e9fa6ce846c58,大杉製麺,34.72691106271309,135.50098434214308,Ramen Restaurant
34.726260337595015,135.5008440255701,666.6666666666666,4b81fb44f964a52077c630e3,一番どり  西中島店,34.726950929721106,135.4991322502479,Sake Bar
34.726260337595015,135.5008440255701,666.6666666666666,4d53e08cd4a6721eaafe8eac,串のきっしゃん,34.72632977804173,135.50043171553975,Restaurant
34.726260337595015,135.5008440255701,666.6666666666666,549399b8498ee4527f5210dd,Ramen Uroko (らーめん鱗 西中島店),34.727350186219525,135.49666255189345,Ramen Restaurant
34.726260337595015,135.5008440255701,666.6666666666666,4b9f5babf964a520311e37e3,ラーメンつけ麺 笑福 大阪西中島店,34.72564515496855,135.500372550524,Ramen Restaurant
34.726260337595015,135.5008440255701,666.6666666666666,4f39e545e4b00bffdea7b91f,Gyoza no Ohsho (餃子の王将 西中島店),34.72627365184191,135.499359751906,Chinese Restaurant
34.726260337595015,135.5008440255701,666.6666666666666,545d8abd498e85840721a3a6,Unagiya (鰻家),34.72738389928617,135.49656467998076,Unagi Restaurant
34.726260337595015,135.5008440255701,666.6666666666666,50335bbee4b030b311820352,Kinjishi (金獅子),34.72653471066314,135.4975715543342,Sake Bar
34.726260337595015,135.5008440255701,666.6666666666666,4df5edc5fa76abc3d874a137,焼肉食堂 匠,34.72689061111915,135.49456929849086,BBQ Joint
34.726260337595015,135.5008440255701,666.6666666666666,4de0f66622713271e2c05c61,FamilyMart (ファミリーマート 西中島南方店),34.7250127849726,135.49671704972084,Convenience Store
34.726260337595015,135.5008440255701,666.6666666666666,4d7b07a3eb07224b30018772,FamilyMart (ファミリーマート 西中島四丁目店),34.72718195844387,135.49726091315904,Convenience Store
34.726260337595015,135.5008440255701,666.6666666666666,4d036d6554d0236a87d9e8d5,Lawson (ローソン 西中島三丁目東店),34.727050915474436,135.5011581253527,Convenience Store
34.726260337595015,135.5008440255701,666.6666666666666,4e673f4018385016283ba214,Ministop (ミニストップ 西中島4丁目店),34.726280568770605,135.49705606686484,Convenience Store
34.726260337595015,135.5008440255701,666.6666666666666,530883cb498e90f73dac8c3d,横浜家系 麺屋 昴,34.727785263118186,135.49876655729142,Ramen Restaurant
34.726260337595015,135.5008440255701,666.6666666666666,4c492f6b1b430f47e56231c3,Coffee shop APPLE,34.72704379358454,135.49875539123948,Café
34.726260337595015,135.5008440255701,666.6666666666666,4ddf2ffc8877e0877e54c2f9,Yayoi (やよい軒),34.728282415534075,135.4999315738678,Teishoku Restaurant
34.726260337595015,135.5008440255701,666.6666666666666,4d12b80a12916dcbd27fd88a,ステーキ ハンバーグのタケル 西中島本店,34.72743515293511,135.4974842664859,Steakhouse
34.726260337595015,135.5008440255701,666.6666666666666,4bd8732fdc4b9521d42b7988,Hotel Oaks Shin-Osaka (ホテルオークス新大阪),34.724562,135.499334,Hotel
34.726260337595015,135.5008440255701,666.6666666666666,5188712d498ec0f510bec89f,幻の中華そば加藤屋 大阪にぼ次朗,34.72916085742404,135.50099085823297,Ramen Restaurant
34.726260337595015,135.5008440255701,666.6666666666666,50065defe4b0229e8a4aa304,7-Eleven (セブンイレブン 大阪西中島1丁目店),34.72498670431248,135.49955259683549,Convenience Store
34.726260337595015,135.5008440255701,666.6666666666666,4d11f0bc2e58370454fadfd1,FamilyMart (ファミリーマート 阪急南方駅前店),34.72589941595734,135.49999997019745,Convenience Store
34.726260337595015,135.5008440255701,666.6666666666666,4df13e04bd41f401f775f0e2,Domino's Pizza (ドミノ・ピザ 新大阪店),34.72773467573124,135.4951029878242,Pizza Place
34.726260337595015,135.5008440255701,666.6666666666666,4bf7c7c55ec320a1df7e87d3,西中島海岸 海の家,34.72636963666685,135.4998263520366,Seafood Restaurant
34.726260337595015,135.5008440255701,666.6666666666666,4c496d3a9f2ad13a82a14453,Torikizoku (鳥貴族 西中島店),34.7266,135.499993,Sake Bar
34.726260337595015,135.5008440255701,666.6666666666666,4db6b48093a017099e051255,築地銀だこ ハイボール酒場 新大阪店,34.72717520671104,135.49882906288204,Takoyaki Place
34.726260337595015,135.5008440255701,666.6666666666666,5bb95012135b39002cf9680c,7-Eleven (セブンイレブン 大阪西中島南方店),34.726288,135.50124,Convenience Store
34.726260337595015,135.5008440255701,666.6666666666666,4fa9e961e4b0f8dd982ea00f,みつ星製麺所 西中島店,34.728242744618285,135.49489874696644,Ramen Restaurant
34.726260337595015,135.5008440255701,666.6666666666666,4bb421f80cbcef3bd4c4582a,Lawson (ローソン 西中島四丁目店),34.727716180817424,135.4984049378489,Convenience Store
34.726260337595015,135.5008440255701,666.6666666666666,4d377546803ba35db7da92fc,Lawson (ローソン 東中島一丁目店),34.72960811189166,135.50215220693056,Convenience Store
34.726260337595015,135.5008440255701,666.6666666666666,4d3ed31544f5a093b512e1bb,東横イン 新大阪中央口新館,34.72883088942988,135.50109466978785,Bed & Breakfast
34.726260337595015,135.5008440255701,666.6666666666666,4c41d97f520fa5933936caac,Toyoko Inn Shin-osaka Chuo-guchi Honkan (東横イン 新大阪中央口本館),34.72914006213589,135.50105782976516,Bed & Breakfast
34.726260337595015,135.5008440255701,666.6666666666666,4dd3e1a4b0fbf653b6471388,7-Eleven (セブンイレブン 大阪東中島1丁目店),34.73087340747168,135.50367621358916,Convenience Store
34.726260337595015,135.5008440255701,666.6666666666666,4db95b8093a0f369e86c7b10,次男坊ラーメン,34.729925,135.503318,Ramen Restaurant
34.726260337595015,135.5008440255701,666.6666666666666,5bae19a631ac6c0039cf8445,Caffè Veloce (カフェ・ベローチェ),34.725291,135.499014,Café
34.726260337595015,135.5008440255701,666.6666666666666,4c6173a754ac0f4710f0b721,New Osaka Hotel (ニューオーサカホテル),34.73140048566772,135.49911386655964,Hotel
34.726260337595015,135.5008440255701,666.6666666666666,4b79a9f7f964a5207c092fe3,Washington Hotel Plaza Shin Osaka (新大阪ワシントンホテルプラザ),34.73081378667906,135.4996455507865,Hotel
34.726260337595015,135.5008440255701,666.6666666666666,4c13057aa5eb76b0f55cbfb7,Lawson (ローソン 西中島五丁目店),34.7293027116688,135.49911224785,Convenience Store
34.726260337595015,135.5008440255701,666.6666666666666,4ecef5198231b9ef86deb75b,FamilyMart (ファミリーマート 地下鉄南方駅前店),34.7269145689494,135.498198866844,Convenience Store
34.726260337595015,135.5008440255701,666.6666666666666,4e90e33db63456ab95a010f8,FamilyMart (ファミリーマート プライムタワー西中島店),34.7287322582411,135.498067540555,Convenience Store
34.726260337595015,135.5008440255701,666.6666666666666,4ee45367d3e34ebcefc5dec6,7-Eleven (セブンイレブン 大阪西中島6丁目店),34.72829414899423,135.4943328327762,Convenience Store
34.726260337595015,135.5008440255701,666.6666666666666,4d677332052ea1cd154b9a49,ハイテクランドセガ西中島,34.72606386268481,135.49945852653585,Arcade
34.726260337595015,135.5008440255701,666.6666666666666,4dafac95cda12a5f1ae3b8a9,7-Eleven (セブンイレブン 大阪西中島5丁目南店),34.72829312342603,135.49986876117293,Convenience Store
34.726260337595015,135.5008440255701,666.6666666666666,5bacde3af05ca8002d79e653,7-Eleven (セブンイレブン),34.731233,135.499383,Convenience Store
34.726260337595015,135.5008440255701,666.6666666666666,552898f7498eb984952a3cc6,Koryumasu (西中島 光龍益),34.72838732349386,135.4972123300092,Ramen Restaurant
34.726260337595015,135.5008440255701,666.6666666666666,556db42a498e5e64f39d9172,Lawson (ローソン 西中島六丁目店),34.72798736426224,135.49583495948974,Convenience Store
34.726260337595015,135.5008440255701,666.6666666666666,4b56529af964a520550b28e3,MOS Burger (モスバーガー),34.727904358669,135.4990129172802,Fast Food Restaurant
34.726260337595015,135.5008440255701,666.6666666666666,4b652f38f964a520fde72ae3,Minamikata Station (HK61) (南方駅),34.7256797385326,135.49924967076996,Train Station
34.726260337595015,135.5008440255701,666.6666666666666,4c24820bb7b8a5936f8a3ce8,居酒屋 はぐるま,34.73156661710039,135.49824821876902,Sake Bar
34.726260337595015,135.5008440255701,666.6666666666666,4ba6bc6bf964a520516c39e3,Matsuya (松屋 西中島店),34.7279276795209,135.49692388404029,Donburi Restaurant
34.726260337595015,135.5008440255701,666.6666666666666,4dec4200ae60e989238833e6,デイリーヤマザキ 淀川西中島店,34.727009,135.494456,Convenience Store
34.726260337595015,135.5008440255701,666.6666666666666,557b102a498ec5857ac8b56a,Lawson (ローソン 東中島三丁目店),34.731016058817694,135.50405136441805,Convenience Store
34.726260337595015,135.5008440255701,666.6666666666666,4b7a914af964a5207e312fe3,九州らーめん 亀王 西中島店,34.72699819434538,135.4997867470357,Ramen Restaurant
34.726260337595015,135.5008440255701,666.6666666666666,4c008e3aad15a593ab2c8e73,松屋 南方店,34.72574033685482,135.4991589704742,Donburi Restaurant
34.726260337595015,135.5008440255701,666.6666666666666,4dde4f4088779c82bec0ff29,グルメシティ 南方店,34.72655685875286,135.49892010195785,Supermarket
34.726260337595015,135.5008440255701,666.6666666666666,4d3ececa457cb60c86cf03a5,Hotel Mystays Shin Osaka Conference Center (ホテルマイステイズ新大阪コンファレンスセンター),34.72952627160747,135.4975749688973,Hotel
34.726260337595015,135.5008440255701,666.6666666666666,4c5ea8956ebe2d7f5f29d62e,Shin-Osaka Station Hotel Annex (新大阪ステーションホテルアネックス),34.73143325225633,135.50190936731835,Hotel
34.726260337595015,135.5008440255701,666.6666666666666,4ceb483de1eeb60c18d1b2ae,四川辣麺 西中島店,34.72688653354937,135.49983344151943,Ramen Restaurant
34.726260337595015,135.5008440255701,666.6666666666666,4e35e3f652b17fb1c60d5a40,西中島東公園,34.72784043051506,135.5015730857849,Playground
34.726260337595015,135.5008440255701,666.6666666666666,4d26fb87ebacb1f723d9e24f,肉處 きっしゃん 西中島総本店,34.72651805905585,135.5003434292669,BBQ Joint
34.726260337595015,135.5008440255701,666.6666666666666,4ecc1543469068520cb144d9,Nakau (なか卯 西中島店),34.72977712461431,135.49812238695102,Donburi Restaurant
34.726260337595015,135.5008440255701,666.6666666666666,52bcf810498e5078282bde22,らぁ麺 喜希,34.72853581738444,135.50012249524914,Ramen Restaurant
34.726260337595015,135.5008440255701,666.6666666666666,4be40230fe2995216ea9966c,Doutor Coffee Shop (ドトールコーヒーショップ),34.730361352953615,135.49963250756264,Coffee Shop
34.726260337595015,135.5008440255701,666.6666666666666,4d5bc0a19c31b60caa04adee,居酒屋 魚人 新大阪店,34.72912152947271,135.50086395802762,Japanese Restaurant
34.726260337595015,135.5008440255701,666.6666666666666,4e47c3aaaeb70e74f4a5d99a,肉處 肉のきっしゃん 西中島四丁目店,34.726200103759766,135.49679565429688,Steakhouse
34.726260337595015,135.5008440255701,666.6666666666666,59881c3a82a75040aa7c85f1,すなおや 西中島店,34.726625,135.496812,Sake Bar
34.726260337595015,135.5008440255701,666.6666666666666,4c774234947ca1cd08174737,蓬莱閣,34.726270868607,135.49659490585327,Chinese Restaurant
34.726260337595015,135.5008440255701,666.6666666666666,528364c0498eb4e4ff400c8a,媛 今治焼き鳥の旅,34.72615951000117,135.49641740235788,Japanese Restaurant
34.726260337595015,135.5008440255701,666.6666666666666,5156fd5fe4b079b31ddfb2d8,炭火焼こだわり米 匠,34.72572085199002,135.49624251078,BBQ Joint
34.726260337595015,135.5008440255701,666.6666666666666,4bd874f0dc4b9521b5307988,Hotel Claiton Shin-Osaka (ホテルクライトン新大阪),34.725481,135.495729,Hotel
34.726260337595015,135.5008440255701,666.6666666666666,5d1729733f9ff70023420482,悪魔そば,34.7239,135.49533,Ramen Restaurant
34.726260337595015,135.5008440255701,666.6666666666666,556adc46498ee3c9c648a70f,大衆ビストロ匠,34.72760756955302,135.49473570262163,Bistro
34.726260337595015,135.5008440255701,666.6666666666666,5c7dec8d25fb7b0039ec8ba9,SureStay PLUS Hotel by Best Western Shin-Osaka (シュアステイプラスホテル by ベストウェスタン新大阪),34.724389331585854,135.49477393558394,Hotel
34.726260337595015,135.5008440255701,666.6666666666666,4e1b89f3887735dda33af324,珈琲専門店 三番館 新大阪店,34.731026203904456,135.50375883301461,Café
34.726260337595015,135.5008440255701,666.6666666666666,4ffa9e73e4b045d12fa27d1b,西中島2交差点,34.7245734804812,135.49464465249554,Intersection
34.73075633759502,135.49352396316513,666.6666666666666,4c20925263750f4792b7bc67,Shio Gensui (塩元帥 本店),34.72723093463237,135.49147920942278,Ramen Restaurant
34.73075633759502,135.49352396316513,666.6666666666666,4b92cd9df964a5204b1d34e3,スーパー玉出 淀川店,34.7278442402146,135.4927245011588,Grocery Store
34.73075633759502,135.49352396316513,666.6666666666666,4b6556d9f964a520cfed2ae3,Daiei (ダイエー 西中島店),34.72760313523112,135.49373091748706,Supermarket
34.73075633759502,135.49352396316513,666.6666666666666,56ff64ed498ecf21550f86fb,Menya Marusho (麺や マルショウ),34.73364713678558,135.4987784673943,Ramen Restaurant
34.73075633759502,135.49352396316513,666.6666666666666,4e7ff537be7bac4a1408686a,串かつ居酒屋 串や,34.732741860542504,135.49997376386736,Kushikatsu Restaurant
34.73075633759502,135.49352396316513,666.6666666666666,5355cd5a498ee8d8ca8076e5,浪花のうまいもん横丁 味の小路,34.73281608755231,135.50001292350493,Food Court
34.73075633759502,135.49352396316513,666.6666666666666,4b9f017af964a520920f37e3,らーめん屋 上方 段七 新大阪店,34.73245984373774,135.50037093912772,Ramen Restaurant
34.726260337595015,135.48620390076016,666.6666666666666,4b73b468f964a52004b92de3,来来亭 十三店,34.72660284921405,135.48724345155105,Ramen Restaurant
34.726260337595015,135.48620390076016,666.6666666666666,4b983ac6f964a520d63535e3,Lawson (ローソン 木川西店),34.72687699566536,135.48586465889548,Convenience Store
34.726260337595015,135.48620390076016,666.6666666666666,4be27367f07b0f47b789f543,FamilyMart (ファミリーマート 淀川区役所前店),34.72076168362224,135.48645422232622,Convenience Store
34.726260337595015,135.48620390076016,666.6666666666666,4ed244979a52262b84f66b02,FamilyMart (ファミリーマート 木川西店),34.726669700161395,135.48706005069198,Convenience Store
34.726260337595015,135.48620390076016,666.6666666666666,4e5e40fc1f6e3022a722271d,7-Eleven (セブンイレブン 大阪木川西淀川通店),34.72304893912904,135.49075364065777,Convenience Store
34.726260337595015,135.48620390076016,666.6666666666666,4ddf93af1f6ed1828c56f5c0,Lawson (ローソン 十三店),34.72114977347297,135.48339559503208,Convenience Store
34.726260337595015,135.48620390076016,666.6666666666666,4bad8acff964a5202a5a3be3,ライフ 十三東店,34.72336821812211,135.49192876601677,Supermarket
34.726260337595015,135.48620390076016,666.6666666666666,4e3dd3b2b61cb577be7d660f,7-Eleven (セブンイレブン 大阪十三本町3丁目店),34.724669916918614,135.4826174945797,Convenience Store
34.726260337595015,135.48620390076016,666.6666666666666,4b890206f964a520e61732e3,ジャパン 十三店,34.723804763246385,135.48210933823577,Supermarket
34.726260337595015,135.48620390076016,666.6666666666666,4e59db298877c8a76dec1a16,猪飼弓具店,34.72240994884548,135.4899780706341,Sporting Goods Shop
34.726260337595015,135.48620390076016,666.6666666666666,4f6e5df5e4b0a4e210854cc2,野中北公園,34.728612368742645,135.48090043254288,Park
34.726260337595015,135.48620390076016,666.6666666666666,4e674dbf62e1706d8287fca0,藤や,34.73058867052515,135.48307384194064,Udon Restaurant
34.726260337595015,135.48620390076016,666.6666666666666,4bca9766937ca593b74ba892,HEAVEN'S CAFE十三,34.72132831748092,135.4876148700714,Coffee Shop
34.726260337595015,135.48620390076016,666.6666666666666,4e7447d3b3ad783092861705,大阪市立淀川屋内プール,34.72124688131891,135.4871802873635,Pool
34.726260337595015,135.48620390076016,666.6666666666666,56c3b2a2cd10cfc5f80f8fed,野中北一丁目バス停,34.730602,135.48297,Bus Stop
34.726260337595015,135.48620390076016,666.6666666666666,4e86d902d22d7efe16069a44,木川西バス停,34.722264,135.490048,Bus Station
34.726260337595015,135.48620390076016,666.6666666666666,4dd0bb7852b1f8915bce2215,三国本町公園,34.73149529525533,135.48705701521814,Park
34.726260337595015,135.48620390076016,666.6666666666666,5945fab6c62b49552e17caad,芙蓉苑,34.72114,135.48819,Chinese Restaurant
34.726260337595015,135.48620390076016,666.6666666666666,51542299e4b09eaac30d5146,エルナージ,34.731111,135.483285,Spanish Restaurant
34.726260337595015,135.48620390076016,666.6666666666666,4df096871838e429ae50a72d,スペイン料理居酒屋 El Nague,34.73119683530705,135.48329313736718,Spanish Restaurant
34.726260337595015,135.48620390076016,666.6666666666666,4d984c0d9079b1f7fb32280a,まいどおおきに食堂 木川東食堂,34.7232407940841,135.4921292061111,Teishoku Restaurant
34.726260337595015,135.48620390076016,666.6666666666666,4d945962e923721e218269fe,酒のやまや 淀川三国本町店,34.731932236504576,135.48492124794018,Liquor Store
34.726260337595015,135.48620390076016,666.6666666666666,596f03850d2be7101e834fc8,十三東交差点,34.720467,135.48618,Intersection
34.726260337595015,135.48620390076016,666.6666666666666,58d3ca34126ae86e3d3142be,スーパーマルハチ 野中北店,34.730213,135.480864,Supermarket
34.73075633759502,135.47888383835516,666.6666666666666,4eb4b969cc2143e827b0ce10,Byakuan (白庵),34.7320966187191,135.4735033385182,Udon Restaurant
34.73075633759502,135.47888383835516,666.6666666666666,5319841d498eca9f8fb0077e,FamilyMart (ファミリーマート 野中北店),34.72962544235292,135.47986434662357,Convenience Store
34.73075633759502,135.47888383835516,666.6666666666666,4f8eb4b4e4b0634d3736f88d,Lawson (ローソン 野中北二丁目店),34.72937538686323,135.47815317790992,Convenience Store
34.73075633759502,135.47888383835516,666.6666666666666,4e5773bd62e126c9119ec6d8,7-Eleven (セブンイレブン 神崎川駅前店),34.73207939595273,135.4741183055703,Convenience Store
34.73075633759502,135.47888383835516,666.6666666666666,564db585498e236ed262d745,FamilyMart (ファミリーマート 淀川新高二丁目店),34.72914878641817,135.4762036570778,Convenience Store
34.73075633759502,135.47888383835516,666.6666666666666,55fa3da2498ea7ad5460236f,FamilyMart (ファミリーマート 神崎川駅東店),34.732181287087734,135.47347020000007,Convenience Store
34.73075633759502,135.47888383835516,666.6666666666666,4ca732c097c8a1cde39577a5,7-Eleven (セブンイレブン 三津屋店),34.73059039866128,135.47248721122742,Convenience Store
34.73075633759502,135.47888383835516,666.6666666666666,531b0782498e3fb40ea141ab,FamilyMart (ファミリーマート 神崎川駅西店),34.73149935816865,135.47242236267607,Convenience Store
34.73075633759502,135.47888383835516,666.6666666666666,5b24ab52066332001c99441a,Jugar,34.728404,135.481425,Sports Bar
34.73075633759502,135.47888383835516,666.6666666666666,4e6afc5d483bf2d9e67a8ac5,野中南公園,34.72599709232801,135.48268579169005,Park
34.718940275190036,135.5447644,666.6666666666666,4e2404d0b61cdcf1ecd7c546,Uoi (炭焼きうなぎの魚伊),34.7146696255336,135.5424566566944,Unagi Restaurant
34.718940275190036,135.5447644,666.6666666666666,4f9a4fd9e4b0e1cbfd867c02,カドヤ東店,34.72071932679495,135.54999335364826,Ice Cream Shop
34.718940275190036,135.5447644,666.6666666666666,4b6e52d9f964a52050b82ce3,スシロー 関目店,34.715159313358356,135.54664899079603,Sushi Restaurant
34.718940275190036,135.5447644,666.6666666666666,4b5faa6df964a52013c729e3,Morishoji Station (KH07) (森小路駅),34.71962203100704,135.5517295476778,Train Station
34.718940275190036,135.5447644,666.6666666666666,5a1d579eccad6b3073186731,7-Eleven (セブンイレブン 大阪高殿6丁目店),34.71770829553228,135.54556667804718,Convenience Store
34.718940275190036,135.5447644,666.6666666666666,530088ff498e49e0df37693e,FamilyMart (ファミリーマート 関目高殿駅西店),34.71485789537151,135.54459889725652,Convenience Store
34.718940275190036,135.5447644,666.6666666666666,5a40c633031320556fa53f89,セリア ライフ高殿店,34.719266,135.538686,Discount Store
34.718940275190036,135.5447644,666.6666666666666,4c0081538c1076b0aa522071,Osaka Ohsho (大阪王将 地下鉄関目店),34.71567113676058,135.54714918136597,Chinese Restaurant
34.718940275190036,135.5447644,666.6666666666666,4d60bfde338bb60caaa52cbd,7-Eleven (セブンイレブン 大阪森小路1丁目店),34.71967026146656,135.5495340833936,Convenience Store
34.718940275190036,135.5447644,666.6666666666666,59d786f17564f7202874c89c,Lawson Store 100 (ローソンストア100 関目高殿店),34.71525181834151,135.5457377828109,Convenience Store
34.718940275190036,135.5447644,666.6666666666666,4c6907b51a6620a1b578628c,FamilyMart (ファミリーマート 関目駅前店),34.7151607368472,135.546213090419,Convenience Store
34.718940275190036,135.5447644,666.6666666666666,4b64f73df964a520b2dc2ae3,餃子の王将  関目店,34.715290654769156,135.54644994301583,Chinese Restaurant
34.718940275190036,135.5447644,666.6666666666666,4c404653e26920a10e975ce7,7-Eleven (セブンイレブン 大阪関目5丁目店),34.71524815742452,135.54699146383916,Convenience Store
34.718940275190036,135.5447644,666.6666666666666,566ccbdc498edbe0886413e5,FamilyMart (ファミリーマート 高殿七丁目店),34.71566539422545,135.5481181579875,Convenience Store
34.718940275190036,135.5447644,666.6666666666666,4cfc5d2a34c1a0936d014b0e,CoCo Ichibanya (CoCo壱番屋 城東関目店),34.71469883874607,135.5466878414154,Japanese Curry Restaurant
34.718940275190036,135.5447644,666.6666666666666,55a9f66f498e787e7dc21648,ライフ 高殿店,34.71936076359421,135.5383741964202,Supermarket
34.718940275190036,135.5447644,666.6666666666666,4bcef8b029d4b713344ea9dc,Ministop (ミニストップ 高殿5丁目店),34.72026939224951,135.53860938856616,Convenience Store
34.718940275190036,135.5447644,666.6666666666666,4b9aef4ff964a520b1e435e3,McDonald’s (マクドナルド),34.716022999445265,135.54657384753227,Fast Food Restaurant
34.718940275190036,135.5447644,666.6666666666666,4c7f294efb74236a2283f9b9,なか卯 関目店,34.71529555640913,135.5463377999304,Donburi Restaurant
34.718940275190036,135.5447644,666.6666666666666,4c75decdc219224ba7f4a328,ビッグボーイ 関目店,34.71459716680698,135.54632766976687,Steakhouse
34.718940275190036,135.5447644,666.6666666666666,4d8db8dc788c54818e7927fd,鳥貴族 関目店,34.71396080602508,135.54648612957448,Sake Bar
34.718940275190036,135.5447644,666.6666666666666,4c749b732db5236a21f4ba79,Yoshinoya (吉野家 関目店),34.714736416545165,135.54550925644878,Donburi Restaurant
34.718940275190036,135.5447644,666.6666666666666,4c68d6d2c946e21e74cbe88e,尾道ラーメン 大醤軒,34.721677,135.543558,Ramen Restaurant
34.718940275190036,135.5447644,666.6666666666666,4d69d18ede28224b508148be,うどん 蔵十,34.72169772725673,135.54355458519925,Udon Restaurant
34.718940275190036,135.5447644,666.6666666666666,4da914a5cda1652a2b6bb9e4,Sukiya (すき家 1国城東関目店),34.713369805277665,135.54667276619514,Donburi Restaurant
34.718940275190036,135.5447644,666.6666666666666,4df60358fa76abc3d874e63f,旭公園,34.717805301841025,135.5409049987793,Park
34.718940275190036,135.5447644,666.6666666666666,4ecc2cc17ee5319f9a559813,旭スポーツセンター,34.71662711083165,135.54131239696193,Gym / Fitness Center
34.718940275190036,135.5447644,666.6666666666666,523668dd498edf4ae55151a8,ココカラファイン 旭高殿店,34.7155499,135.5430502,Drugstore
34.718940275190036,135.5447644,666.6666666666666,4b9c0ebef964a520964536e3,関目5丁目交差点,34.71545948102331,135.5465054512024,Intersection
34.718940275190036,135.5447644,666.6666666666666,4d211d32756e8cfabfcc7254,HOLLYWOOD ハリウッド・ハリーズ  高殿,34.720328292641156,135.53891230962998,Casino
34.718940275190036,135.5447644,666.6666666666666,4dc6658a315170a4221525c6,Lawson (ローソン 新森一丁目店),34.715592871866505,135.55033161226845,Convenience Store
34.718940275190036,135.5447644,666.6666666666666,4e8ea9bd7ee6c06365a55f23,ソフトバンク 関目,34.713497482705115,135.54655523937515,Mobile Phone Shop
34.718940275190036,135.5447644,666.6666666666666,4d2ac7326e27a143b0873124,得一 大宮店,34.724305,135.547039,Sake Bar
34.718940275190036,135.5447644,666.6666666666666,4b8d3e62f964a52080ef32e3,旭東ゴルフガーデン,34.713556595120615,135.54191197735116,Golf Course
34.718940275190036,135.5447644,666.6666666666666,55a92a65498ed75379c3eb3e,いろどりや,34.71318641178667,135.5465828833238,Sake Bar
34.72343627519004,135.53744433759502,666.6666666666666,4f3b41fbe4b036beb8733a71,FamilyMart (ファミリーマート 生江一丁目店),34.722500898224354,135.5360472840905,Convenience Store
34.72343627519004,135.53744433759502,666.6666666666666,52301b1511d212d54f57f77a,旭警察署前交差点,34.722145,135.53857,Intersection
34.72343627519004,135.53744433759502,666.6666666666666,4bdc18523904a593d5d24c9e,やきにくキッチン ぱくぱく,34.71998118113694,135.5357154542158,Steakhouse
34.72343627519004,135.53744433759502,666.6666666666666,4b79df4cf964a52076172fe3,赤川三丁目バス停,34.725463314674954,135.53119232053797,Bus Stop
34.72343627519004,135.53744433759502,666.6666666666666,55696824498ed18f1c753439,赤三商栄街,34.726055,135.531458,Shopping Mall
34.72343627519004,135.53744433759502,666.6666666666666,5c84e9f067af3a002cb0c7a2,Platform 1 (1番のりば),34.72449846231075,135.53034782409668,Platform
34.718940275190036,135.53012427519002,666.6666666666666,4b5c5880f964a520d62b29e3,ライフ 毛馬店,34.72102073488718,135.52475504527158,Supermarket
34.718940275190036,135.53012427519002,666.6666666666666,4b8b42d0f964a520ea9932e3,Saizeriya (サイゼリヤ),34.71531617214364,135.5301734805107,Italian Restaurant
34.718940275190036,135.53012427519002,666.6666666666666,4ed353d80aafd18692552494,Baskin-Robbins (サーティワンアイスクリーム),34.71574034928563,135.5302849824878,Ice Cream Shop
34.718940275190036,135.53012427519002,666.6666666666666,4bb2a0db4019a5933c2237b8,Daiso (ダイソー),34.71587559781444,135.53008805985795,Discount Store
34.718940275190036,135.53012427519002,666.6666666666666,4df13e1ebd41f401f775f721,Domino's Pizza (ドミノ・ピザ 都島毛馬店),34.721639,135.52525500000002,Pizza Place
34.718940275190036,135.53012427519002,666.6666666666666,4b36f0d1f964a5206b3e25e3,UNIQLO (ユニクロ),34.71589732945131,135.53027406334877,Clothing Store
34.718940275190036,135.53012427519002,666.6666666666666,5b1b53762aff310039fdf01c,Welcia ウエルシア,34.7148048,135.5287923,Drugstore
34.718940275190036,135.53012427519002,666.6666666666666,4ee85342f790a9d738374a4b,ファッションセンターしまむら ベルファ都島,34.71595236470972,135.5300290648108,Clothing Store
34.718940275190036,135.53012427519002,666.6666666666666,4d548efffb65236aa1cbefb3,Ringer Hut (リンガーハット),34.71553003299593,135.53006887435913,Noodle House
34.718940275190036,135.53012427519002,666.6666666666666,4d6bca559d7e2d43fb1d24b3,FamilyMart (ファミリーマート 高倉町二丁目店),34.71599838336734,135.53079534130453,Convenience Store
34.718940275190036,135.53012427519002,666.6666666666666,58368849016217169f99eada,ニトリ デコホーム,34.715862,135.53015,Furniture / Home Store
34.718940275190036,135.53012427519002,666.6666666666666,54d59129498e258e7d90bb50,7-Eleven (セブンイレブン 大阪毛馬町2丁目店),34.72079125844658,135.52390310252474,Convenience Store
34.718940275190036,135.53012427519002,666.6666666666666,4c4582d374ffc92828f976cc,Matsumoto Kiyoshi (マツモトキヨシ ベルファ店),34.715904835172076,135.5303652825896,Drugstore
34.718940275190036,135.53012427519002,666.6666666666666,4ba49e1af964a520b3a738e3,McDonald's (マクドナルド),34.715554770422145,135.53037679032062,Fast Food Restaurant
34.718940275190036,135.53012427519002,666.6666666666666,58d3ec0852a051263746377d,Ministop (ミニストップ 都島友渕町店),34.714771493952334,135.52914024922688,Convenience Store
34.718940275190036,135.53012427519002,666.6666666666666,4f7d1293e4b006944e7735e1,キャンドゥ 都島毛馬店,34.720219364299055,135.523455084785,Discount Store
34.718940275190036,135.53012427519002,666.6666666666666,4e3887bd7d8b6bed20a5d7bc,Lawson (ローソン 御幸町二丁目店),34.71476384777112,135.53401471830242,Convenience Store
34.718940275190036,135.53012427519002,666.6666666666666,4e506b4de4cdc76dc9c05b80,ライフ 都島高倉店,34.71410272348447,135.5297854593054,Supermarket
34.718940275190036,135.53012427519002,666.6666666666666,4b972d01f964a52014fb34e3,TSUTAYA CLUB トーワブックス毛馬店,34.7192746,135.5234302,Video Store
34.718940275190036,135.53012427519002,666.6666666666666,4ed88e317ee506bd2993a59f,Edion (エディオン),34.715894194622884,135.53003565467668,Electronics Store
34.718940275190036,135.53012427519002,666.6666666666666,50912b97e4b0628fdd4eb37d,丸源ラーメン 都島店,34.719774838752265,135.52332968871224,Ramen Restaurant
34.718940275190036,135.53012427519002,666.6666666666666,4c7889a797028cfadc63d8fe,昇龍軒 都島店,34.713453,135.529535,Ramen Restaurant
34.718940275190036,135.53012427519002,666.6666666666666,4bc283e2abf495210bb6c293,高倉町三丁目バス停,34.71822261742127,135.5307531546016,Bus Stop
34.718940275190036,135.53012427519002,666.6666666666666,514ecd4be4b05bcb299765bf,ひごペットフレンドリー ベルファⅡ都島店,34.716976541755514,135.5300737486931,Pet Store
34.718940275190036,135.53012427519002,666.6666666666666,4da68ec393a04785b9032a7c,スギ薬局 都島友渕店550号店,34.71688497817496,135.53062735721704,Pharmacy
34.718940275190036,135.53012427519002,666.6666666666666,4f4e398fe4b027c87408d999,カラオケティファニー,34.7167892596153,135.53038170297037,Karaoke Bar
34.718940275190036,135.53012427519002,666.6666666666666,4b36e4b3f964a520e43d25e3,ベルファ都島,34.71580002529447,135.53024152340106,Shopping Mall
34.718940275190036,135.53012427519002,666.6666666666666,4ba49ca6f964a5205fa738e3,かごの屋 都島店,34.71624723631995,135.53066684744127,Japanese Restaurant
34.718940275190036,135.53012427519002,666.6666666666666,4c7b26543badb1f7c17d5454,四国うどん 鶴丸製麺 ベルファ都島店,34.71562966892139,135.53025072744015,Udon Restaurant
34.718940275190036,135.53012427519002,666.6666666666666,59150cffb23dfa207ede7d1e,古本市場 都島店,34.71478,135.52902,Used Bookstore
34.718940275190036,135.53012427519002,666.6666666666666,581732b738fae6c2caabd019,トヨクニ･コーヒー,34.714717962039714,135.5312668151678,Café
34.718940275190036,135.53012427519002,666.6666666666666,4d43ebde1911a09340a3d2d8,Gusto (ガスト 毛馬店),34.71951610557334,135.52288643339256,Restaurant
34.718940275190036,135.53012427519002,666.6666666666666,4b831b06f964a520f9f730e3,大阪市営バス 毛馬町二丁目,34.72094605631799,135.52467654186395,Bus Station
34.718940275190036,135.53012427519002,666.6666666666666,4b889234f964a5207c0132e3,ビストロ ミショーレ,34.72126658883687,135.52475541830063,Bistro
34.718940275190036,135.53012427519002,666.6666666666666,51fb0ca3498e696bfe7ec170,都島食パン,34.713741,135.530698,Bakery
34.718940275190036,135.53012427519002,666.6666666666666,4f7d15c0e4b0fe09410219ca,スギ薬局 都島毛馬店,34.71987363494012,135.52334127813594,Pharmacy
34.72343627519004,135.52280421278505,666.6666666666666,5b7e2a601953f3002c977dbc,Welcia ウエルシア (ウエルシア都島毛馬店 (調剤薬局)),34.7209358,135.5208588,Drugstore
34.72343627519004,135.52280421278505,666.6666666666666,59a6c536e1f2281995d365dc,7-Eleven (セブンイレブン 大阪毛馬橋店),34.720331835165204,135.52139192819595,Convenience Store
34.72343627519004,135.52280421278505,666.6666666666666,4f6d3abae4b068929f59a1ae,毛馬中央公園,34.722294815628125,135.52205065277022,Park
34.72343627519004,135.52280421278505,666.6666666666666,4d525221e02754814e76b3b6,ヤマト運輸 都島毛馬センター,34.72457222704371,135.52555569080732,Shipping Store
34.72343627519004,135.52280421278505,666.6666666666666,4b749ddbf964a52000e82de3,FamilyMart (ファミリーマート 毛馬町一丁目店),34.7188055642743,135.521113962619,Convenience Store
34.72343627519004,135.52280421278505,666.6666666666666,4ce64f65baa6a1cd9e92206c,花丸軒,34.718916006604246,135.52173383492348,Ramen Restaurant
34.72343627519004,135.52280421278505,666.6666666666666,4b831b59f964a52013f830e3,毛馬橋バス停,34.71855148309605,135.52129084593184,Bus Stop
34.72343627519004,135.52280421278505,666.6666666666666,4e1fe79452b1f82ffb8eb72f,毛馬橋東詰交差点,34.718304,135.52091,Intersection
34.72343627519004,135.52280421278505,666.6666666666666,4d4512b7bbb1a143b2a04e72,蕪村公園,34.71887274967387,135.51969298914426,Park
34.718940275190036,135.51548415038008,666.6666666666666,4b5c53a2f964a520182b29e3,Rikuro's (りくろーおじさんの店),34.71605937756575,135.5168281495571,Dessert Shop
34.718940275190036,135.51548415038008,666.6666666666666,4b5c4272f964a520e12829e3,Naniwa no Yu (なにわの湯),34.71534741502307,135.51349777796452,Hot Spring
34.718940275190036,135.51548415038008,666.6666666666666,4be4c217910020a1d53cd214,FamilyMart (ファミリーマート 長柄店),34.71718775490268,135.51302578559603,Convenience Store
34.718940275190036,135.51548415038008,666.6666666666666,4ed3a27693ad987b50cb9e4b,7-Eleven (セブンイレブン 大阪天神橋8丁目店),34.71613177097111,135.51086899366226,Convenience Store
34.718940275190036,135.51548415038008,666.6666666666666,4c6f9a4dd274b60ce41fd70d,studio GEN 246,34.71417884389663,135.51248043844984,Rock Club
34.718940275190036,135.51548415038008,666.6666666666666,515a4985e4b0d002f5a1e56d,旧毛馬閘門,34.71946952522842,135.51642837259473,Historic Site
34.718940275190036,135.51548415038008,666.6666666666666,4b5c566ff964a520852b29e3,Lawson (ローソン 長柄東二丁目店),34.716133275290574,135.51692073743436,Convenience Store
34.718940275190036,135.51548415038008,666.6666666666666,517c8485e4b0c519fe37b263,長柄東交差点,34.71623847702948,135.51657283547684,Intersection
34.718940275190036,135.51548415038008,666.6666666666666,505d75aee4b012e2dc177892,長柄公園,34.71602524203493,135.5151827031924,Park
34.718940275190036,135.51548415038008,666.6666666666666,4baf468ff964a5200cf53be3,ゆう食家,34.71524331804418,135.51359676591417,Japanese Restaurant
34.718940275190036,135.51548415038008,666.6666666666666,4f30cea1e4b0f99d87aeb0d4,AMORE (アモーレ 天神橋店),34.715054,135.512731,Pachinko Parlor
34.718940275190036,135.51548415038008,666.6666666666666,4b88fd3bf964a520fd1632e3,吉鳥 天八店,34.71504811905174,135.51133620713446,Japanese Restaurant
34.72343627519004,135.5081640879751,666.6666666666666,5f279a63e8a8df596bc604f3,柴島干潟,34.721516,135.50557,River
34.718940275190036,135.5008440255701,666.6666666666666,594000ac09e2831c193eeaa0,FamilyMart (ファミリーマート 本庄西二丁目店),34.71392496072776,135.5033728480339,Convenience Store
34.718940275190036,135.5008440255701,666.6666666666666,525a788a11d28ddce58ae3b1,Toyoko Inn Umeda-Nakatsu 2 (東横イン 梅田中津2),34.71340543046412,135.50059803076522,Bed & Breakfast
34.72343627519004,135.49352396316513,666.6666666666666,4f8aa76ee4b0bae89823e351,木川南公園,34.72220349102047,135.49276134148957,Park
34.72343627519004,135.49352396316513,666.6666666666666,4ef947bce5fa4f286cfe0972,太郎坊寿し,34.72604160426076,135.49680948257446,Sushi Restaurant
34.72343627519004,135.49352396316513,666.6666666666666,566eb127498e5c544dbe2d1b,豚中島南方,34.726128,135.496864,BBQ Joint
34.72343627519004,135.49352396316513,666.6666666666666,4f44dd58e4b0d8525e525ccf,秋吉 西中島店,34.726013,135.497477,Sake Bar
34.72343627519004,135.49352396316513,666.6666666666666,4d158592401db60c5e8ee0a4,CAFE TARO,34.72707668640553,135.49633461068387,Café
34.72343627519004,135.49352396316513,666.6666666666666,4e44ab1bd22de4060ef95421,栄成軒,34.72662825246646,135.49754710052332,Chinese Restaurant
34.72343627519004,135.49352396316513,666.6666666666666,4d95a25ec19fb60ccb2a6a65,アンエイ 新大阪店,34.727664076730655,135.49680948257446,Paper / Office Supplies Store
34.72343627519004,135.49352396316513,666.6666666666666,4c3d2929933b0f475424e521,喫茶館グリーンパーク,34.72627884860711,135.4989508258971,Café
34.72343627519004,135.49352396316513,666.6666666666666,4da0f9d88c8d594141d53b0f,矗々家 西中島南方店,34.72628890639113,135.4993468840759,Japanese Restaurant
34.72343627519004,135.49352396316513,666.6666666666666,585a4aa713c223112cbbe0b9,木川本町商店街,34.723303,135.486742,Shopping Mall
34.718940275190036,135.48620390076016,666.6666666666666,4b5d9acbf964a5202c6329e3,Kiyasu Sohonpo (喜八洲総本舗),34.71980954521652,135.48167780041695,Wagashi Place
34.718940275190036,135.48620390076016,666.6666666666666,4c918c4251d9b1f768cd8146,Negiyaki Yamamoto (ねぎ焼やまもと),34.719197274722,135.4812352359295,Okonomiyaki Restaurant
34.718940275190036,135.48620390076016,666.6666666666666,4b710a43f964a520f4372de3,第七藝術劇場,34.71908517048146,135.48076707970822,Indie Movie Theater
34.718940275190036,135.48620390076016,666.6666666666666,5c1eeb4cbcbf7a002c314484,The old man's best swing (くそオヤジ最後のひとふり),34.72024100015655,135.481981372596,Ramen Restaurant
34.718940275190036,135.48620390076016,666.6666666666666,4e33d22c18a8efdb175d702c,淀川文化創造館 Theater Seven,34.71908655866979,135.480762307162,Theater
34.718940275190036,135.48620390076016,666.6666666666666,54d75d09498e64e312d5d4bc,三豊麺 十三店,34.7198290511103,135.48216696015893,Ramen Restaurant
34.718940275190036,135.48620390076016,666.6666666666666,4c3704a21e06d13aa71c753e,はながさ,34.720769950397646,135.48167232770686,Sake Bar
34.718940275190036,135.48620390076016,666.6666666666666,4b6e71edf964a520b4bd2ce3,ゴールドジム 十三 in プラザオーサカ,34.7170538077389,135.48092916382134,Gym / Fitness Center
34.718940275190036,135.48620390076016,666.6666666666666,4e6df27462e1ce648729363d,Kiyasu Sohonpo (喜八洲総本舗),34.72077575544534,135.48232645429812,Wagashi Place
34.718940275190036,135.48620390076016,666.6666666666666,4c36fb3093db0f473eea1e92,得一 十三店,34.71910577260089,135.4803993913149,Sake Bar
34.718940275190036,135.48620390076016,666.6666666666666,5997d93d4c9be63607f420c5,246 LIVEHOUSE GABU,34.71909640892084,135.48063027132787,Rock Club
34.718940275190036,135.48620390076016,666.6666666666666,53c39df1498ef257a7cf26a3,スタジオ246 JUSO,34.71879399743489,135.48054285489312,Recording Studio
34.718940275190036,135.48620390076016,666.6666666666666,4be4e1e92468c928127eff42,ジャンボカラオケ広場 十三本町店,34.718852,135.480556,Karaoke Box
34.718940275190036,135.48620390076016,666.6666666666666,4bde3fee6198c9b6528913ff,らーめん ばっこ志,34.72058596912971,135.4828706826247,Ramen Restaurant
34.718940275190036,135.48620390076016,666.6666666666666,4b7d8626f964a52059c42fe3,Fandango,34.71816491946807,135.4798699409447,Rock Club
34.718940275190036,135.48620390076016,666.6666666666666,4b7d2821f964a520b1b02fe3,見返りトミー君,34.72036581542965,135.48226903769717,Monument / Landmark
34.718940275190036,135.48620390076016,666.6666666666666,4c3c33a27d00d13a5b8f3850,asnas (アズナス 十三店),34.720365765436874,135.48228535958918,Convenience Store
34.718940275190036,135.48620390076016,666.6666666666666,4bdfb95e0ee3a5935c4035b0,麺や よかにせ,34.72018,135.48033,Ramen Restaurant
34.718940275190036,135.48620390076016,666.6666666666666,4bbc32fae436ef3b0d525664,7-Eleven (セブンイレブン 大阪十三東2丁目店),34.71946488321652,135.48369793302436,Convenience Store
34.718940275190036,135.48620390076016,666.6666666666666,4bbc349851b89c740234872a,Mister Donut (ミスタードーナツ 十三東口ショップ),34.71978499612294,135.48295717229203,Donut Shop
34.718940275190036,135.48620390076016,666.6666666666666,4f66deaae4b0bf10140f5855,7-Eleven (セブンイレブン 大阪十三東1丁目店),34.719775652671025,135.48669809943502,Convenience Store
34.718940275190036,135.48620390076016,666.6666666666666,5d1045c5714070002300eb14,キャンドゥ 十三駅前店,34.719664,135.483258,Discount Store
34.718940275190036,135.48620390076016,666.6666666666666,4bf0e3c51f17ef3b35db9bc8,TSUTAYA 十三店,34.71961,135.48314,Video Store
34.718940275190036,135.48620390076016,666.6666666666666,4b88e1e3f964a520c21132e3,Mister Donut (ミスタードーナツ 十三西口ショップ),34.71969003821874,135.4812856962685,Donut Shop
34.718940275190036,135.48620390076016,666.6666666666666,4cda6572cea2224be4437f4c,九州らーめん 亀王 十三駅前店,34.719935,135.481599,Ramen Restaurant
34.718940275190036,135.48620390076016,666.6666666666666,4b9ddabef964a52038c036e3,たこやき専門店 カリトロ,34.718771097683074,135.47917070284353,Takoyaki Place
34.718940275190036,135.48620390076016,666.6666666666666,4bab0750f964a52063923ae3,松屋 十三東口店,34.71976462712201,135.48338958040844,Donburi Restaurant
34.718940275190036,135.48620390076016,666.6666666666666,5de9bf1046d2b900080e63f2,ドンキホーテ 十三店,34.717716,135.480118,Discount Store
34.718940275190036,135.48620390076016,666.6666666666666,4b5d70e3f964a520205d29e3,Juso Station (HK03) (十三駅),34.72034923424563,135.4824005259761,Train Station
34.718940275190036,135.48620390076016,666.6666666666666,5715c620498eb2eba2547d1f,7-Eleven (セブンイレブン 十三本町1丁目南店),34.71800954622917,135.48061948781992,Convenience Store
34.718940275190036,135.48620390076016,666.6666666666666,4c0b6ab06071a5936741e132,鳥貴族 十三店,34.72058606107654,135.4829319047066,Sake Bar
34.718940275190036,135.48620390076016,666.6666666666666,576a5ff8498e28dc0f1d7287,7-Eleven (セブンイレブン 十三駅東口店),34.72003040087835,135.48290634965213,Convenience Store
34.718940275190036,135.48620390076016,666.6666666666666,4bd5684229eb9c746e3993e1,Gyoza no Ohsho (餃子の王将 十三店),34.720147385905584,135.48305710523348,Chinese Restaurant
34.718940275190036,135.48620390076016,666.6666666666666,5ca19f91dff815002c76dfa8,Wakana Soba (若菜そば),34.720579310992086,135.4822548613215,Soba Restaurant
34.718940275190036,135.48620390076016,666.6666666666666,556fe66b498ed7be404a4aae,台湾まぜそば まぜる 十三店,34.71917076156632,135.48155228621462,Noodle House
34.718940275190036,135.48620390076016,666.6666666666666,4bac0da8f964a520fbe03ae3,Matsumoto Kiyoshi (マツモトキヨシ 十三東口駅前店),34.71978442377678,135.48328423199843,Drugstore
34.718940275190036,135.48620390076016,666.6666666666666,576fa09a498e779fa768b6ac,松屋 十三西口店,34.71982,135.48192,Donburi Restaurant
34.718940275190036,135.48620390076016,666.6666666666666,57bc1cb5498eaebed4f1cdcc,松のや 十三店,34.71919000378221,135.48181094923896,Tonkatsu Restaurant
34.718940275190036,135.48620390076016,666.6666666666666,51a43dcb498e848209a226fe,宮っ子ラーメン 阪急十三店,34.7197568098321,135.48284932085053,Ramen Restaurant
34.718940275190036,135.48620390076016,666.6666666666666,575220f3498e4cf3d561277f,FamilyMart (ファミリーマート 北野高校前店),34.71717210109405,135.4797833104734,Convenience Store
34.718940275190036,135.48620390076016,666.6666666666666,56ac8200498e2a4a61423fa5,7-Eleven (セブンイレブン 十三駅西口店),34.719741284601575,135.48162352071708,Convenience Store
34.718940275190036,135.48620390076016,666.6666666666666,4b91b952f964a520bfd233e3,FREDS CAFE 十三店,34.72046587717382,135.48236775072854,Bakery
34.718940275190036,135.48620390076016,666.6666666666666,54461190498ed0b9298ea527,7-Eleven (セブンイレブン 大阪新北野1丁目店),34.7177199892585,135.48092808844183,Convenience Store
34.718940275190036,135.48620390076016,666.6666666666666,4e0c61f4aeb7af850d67fbbe,十三東駅前商店街,34.719863423913274,135.48296764087547,Shopping Mall
34.718940275190036,135.48620390076016,666.6666666666666,4c0f3b467189c928f2d1d9b6,FamilyMart (ファミリーマート 十三本町店),34.719744613072,135.4808515857005,Convenience Store
34.718940275190036,135.48620390076016,666.6666666666666,4bac0eaef964a5204ae13ae3,FamilyMart (ファミリーマート 十三東店),34.71932137331179,135.48362456624747,Convenience Store
34.718940275190036,135.48620390076016,666.6666666666666,4c5cc90385a1e21e62d75711,CoCo Ichibanya (CoCo壱番屋 十三駅西口店),34.71989327710938,135.48053284871656,Japanese Curry Restaurant
34.718940275190036,135.48620390076016,666.6666666666666,4b7677aef964a5208e4d2ee3,MOS Burger (モスバーガー 十三店),34.71825647212679,135.48165041429357,Fast Food Restaurant
34.718940275190036,135.48620390076016,666.6666666666666,54ec3c30498ef6912ce6ebb6,Torikizoku (鳥貴族 十三西口店),34.71910082506043,135.48078558661362,Sake Bar
34.718940275190036,135.48620390076016,666.6666666666666,4b908a2ff964a520178f33e3,大阪王将 十三店,34.71738206671414,135.4797004114157,Chinese Restaurant
34.718940275190036,135.48620390076016,666.6666666666666,57920c59498e5f28120fdb7f,FamilyMart (ファミリーマート 淀川図書館前店),34.717248951116,135.47977560542336,Convenience Store
34.718940275190036,135.48620390076016,666.6666666666666,4c0f3b5898102d7fe9fae406,FamilyMart (ファミリーマート 十三本町二丁目店),34.719888383231556,135.48073300518203,Convenience Store
34.718940275190036,135.48620390076016,666.6666666666666,50508915e4b007a165f7c073,Lawson (ローソン 淀川新北野店),34.716652724515164,135.48188182820695,Convenience Store
