search_spot_lat,search_spot_lon,search_radius,id,Name,Latitude,Longitude,Category
39.99088692,-75.09843888,666.6666666666666,570eb1a1498e8fb56ca44057,Panda Express,39.99253224716589,-75.09806287312958,Chinese Restaurant
39.99088692,-75.09843888,666.6666666666666,4cb89904f50e224ba90fe8fb,Philly Pretzel Factory,39.98975507510463,-75.10200402348596,Snack Place
39.99088692,-75.09843888,666.6666666666666,4b2fd2d4f964a520a7f024e3,Czerw's Kielbasa,39.986034445940916,-75.0979735860178,Market
39.99088692,-75.09843888,666.6666666666666,4c361dc52c8020a1bac58600,Ontario Street Comic Book Shop,39.99313971144022,-75.10323195902534,Bookstore
39.99088692,-75.09843888,666.6666666666666,4cb716c286e09eb001ad62e2,Dunkin',39.99203214366886,-75.09889612210748,Donut Shop
39.99088692,-75.09843888,666.6666666666666,599682d4491be70d55104d4a,Bombshell Hair Studio,39.986,-75.095396,Salon / Barbershop
39.99088692,-75.09843888,666.6666666666666,4cdec3a6aba88cfac31444d7,Rite Aid,39.9933129,-75.0963101,Pharmacy
39.99088692,-75.09843888,666.6666666666666,4e77826662e1263517525f85,Dollar General,39.99147,-75.09761800000001,Discount Store
39.99088692,-75.09843888,666.6666666666666,4bd7323632a29521b002d6b8,SUBWAY,39.99232320250646,-75.09982423029732,Sandwich Place
39.99088692,-75.09843888,666.6666666666666,4b941141f964a520926534e3,Popeyes Louisiana Kitchen,39.99276708185517,-75.09763231930089,Fried Chicken Joint
39.99088692,-75.09843888,666.6666666666666,4d5a7bd6fe7c224b023d83b5,Swiacki Meats,39.98871286981397,-75.0919660380283,Butcher
39.99088692,-75.09843888,666.6666666666666,4ef4e6f40e61358da5fdaa09,Aramingo Shopping District,39.98794141186185,-75.10242279821946,Department Store
39.99088692,-75.09843888,666.6666666666666,579cda96498e975fa69b086b,MoJu's Family Pizzeria,39.988402,-75.102274,Pizza Place
39.99088692,-75.09843888,666.6666666666666,589b8e0a51d19e538d8f809f,Ross Dress for Less,39.99215316772461,-75.10127258300781,Clothing Store
39.99088692,-75.09843888,666.6666666666666,4bd87b66f645c9b6c40ba8e0,Burger King,39.99371943913911,-75.09453792390161,Fast Food Restaurant
39.99088692,-75.09843888,666.6666666666666,4df622be483bdb5e137ccea1,AT&T,39.99342142485701,-75.0978934764862,Mobile Phone Shop
39.99088692,-75.09843888,666.6666666666666,507b4fd9e4b08ac08f088d72,Kensington Pub,39.99566339270278,-75.10242691456094,Bar
39.99088692,-75.09843888,666.6666666666666,4dd2777d814d415b769440b6,Checkers,39.99354457819219,-75.09761761788516,Fast Food Restaurant
39.99088692,-75.09843888,666.6666666666666,4af75999f964a520a50822e3,Taco Bell,39.993680411704155,-75.09569438520096,Fast Food Restaurant
39.99088692,-75.09843888,666.6666666666666,4dcd8546d4c065592f67b05d,Wells Fargo Bank,39.991331570513296,-75.10148495435715,Bank
39.99088692,-75.09843888,666.6666666666666,4c38a3db18e72d7f32aa18f5,Dollar Tree,39.99484465360661,-75.09593702752929,Discount Store
39.99088692,-75.09843888,666.6666666666666,4b0d7238f964a520834823e3,ShopRite of Aramingo Avenue,39.994494914970005,-75.09221388420424,Grocery Store
39.99088692,-75.09843888,666.6666666666666,4cd04daef6378cfaae53b4d6,Citizens Bank,39.993089000000005,-75.098965,Bank
39.99088692,-75.09843888,666.6666666666666,4bf7055b5ec320a1823986d3,GameStop,39.99393852036119,-75.09177488704162,Video Game Store
39.99088692,-75.09843888,666.6666666666666,4f17311de4b0a0515b1addf8,Cricket Wireless,39.992939,-75.097041,Mobile Phone Shop
39.99088692,-75.09843888,666.6666666666666,4af432c3f964a52087f021e3,Forman Mills,39.99316781765185,-75.09860410553222,Clothing Store
39.99088692,-75.09843888,666.6666666666666,53968478498e1d03a75770e8,7-Eleven,39.9902856,-75.1039755,Convenience Store
39.99088692,-75.09843888,666.6666666666666,4d41f0e6aed776eb1bb86997,Domino's Pizza,39.99243878961336,-75.10048019949461,Pizza Place
39.99088692,-75.09843888,666.6666666666666,4ba684a0f964a520475a39e3,Applebee's Grill + Bar,39.99312103169282,-75.09274950826158,American Restaurant
39.99088692,-75.09843888,666.6666666666666,4e4e2911bd4101d0d7a3a581,Taco Bell,39.99249267578125,-75.09800720214844,Fast Food Restaurant
39.99088692,-75.09843888,666.6666666666666,4cfa6472084f5481fbd27a09,Penske Truck Rental,39.99155,-75.104446,Rental Service
39.99088692,-75.09843888,666.6666666666666,4bfbd1428d30d13ac82d0418,T-Mobile,39.9952256,-75.09531090000002,Mobile Phone Shop
39.99088692,-75.09843888,666.6666666666666,4e31c42f2fb6ede816e35264,Redbox,39.995263,-75.09344,Video Store
39.99088692,-75.09843888,666.6666666666666,4dac5c26bd4197f68356ae31,APlus at Sunoco,39.99101648,-75.10203093,Coffee Shop
39.99088692,-75.09843888,666.6666666666666,4b6997aff964a520cda82be3,Boston Market,39.99464517632344,-75.09525412566063,American Restaurant
39.99088692,-75.09843888,666.6666666666666,40b28c80f964a52024fa1ee3,Crazy Leprechaun,39.98766690202914,-75.09204644121456,Bar
39.99088692,-75.09843888,666.6666666666666,4c8ea7e81664b1f7862ba22f,Little Caesars Pizza,39.9950241247399,-75.09551134270527,Pizza Place
39.99088692,-75.09843888,666.6666666666666,4b886d7cf964a520fef631e3,Petco,39.99038083906025,-75.10330721280799,Pet Store
39.99088692,-75.09843888,666.6666666666666,4e4e250dbd4101d0d7a3495f,KFC,39.99406084999589,-75.09497403663886,Fried Chicken Joint
39.99088692,-75.09843888,666.6666666666666,4bd8c67fe914a5933d7c54fa,IHOP,39.99217114039244,-75.10007589459403,American Restaurant
39.99088692,-75.09843888,666.6666666666666,4d43294b08d16dcbc7b77854,Hair Attraction,39.99147695470997,-75.10122720945768,Cosmetics Shop
39.99088692,-75.09843888,666.6666666666666,4ce5d793595cb1f786eab814,Columbia Social Club,39.98941966293305,-75.09583406071005,Bar
39.99088692,-75.09843888,666.6666666666666,53b16c7b11d217881a95801a,Rainbow Shops,39.992323999999996,-75.101069,Women's Store
39.99088692,-75.09843888,666.6666666666666,4c09264d7e3fc928fe6cf182,T-Mobile,39.99274716674598,-75.10080973129308,Mobile Phone Shop
39.99088692,-75.09843888,666.6666666666666,4c781d0a2d3ba14346d289d0,Pearle Vision,39.991716,-75.101828,Optical Shop
39.99088692,-75.09843888,666.6666666666666,4ac53393f964a520edb020e3,Santucci's Square Pizza V,39.994169956148596,-75.09717390300244,Pizza Place
39.99088692,-75.09843888,666.6666666666666,4af756d7f964a520890822e3,McDonald's,39.99460189859843,-75.09368143512347,Fast Food Restaurant
39.99088692,-75.09843888,666.6666666666666,4cffd2fcf7b38cfa6fa0cbc3,Hecker's,39.98976405691189,-75.09397935368824,Deli / Bodega
39.99088692,-75.09843888,666.6666666666666,4c1fe669b4e62d7fe257e093,Sally's Beauty Supply,39.99418773111248,-75.0955304568648,Cosmetics Shop
39.99088692,-75.09843888,666.6666666666666,4bdb55093904a593c6dc499e,Bonks Crabs,39.988151412821836,-75.09271336854592,Sushi Restaurant
39.99088692,-75.09843888,666.6666666666666,4ebdd28c10810143d31105fa,The Law Offices of David M. Offen,39.99604341321342,-75.09683132171631,Lawyer
39.99088692,-75.09843888,666.6666666666666,59f8fd10029a550e78ee7b40,Abv% Beverage,39.985736,-75.095888,Beer Store
39.99088692,-75.09843888,666.6666666666666,4dc54effd22dafda2fa07019,Crossfit Renaissance,39.98943243367056,-75.09115089878082,Gym
39.99088692,-75.09843888,666.6666666666666,4cc34b0c3d7fa1cd39c7a45f,Joyce Leslie,39.993873048197166,-75.09177812979964,Women's Store
39.995382920000004,-75.10575894240499,666.6666666666666,4edbfa45b8f7fcd04234308e,Shoprite,39.994651093100224,-75.10921030232556,Supermarket
39.995382920000004,-75.10575894240499,666.6666666666666,5b64c5efa42362002cd1e146,dollar general,39.992141,-75.109415,Discount Store
39.995382920000004,-75.10575894240499,666.6666666666666,4e54d19188770c1e522e5764,7-Eleven,39.9986426988558,-75.1088221371173,Convenience Store
39.995382920000004,-75.10575894240499,666.6666666666666,4fd7b78e0e1dbab2f37ff7e6,Family Dollar,39.992277,-75.110722,Discount Store
39.995382920000004,-75.10575894240499,666.6666666666666,4f6cca8fe4b05c9c2a3f1d23,Ontario Corner Store,39.994755,-75.10455,Deli / Bodega
39.995382920000004,-75.10575894240499,666.6666666666666,4bf434b3ff90c9b633f85428,Walgreens,39.99643177126796,-75.11265903711313,Pharmacy
39.995382920000004,-75.10575894240499,666.6666666666666,4dac5c27bd4197f68356ae49,APlus at Sunoco,39.99174915238511,-75.1095465271712,Coffee Shop
39.995382920000004,-75.10575894240499,666.6666666666666,4f18a471e4b0674effe91550,Crispy Pizza,39.99467145299792,-75.10936425802252,Pizza Place
39.995382920000004,-75.10575894240499,666.6666666666666,531a102d498e7ff6e660d989,Yay Clay,39.99300123442056,-75.10857737177774,Arts & Crafts Store
39.995382920000004,-75.10575894240499,666.6666666666666,4c66bbb3f7a80f477ac29e7a,The Ceramic shop,39.9927864074707,-75.1082992553711,Arts & Crafts Store
39.995382920000004,-75.10575894240499,666.6666666666666,4c6eb79ac524370433c52beb,Diamond Furniture,39.999411,-75.108468,Furniture / Home Store
39.995382920000004,-75.10575894240499,666.6666666666666,4cb716b386e09eb0dcac62e2,Dunkin',39.99591759615822,-75.11250809991316,Donut Shop
39.995382920000004,-75.10575894240499,666.6666666666666,4db6f2724df05e5aab1106e3,J&J Restaurant,39.997766,-75.111411,Diner
39.995382920000004,-75.10575894240499,666.6666666666666,539c3a64498e71ce2a572613,Allegheny & Kensington Ave. Septa 60 bus stop,39.99617495407665,-75.11297362093856,Bus Stop
39.995382920000004,-75.10575894240499,666.6666666666666,4b4c017af964a520ecac26e3,SEPTA MFL Allegheny Station,39.9963411441796,-75.11336135171508,Metro Station
39.99088692,-75.11307900480996,666.6666666666666,4e26c39b483b329ccb3da06a,Cricket Wireless Authorized Retailer,39.996390999999996,-75.113802,Mobile Phone Shop
39.99088692,-75.11307900480996,666.6666666666666,4ed059fe77c8ea62fc1031aa,Bravo Pizza,39.994905,-75.116531,Pizza Place
39.99088692,-75.11307900480996,666.6666666666666,4f1314a0e4b0d59e21a5e2f0,Koolae,39.995878999999995,-75.114087,American Restaurant
39.99088692,-75.11307900480996,666.6666666666666,4eddf4d42c5b50aba2becaa6,Quick Stop 24/7,39.994381205383334,-75.11792281896658,Convenience Store
39.99088692,-75.11307900480996,666.6666666666666,4e4e2fc8bd4101d0d7a445a7,Four Sons Pizzeria,39.99594613261161,-75.11451883647408,Pizza Place
39.99088692,-75.11307900480996,666.6666666666666,4c5da942d25320a1d59fc67a,Kensington Diner / Restaurant,39.993084,-75.119197,Diner
39.99088692,-75.11307900480996,666.6666666666666,4c2b5f49b34ad13ad4a1e9ce,La Mixteca Grocery,39.986767,-75.108609,Food & Drink Shop
39.99088692,-75.11307900480996,666.6666666666666,4fc910c7e4b032a186a030ba,Rainbow Apparel,39.99620256349738,-75.11450676380633,Clothing Store
39.99088692,-75.11307900480996,666.6666666666666,4c13facc82a3c9b61680fcf8,Gallery Isada,39.993712,-75.10655200000001,Art Gallery
39.99088692,-75.11307900480996,666.6666666666666,4f44863819836ed00194adf5,Laberintos De Pasion Rest,39.996412,-75.11558,Food
39.99088692,-75.11307900480996,666.6666666666666,4d954d612bd6f04d97231c50,No 1 China,39.985043,-75.113401,Chinese Restaurant
39.99088692,-75.11307900480996,666.6666666666666,4e8fa42961afcfde298d07c6,Crown Fried Chicken,39.996819,-75.114075,American Restaurant
39.995382920000004,-75.12039906721495,666.6666666666666,4fd7b7910e1dbab2f37ffa34,Family Dollar,39.998209,-75.12464399999999,Discount Store
39.995382920000004,-75.12039906721495,666.6666666666666,4ec87ecd77c8be4923ebfc3d,The Heart of Kensington,39.99149734381849,-75.12112717108968,Art Gallery
39.995382920000004,-75.12039906721495,666.6666666666666,4d062ea88620224b3eebb140,Rite Aid,39.9973138,-75.123454,Pharmacy
39.995382920000004,-75.12039906721495,666.6666666666666,4f734ae7e4b091e4ee22c58d,Pizza House Express,39.997632,-75.120132,Pizza Place
39.995382920000004,-75.12039906721495,666.6666666666666,507dbbcee4b01e98511c51c7,Sneaker Villa,39.995283341998686,-75.11543113376945,Shoe Store
39.995382920000004,-75.12039906721495,666.6666666666666,4b47bbddf964a520663c26e3,SEPTA MFL Somerset Station,39.991434598065105,-75.1225731490212,Metro Station
39.995382920000004,-75.12039906721495,666.6666666666666,4d0920ae05216dcbcfff1eb6,Steak & beer,39.991058,-75.122826,Sandwich Place
39.995382920000004,-75.12039906721495,666.6666666666666,4f32adc819836c91c7ef2106,Kitchen Express,39.999921,-75.115444,Food
39.995382920000004,-75.12039906721495,666.6666666666666,4ceaca38f865370461edbec4,Cousins market,39.99869926980146,-75.12680884798863,Market
39.99088692,-75.12771912961992,666.6666666666666,4ca0e87e542b224b33190aa0,Thang Long Noodle,39.98830333154431,-75.12834003015816,Vietnamese Restaurant
39.99088692,-75.12771912961992,666.6666666666666,4c7c1338a86837047446184d,Thanh Thanh Cafe,39.988255707190376,-75.12835442172964,Vietnamese Restaurant
39.99088692,-75.12771912961992,666.6666666666666,4c658382e1da1b8de26298c3,Freddy & Tony's,39.99558283846876,-75.12982207005267,Spanish Restaurant
39.99088692,-75.12771912961992,666.6666666666666,4d8d2743d4ec8cfabcb75289,One Pound Cheese Steak,39.98977539009226,-75.12537943434114,American Restaurant
39.99088692,-75.12771912961992,666.6666666666666,4d2d03b279bc721ef3c4e7ee,One Pound Cheese Steaks Inc.,39.990049953474276,-75.12576253356028,Sandwich Place
39.99088692,-75.12771912961992,666.6666666666666,4f32434519836c91c7c64a94,Fiores Pizza,39.988926,-75.127238,Food
39.99088692,-75.12771912961992,666.6666666666666,51b4b188498e2cb8837d9f2d,Cafe Pho Ga,39.98831668193908,-75.12821984770922,Vietnamese Restaurant
39.99088692,-75.12771912961992,666.6666666666666,4cd6f280dfb4a1cd50c2615c,El Principe,39.991209999999995,-75.131463,Spanish Restaurant
39.99088692,-75.12771912961992,666.6666666666666,4db78b956e81c67f61bb61ba,China King,39.991336,-75.13245,Chinese Restaurant
39.99088692,-75.12771912961992,666.6666666666666,4dc42e30887717c88002eb24,Betty Bu Beauty Supplies,39.991512298583984,-75.13388061523438,Cosmetics Shop
39.99088692,-75.12771912961992,666.6666666666666,4b71cbc4f964a520e75c2de3,Isla Nena Restaurant,39.991514,-75.13414499999999,Restaurant
39.99088692,-75.12771912961992,666.6666666666666,4c9cf24d54c8a1cdc2067f4b,McDonald's,39.99105019326321,-75.13533163560624,Fast Food Restaurant
39.99088692,-75.12771912961992,666.6666666666666,4dff72f9c65b10468962d086,El Rincon Latino,39.991111755371094,-75.13468933105469,Food
39.99088692,-75.12771912961992,666.6666666666666,4e29f118aeb745b1fab30bd6,B Train,39.986712672755644,-75.13223926989666,Train Station
39.99088692,-75.12771912961992,666.6666666666666,4c9b3856eaa5a14312acd2e4,Lehigh Avenue & North 2nd Street,39.991407089962316,-75.13486973941326,Intersection
39.99088692,-75.12771912961992,666.6666666666666,59b58ef45d891b3e555a0305,Flip Out Productions,39.988083,-75.121061,Gymnastics Gym
39.995382920000004,-75.1350391920249,666.6666666666666,4ae9f1e2f964a520dab721e3,Freddy And Tony's,39.99920534890349,-75.13339774763976,Caribbean Restaurant
39.995382920000004,-75.1350391920249,666.6666666666666,4cbb13f50180721e09739d61,Olympia Resaurant,39.998692971700706,-75.13024825915127,Breakfast Spot
39.995382920000004,-75.1350391920249,666.6666666666666,4bfc0f07b5cd2d7fa30331fb,Popeyes Louisiana Kitchen,39.991568,-75.13805500000001,Fried Chicken Joint
39.995382920000004,-75.1350391920249,666.6666666666666,4bcf43e1caff9521c8d3ccf0,Taller Puertorriqueño - Bookstore & Gallery,39.992706,-75.13978,Art Gallery
39.995382920000004,-75.1350391920249,666.6666666666666,4b7b702af964a520a0632fe3,Isla Verde,39.99211527223426,-75.13576705583509,Latin American Restaurant
39.995382920000004,-75.1350391920249,666.6666666666666,4d34e03b2e56236a86d732b4,Watts Fitness Center,39.99284008577903,-75.14036678038947,Gym
39.995382920000004,-75.1350391920249,666.6666666666666,4c111c4eb93cc9b6a8cf57e0,Checkers,39.99125046021602,-75.13565157246681,Fast Food Restaurant
39.995382920000004,-75.1350391920249,666.6666666666666,4bfecba9c30a2d7f3805101d,Wendy’s,39.99067701696071,-75.13585376436822,Fast Food Restaurant
39.995382920000004,-75.1350391920249,666.6666666666666,5c1bd2f8f193c000384ea469,Wells Fargo ATM,39.99867557456233,-75.12905806303024,ATM
39.995382920000004,-75.1350391920249,666.6666666666666,4bcdef4e0687ef3beebee1cc,Rite Aid,39.9911157,-75.1370029,Pharmacy
39.995382920000004,-75.1350391920249,666.6666666666666,4c61d49f79d1e21e33b7d415,KFC,39.99935515112716,-75.13292395398463,Fried Chicken Joint
39.995382920000004,-75.1350391920249,666.6666666666666,4dcab704fa7684db0907a1bd,Taqueria La Raza,39.999428,-75.134237,Mexican Restaurant
39.995382920000004,-75.1350391920249,666.6666666666666,4dde6cdcb0fbc2c4ef026bfc,Fine Fare Supermarket,39.991537,-75.132112,Grocery Store
39.995382920000004,-75.1350391920249,666.6666666666666,4ce6ddc98ef78cfa37548f9b,Fine fare supermarket,39.999482,-75.138926,Supermarket
39.995382920000004,-75.1350391920249,666.6666666666666,4dd4521ad4c0e6b33e39dfae,Allegheny Avenue & North 5th Street,39.99974094435991,-75.13852357864378,Intersection
39.995382920000004,-75.1350391920249,666.6666666666666,4db08d88432d3c2e96865e9c,Rivera Park - Power 99 Parks & Rec,40.00054168701172,-75.13740539550781,Park
39.995382920000004,-75.1350391920249,666.6666666666666,568282b6498e48cbd2f417a4,Front & Allegheny,39.99863815307617,-75.12908172607422,Bus Stop
39.995382920000004,-75.1350391920249,666.6666666666666,4bb9cbc11261d13a70d7e998,New Quality Restaurant And Pizzeria,39.998738,-75.128956,American Restaurant
39.995382920000004,-75.1350391920249,666.6666666666666,4d39b2ec039eb60c3c51e49c,Josie New Era Barbershop,39.999096,-75.128958,Cosmetics Shop
39.99088692,-75.14235925442988,666.6666666666666,4c9d74ba542b224b82aeea9f,3 Elements,39.98836241732627,-75.13543905587723,Other Nightlife
39.99088692,-75.14235925442988,666.6666666666666,547facf0498ec559eadffb07,Family Dollar,39.99332046508789,-75.14432525634766,Discount Store
39.99088692,-75.14235925442988,666.6666666666666,545e4dbc498ed803ac4d87ce,Save-A-Lot,39.99345583594928,-75.14422483367284,Grocery Store
39.99088692,-75.14235925442988,666.6666666666666,4cb716b786e09eb0e6ac62e2,Dunkin',39.99208722535595,-75.14184182331354,Donut Shop
39.99088692,-75.14235925442988,666.6666666666666,5ce48c913731ee002c68fdee,TD Bank,39.992859,-75.1439094,Bank
39.99088692,-75.14235925442988,666.6666666666666,5603402d498eba16c9dc7bee,Burger King,39.9929446888863,-75.144689977169,Fast Food Restaurant
39.99088692,-75.14235925442988,666.6666666666666,4cc305b406c254815f938d47,Family Dollar,39.992596999999996,-75.147638,Discount Store
39.99088692,-75.14235925442988,666.6666666666666,5d0035f97c891c002da3d228,Fit Girl Army,39.98698806762695,-75.14701843261719,Gym / Fitness Center
39.995382920000004,-75.14967931683486,666.6666666666666,4cc255da01fb236ab9a49eba,Insomnia Cookies,39.99460334826692,-75.15205551966828,Dessert Shop
39.995382920000004,-75.14967931683486,666.6666666666666,4ca348505720b1f7d23d30ef,Dollar General,39.99350272404468,-75.15263697152253,Discount Store
39.995382920000004,-75.14967931683486,666.6666666666666,4d5bf0f61ef2f04da579efcd,Shibe Park/Connie Mack Stadium,39.99658290124414,-75.15412479442709,Historic Site
39.995382920000004,-75.14967931683486,666.6666666666666,4b8d3c1df964a520fbee32e3,Sunny's Diner,39.990971,-75.154702,Diner
39.995382920000004,-75.14967931683486,666.6666666666666,4cc74a0d76749eb0a2afc6f7,GameStop,39.99699724354,-75.15402686364382,Video Game Store
39.995382920000004,-75.14967931683486,666.6666666666666,50f976e1e4b04ae2b522cb28,Cricket Wireless,39.997276,-75.154071,Mobile Phone Shop
39.995382920000004,-75.14967931683486,666.6666666666666,4e38a2bfbd415d9f63d7070d,Dunkin',39.9941291809082,-75.1538314819336,Donut Shop
39.995382920000004,-75.14967931683486,666.6666666666666,4c87a6cad92ea093c0cb7772,Wells Fargo Bank,39.99655094948738,-75.15364050865173,Bank
39.995382920000004,-75.14967931683486,666.6666666666666,4cca00609b934688eee94b41,APlus at Sunoco,39.99365766634056,-75.1549150742197,Coffee Shop
39.995382920000004,-75.14967931683486,666.6666666666666,4d41f0e5aed776eb85b76997,Domino's Pizza,39.993455,-75.154688,Pizza Place
39.995382920000004,-75.14967931683486,666.6666666666666,515c82d2f0e417244277b958,KFC,39.99977216153856,-75.15372784984572,Fried Chicken Joint
39.995382920000004,-75.14967931683486,666.6666666666666,4cb529d8b315a09356e39276,Taco Bell,39.999708159694784,-75.1537597344543,Fast Food Restaurant
39.995382920000004,-75.14967931683486,666.6666666666666,4d78c4394b30a143740f98cb,North Philadelphia Train Station,39.997022447181216,-75.1551280693637,Train Station
39.995382920000004,-75.14967931683486,666.6666666666666,50896710e4b08e1817fb1f71,Germantown and Glenwood Avenue,39.99924053725276,-75.14754634464192,Gourmet Shop
39.995382920000004,-75.14967931683486,666.6666666666666,4c23670b13c00f4776f188de,Amtrak 2151,39.99951972988979,-75.14749503849417,Train
39.995382920000004,-75.14967931683486,666.6666666666666,4daf658a0cb6ead7fdce7817,Crabs Plus,39.993960245788145,-75.15586912060648,Seafood Restaurant
39.995382920000004,-75.14967931683486,666.6666666666666,4cf186f97bf3b60c8f52607f,Amtrak Acela Express,40.000165,-75.14742,Train
39.99088692,-75.15699937923985,666.6666666666666,560af7ba498e58f05c1ef9dc,Dunkin',39.98913799598834,-75.15593696334378,Donut Shop
39.99088692,-75.15699937923985,666.6666666666666,4c97654d38dd8cfa7730e362,Temple Rainbow,39.986144,-75.156616,Breakfast Spot
39.99088692,-75.15699937923985,666.6666666666666,4b6a40cef964a52062cf2be3,Rite Aid,39.985911,-75.1557911,Pharmacy
39.99088692,-75.15699937923985,666.6666666666666,4feee9e5e4b0283e9aa8dbf2,SEPTA: North Philadelphia Transportation Center,39.992546548569095,-75.15426730546132,Platform
39.99088692,-75.15699937923985,666.6666666666666,4d0f9f3338bb6ea87aa9bfaa,Broad Street & Lehigh Avenue,39.993945182123525,-75.15453703242997,Intersection
39.99088692,-75.15699937923985,666.6666666666666,4b2c3c2cf964a52054c424e3,SEPTA BSL Susquehanna-Dauphin Station,39.98707152190908,-75.15618860721587,Metro Station
39.99088692,-75.15699937923985,666.6666666666666,4b490407f964a520196226e3,SEPTA North Broad Station,39.99191460100578,-75.15398736981015,Train Station
39.99088692,-75.15699937923985,666.6666666666666,4e2b7520fa76bbf847da3ebd,Broad Street & Susquehanna Avenue,39.986283907847465,-75.15621475875378,Intersection
39.99088692,-75.15699937923985,666.6666666666666,4ee31902490138df8be75212,China Bowl,39.98687856520475,-75.16011014670096,Chinese Restaurant
39.99088692,-75.15699937923985,666.6666666666666,4e8b68ca2c5bb8eed8074afa,Halal Steaks,39.99532699584961,-75.15384674072266,Food
39.99088692,-75.15699937923985,666.6666666666666,4c45cc1e2d3ec9b68fbd30ae,Corner Store,39.98682212040547,-75.15249445901188,Deli / Bodega
39.995382920000004,-75.16431944164482,666.6666666666666,4be2045cae55a593976b5c62,PJRD Warehouse,39.99928457410474,-75.16131412548103,Skating Rink
39.995382920000004,-75.16431944164482,666.6666666666666,4e22218d8130e92fc6a47b6b,Rite Aid,39.996363,-75.16596,Drugstore
39.995382920000004,-75.16431944164482,666.6666666666666,4cc762a5456e9eb07c49c33e,GameStop,39.996604,-75.166586,Video Game Store
39.995382920000004,-75.16431944164482,666.6666666666666,4e0b1c0ad164e3547c2d9604,2ne2 Restaurant,39.999443,-75.167015,Breakfast Spot
39.995382920000004,-75.16431944164482,666.6666666666666,4bc8a2778b7c9c74518d38cf,Denise's Delicacies,39.99913832807007,-75.16688601590532,Bakery
39.995382920000004,-75.16431944164482,666.6666666666666,4d8e874f1716a143797135f7,PA Wine & Spirits,39.998981,-75.166568,Liquor Store
39.995382920000004,-75.16431944164482,666.6666666666666,4cf7f72f71538cfa3580be2e,Daves meat market,39.997890999999996,-75.166794,Market
39.995382920000004,-75.16431944164482,666.6666666666666,59156fc82e26802b9b93d972,Save A Lot,39.9965629,-75.1661205,Grocery Store
39.995382920000004,-75.16431944164482,666.6666666666666,4f479bc2e4b0c8395e9d5201,Citizens Bank,39.99977484688673,-75.16694694757462,Bank
39.995382920000004,-75.16431944164482,666.6666666666666,4f58bf897b0c6b1c02929bfb,An-Noor:31,39.999113616443566,-75.16706996976339,Boutique
39.995382920000004,-75.16431944164482,666.6666666666666,4c7960102d3ba14343058ed0,Fingers Wings & Pizza,40.00091896,-75.16635258,Wings Joint
39.99088692,-75.1716395040498,666.6666666666666,4da5ef3443a17958beb0047f,Rite Aid,39.991852,-75.1788972,Drugstore
39.99088692,-75.1716395040498,666.6666666666666,4c9f9b71542b224b3ff6fe9f,Save-A-Lot,39.99103927612305,-75.17884063720703,Grocery Store
39.99088692,-75.1716395040498,666.6666666666666,4d93b2399892a1cd3d239169,Diamond Street & North 23rd Street,39.98662248538982,-75.17119221389294,Intersection
39.99088692,-75.1716395040498,666.6666666666666,4e5c2c641f6e89370a24c596,Reyburn Park,39.99149336100074,-75.16577780499452,Park
39.995382920000004,-75.17895956645478,666.6666666666666,4c8c1756c37a6dcb6937f47a,Bob's Crab Shack,39.99732840344691,-75.17976126407186,Seafood Restaurant
39.995382920000004,-75.17895956645478,666.6666666666666,4cb8c172a33bb1f7149e83fd,KFC,39.991305697759934,-75.17958589508913,Fried Chicken Joint
39.995382920000004,-75.17895956645478,666.6666666666666,4c70497bd7fab1f7f81a5ec9,Cumberland Street & North 30th Street,39.994173510182975,-75.18088571727276,Intersection
39.995382920000004,-75.17895956645478,666.6666666666666,4c7ac19adf08a1cd79c9de5d,Somerset Street & North 28th Street,39.998411027412494,-75.17659954726696,Intersection
39.995382920000004,-75.17895956645478,666.6666666666666,4ca6ac47d971b1f78ee902e1,Panda Chinese & American Food,39.992601,-75.18198199999999,Chinese Restaurant
39.995382920000004,-75.17895956645478,666.6666666666666,4da25934bf22a1431ff9b0f8,New Shanghai Chinese,39.991440000000004,-75.180035,Chinese Restaurant
39.995382920000004,-75.17895956645478,666.6666666666666,4f32055719833175d60a6fc6,Mom's Seafood,39.991391,-75.180044,Seafood Restaurant
39.995382920000004,-75.17895956645478,666.6666666666666,4cceba40ba0a5481da714a59,Kingston Breakfast,39.990894,-75.180126,Breakfast Spot
39.995382920000004,-75.17895956645478,666.6666666666666,4e625a0cfa76cd64ce31ab14,Strawberry Square mall,39.99155146360046,-75.18252597186604,Shopping Mall
39.995382920000004,-75.17895956645478,666.6666666666666,4e728c6d8877982db9c5f626,Lehigh Avenue & North 33rd Street,39.997869732339154,-75.18502300818955,Intersection
39.99088692,-75.18627962885977,666.6666666666666,4a86ba12f964a520240120e3,Edgely Ballfields,39.99129242704038,-75.19146396345513,Baseball Field
39.99088692,-75.18627962885977,666.6666666666666,4c07fc93009a0f477562e5bf,Dell Music Center,39.99606809602318,-75.1890076374874,Music Venue
39.99088692,-75.18627962885977,666.6666666666666,4c9fa01f54c8a1cd3fc4984b,Historic Strawberry Mansion,39.99450521128345,-75.1902899470378,History Museum
39.99088692,-75.18627962885977,666.6666666666666,50379d05e4b0901d6b4776d3,Cricket Wireless Authorized Retailer,39.991618,-75.179909,Mobile Phone Shop
39.99088692,-75.18627962885977,666.6666666666666,4bc68677424195212f64041d,SEPTA: Dauphin Loop,39.991865008706995,-75.18619221877324,Bus Station
39.99088692,-75.18627962885977,666.6666666666666,4d40741a34f42d43e6794385,"SEPTA 33rd and Dauphin Loop (7, 33, 54)",39.99200614660121,-75.186158023093,Bus Station
39.99088692,-75.18627962885977,666.6666666666666,4c545ffa06901b8d6e5cb44b,Mander Playground,39.98925480411921,-75.18773245654302,Playground
39.99088692,-75.18627962885977,666.6666666666666,4e0909a7fa767637fd340ea8,New Star Pizza,39.99179630662352,-75.18219697293635,Pizza Place
39.99088692,-75.18627962885977,666.6666666666666,4d9c517233caf04dba7ed7c5,Cumberland Street & North 33rd Street,39.994809488442506,-75.18568553030491,Intersection
39.99088692,-75.18627962885977,666.6666666666666,516e93f7e4b01af0690548b1,fairmount park Diamond drive,39.99089305486501,-75.19166343138829,Park
39.99088692,-75.18627962885977,666.6666666666666,4e694526c65b7df1edaf9664,Pj Steaks,39.989625,-75.18042700000001,American Restaurant
39.99088692,-75.18627962885977,666.6666666666666,4dc1c224c65bd0dbc08fef29,Edgley Softball Field #3,39.99026187746047,-75.19294571917084,Baseball Field
39.99088692,-75.18627962885977,666.6666666666666,4f484127e4b0c8395f796c6e,Kitchen 89 Deli Cold Beer,39.991621103505494,-75.19393164884991,Convenience Store
39.99088692,-75.18627962885977,666.6666666666666,4c5efe2c6147be9a96459609,Checkers,39.99207369000257,-75.17938143173508,Fast Food Restaurant
39.98356685759502,-75.09843888,666.6666666666666,40b28c80f964a5201ffa1ee3,Byrne's Tavern,39.98415493056724,-75.09899656525549,Wings Joint
39.98356685759502,-75.09843888,666.6666666666666,56eeca80498eaa1cd86d85e7,The River Wards Cafe,39.98204937250129,-75.10330563496208,Coffee Shop
39.98356685759502,-75.09843888,666.6666666666666,5c8ae2b4b5cb76002c805a00,Lunar Inn,39.982303,-75.103167,Beer Bar
39.98356685759502,-75.09843888,666.6666666666666,40b28c80f964a52027fa1ee3,Donna's Bar,39.983270000000005,-75.102074,Bar
39.98356685759502,-75.09843888,666.6666666666666,4bcc9587511f95210a40b3c7,Wawa,39.98365,-75.100714,Convenience Store
39.98356685759502,-75.09843888,666.6666666666666,4bd1dc36046076b04ea87271,Primo Hoagies,39.98288108468295,-75.10469555854797,Sandwich Place
39.98356685759502,-75.09843888,666.6666666666666,4b9fed58f964a520044b37e3,Syrenka Luncheonette,39.982628999999996,-75.101703,Polish Restaurant
39.98356685759502,-75.09843888,666.6666666666666,4b9fec94f964a520c54a37e3,Krakus Polish Market,39.982645831707536,-75.10247792053856,Grocery Store
39.98356685759502,-75.09843888,666.6666666666666,4d09511d790fa093aefec773,Campbell Square,39.98627069555513,-75.1034853250587,Park
39.98356685759502,-75.09843888,666.6666666666666,4c35b928a0ced13a2a2c1a6e,APlus At Sunoco,39.98324752707042,-75.10110510037609,Coffee Shop
39.98356685759502,-75.09843888,666.6666666666666,4eecc78b4901dff306835a7e,Szypula's,39.984639456633815,-75.09901468118252,Bakery
39.98356685759502,-75.09843888,666.6666666666666,4d8112006bd8b60c9b4f557c,Allegheny Pediatrics,39.985184999999994,-75.10301700000001,Health & Beauty Service
39.98356685759502,-75.09843888,666.6666666666666,4db17d275da32cf2df5ca378,Marian's Bakery,39.98564620232479,-75.10318880666165,Dessert Shop
39.98356685759502,-75.09843888,666.6666666666666,4d9fcefd4977236a8f55b696,Corner Bar,39.981573507844836,-75.1040068228238,Bar
39.98356685759502,-75.09843888,666.6666666666666,4ee382db0e011d52453cfba9,Westway Terminals,39.97884089172315,-75.09814790911962,Harbor / Marina
39.98356685759502,-75.09843888,666.6666666666666,4f885b77e4b060b7f66ae6ad,Pulaski Park,39.97808901434782,-75.09665385669109,Park
39.988062857595025,-75.10575894240499,666.6666666666666,57f98005498e22530c36b415,Gaul & Co. Malt House,39.98614822740856,-75.10662235806447,Bar
39.988062857595025,-75.10575894240499,666.6666666666666,4e7fd0106c259cc1d0e98d32,Sean Thornton's Public House,39.98804664547678,-75.10578939479952,Bar
39.988062857595025,-75.10575894240499,666.6666666666666,4e4b10c87d8b6016b1849963,Dollar Global,39.987828,-75.105363,Convenience Store
39.988062857595025,-75.10575894240499,666.6666666666666,4bf079df21072d7f1207208b,Perri's Pizza,39.987237,-75.108506,Pizza Place
39.988062857595025,-75.10575894240499,666.6666666666666,4d7cd3b06152b60c429d9826,Port Richmond Pharmacy,39.98546204835273,-75.1072090485685,Pharmacy
39.988062857595025,-75.10575894240499,666.6666666666666,4d84ef60d5fab60c6182ec9b,Port Richmond Pour House,39.98887021401097,-75.11011149339568,Bar
39.988062857595025,-75.10575894240499,666.6666666666666,4c1da931b306c928060566b7,Library Park ( ann street / almond street),39.982641536228826,-75.10908713763648,Park
39.98356685759502,-75.11307900480996,666.6666666666666,4d8a59fd0c422d4320710131,Aperture Studio Philly,39.98346317509607,-75.11377188914962,Photography Studio
39.98356685759502,-75.11307900480996,666.6666666666666,4a606bd0f964a520c3c01fe3,The Original Tacconelli's Pizzeria,39.980455530137,-75.11306959164378,Pizza Place
39.98356685759502,-75.11307900480996,666.6666666666666,4a6b3791f964a52030ce1fe3,Hinge Cafe,39.979298,-75.111962,Café
39.98356685759502,-75.11307900480996,666.6666666666666,4baa804bf964a5206b6f3ae3,Stock's Bakery,39.97892999626092,-75.11522107051495,Bakery
39.98356685759502,-75.11307900480996,666.6666666666666,4b0d53b2f964a520644623e3,Green Rock Tavern,39.97977061954701,-75.11601675352277,Bar
39.98356685759502,-75.11307900480996,666.6666666666666,52507066498ee0cf71772be5,Cook and Shaker,39.982694502837816,-75.12070207770445,American Restaurant
39.98356685759502,-75.11307900480996,666.6666666666666,4c164e15a9c220a175655a9d,Best Deli,39.979159920246616,-75.11530627302704,Deli / Bodega
39.98356685759502,-75.11307900480996,666.6666666666666,4bc88ba70050b713cd8dba3b,Aramingo's Best Pizza,39.984625,-75.113342,Pizza Place
39.98356685759502,-75.11307900480996,666.6666666666666,4c4a208146240f4790e660f1,3 Fish Pub,39.981572,-75.11359200000001,Pub
39.98356685759502,-75.11307900480996,666.6666666666666,4c24eeadf7ced13a56aa236d,Olde Philly Pharmacy,39.980973,-75.109787,Pharmacy
39.98356685759502,-75.11307900480996,666.6666666666666,533756d0498ebde29644649f,Villagio Pizza,39.985203999999996,-75.106741,Pizza Place
39.98356685759502,-75.11307900480996,666.6666666666666,4c4f9873f080a593594319e1,Cave of wonders,39.980071,-75.10687176666667,Speakeasy
39.988062857595025,-75.12039906721495,666.6666666666666,5671594338faeb2f6de95f4f,Amalgam Comics & Coffeehouse,39.98512003915126,-75.12436440588034,Coffee Shop
39.988062857595025,-75.12039906721495,666.6666666666666,4bfc64aeda7120a1dd034afd,Franco's Pizza,39.98221942926552,-75.12154390830625,Pizza Place
39.988062857595025,-75.12039906721495,666.6666666666666,4aada5dbf964a520246120e3,Salsa on the Square,39.985436,-75.12122099999999,Bar
39.988062857595025,-75.12039906721495,666.6666666666666,4c17dc422cddb7136e0e831e,Quick Stop,39.98397177263241,-75.12551166871344,Deli / Bodega
39.988062857595025,-75.12039906721495,666.6666666666666,4b3923f8f964a520055725e3,Pop's Skate Park,39.984180760137384,-75.12395057143435,Skate Park
39.988062857595025,-75.12039906721495,666.6666666666666,5d594a80311a7a0007c959b3,Hello Donuts,39.984468,-75.124437,Donut Shop
39.988062857595025,-75.12039906721495,666.6666666666666,4d1fd2e0756e8cfad9b06654,Primo's Pizza,39.983109000000006,-75.123049,Pizza Place
39.98356685759502,-75.12771912961992,666.6666666666666,57548f56498e78899bf9eae8,Urban Axes Philadelphia,39.98396500264233,-75.1288987416957,Athletics & Sports
39.98356685759502,-75.12771912961992,666.6666666666666,5664d7ff498eb2bfb2d90c97,Martha,39.98223735439098,-75.12811574269342,Bar
39.98356685759502,-75.12771912961992,666.6666666666666,4a56261df964a5208cb41fe3,Philadelphia Brewing Company,39.98283960886178,-75.12732616875618,Brewery
39.98356685759502,-75.12771912961992,666.6666666666666,5527b111498e00d18e3aee35,Franny Lou's Porch,39.983498176170215,-75.12937879357015,Café
39.98356685759502,-75.12771912961992,666.6666666666666,4a9b5d0ff964a520013520e3,Atlantis: The Lost Bar,39.98234047431338,-75.12686182383922,Bar
39.98356685759502,-75.12771912961992,666.6666666666666,4e35980ba8092599ee067c28,Pizza Brain,39.980759391426865,-75.12828499368885,Pizza Place
39.98356685759502,-75.12771912961992,666.6666666666666,4b803e63f964a520376030e3,Circle Thrift,39.9803087508665,-75.12855838802544,Thrift / Vintage Store
39.98356685759502,-75.12771912961992,666.6666666666666,5bae8971dbde110025da5234,Tired Hands Biergarten,39.979804689610255,-75.12914245557845,Beer Garden
39.98356685759502,-75.12771912961992,666.6666666666666,4cec1ef8b997548172341045,Soup Kitchen Cafe,39.97984093249575,-75.12971809260642,Café
39.98356685759502,-75.12771912961992,666.6666666666666,5266d1c7498e09b08e7418a5,F.A.N Hair Shop Photo,39.983105849674054,-75.12607241757775,Salon / Barbershop
39.98356685759502,-75.12771912961992,666.6666666666666,5cce0511d41bb7002c42d3d2,Circles + Squares,39.981163,-75.12326,Pizza Place
39.98356685759502,-75.12771912961992,666.6666666666666,49bac96ef964a520aa531fe3,Memphis Taproom,39.98034176413913,-75.12318587076385,Bar
39.98356685759502,-75.12771912961992,666.6666666666666,4c6d5f70e13db60cac86d8b1,Mighty Mick's Gym,39.982810974121094,-75.1324462890625,Athletics & Sports
39.98356685759502,-75.12771912961992,666.6666666666666,554bfd65498e1edf55537eeb,Five Sisters,39.97985555051538,-75.1331687012539,Ice Cream Shop
39.98356685759502,-75.12771912961992,666.6666666666666,4f71c5fee4b0711285d97a15,Liberty Choice,39.979671700513634,-75.13314402262183,Convenience Store
39.98356685759502,-75.12771912961992,666.6666666666666,5781202d498e81c4234ad362,Riverwards Produce Market,39.97818872962198,-75.1299822661742,Market
39.98356685759502,-75.12771912961992,666.6666666666666,562d413a498e2fe302761a76,The Monkey Club,39.982438975359166,-75.12845530742092,Dive Bar
39.98356685759502,-75.12771912961992,666.6666666666666,5abbb4d435d3fc1bb6970c8f,Over Easy Breakfast Club,39.977881189837284,-75.12951096842778,Breakfast Spot
39.98356685759502,-75.12771912961992,666.6666666666666,4c1189b717002d7f6873e609,Jovan's,39.979335999999996,-75.125438,Eastern European Restaurant
39.98356685759502,-75.12771912961992,666.6666666666666,4c112a078c26b7135ab3070b,Norris Square Park,39.98113919117992,-75.13400742043156,Park
39.98356685759502,-75.12771912961992,666.6666666666666,4bf81b088d30d13ac91e0018,Kensington Kinetic Sculpture Derby,39.97983996911522,-75.13114462888369,Sculpture Garden
39.98356685759502,-75.12771912961992,666.6666666666666,4ee58c3a93adf8e1a8af12af,The Nut Hut,39.97854935420311,-75.13048466971054,Dive Bar
39.98356685759502,-75.12771912961992,666.6666666666666,4e66d05fc65be127eea8297e,Emerald Street Lounge,39.98558,-75.12818399999999,Convention Center
39.98356685759502,-75.12771912961992,666.6666666666666,5197cc44498ecb04b4caf631,Record Lady,39.98446273803711,-75.12443542480469,Music Store
39.98356685759502,-75.12771912961992,666.6666666666666,51bcb792498ed21d52c98e91,Steaks N Shakes,39.98499,-75.12431,Burger Joint
39.98356685759502,-75.12771912961992,666.6666666666666,4e8ff2112c5b7295bba77b39,Hotbox Studios,39.982397810509525,-75.13203204728254,Music Venue
39.98356685759502,-75.12771912961992,666.6666666666666,4d3203f898336dcb10db1ef0,Live In Color,39.985271999999995,-75.131905,Clothing Store
39.98356685759502,-75.12771912961992,666.6666666666666,51991027498e965e84e1b6c8,Riding The El Train,39.98491081780004,-75.13214805010209,Light Rail Station
39.98356685759502,-75.12771912961992,666.6666666666666,4c7dd835b53db1f7f87e9e11,Ming River Chinese Restaurant,39.98311233520508,-75.13298034667969,Chinese Restaurant
39.98356685759502,-75.12771912961992,666.6666666666666,5327785d498e3a1a3117fea1,Fusion Tumbling and Fitness,39.980273,-75.132273,Gymnastics Gym
39.98356685759502,-75.12771912961992,666.6666666666666,4dd70e501838b8561cddb873,Famous Italian Ices,39.987854999999996,-75.123734,Dessert Shop
39.98356685759502,-75.12771912961992,666.6666666666666,4ea1ad148b81a02f89412f36,Kensington Mini Market,39.988932165139,-75.12734753406836,Snack Place
39.98356685759502,-75.12771912961992,666.6666666666666,51a3946f498ebbacf694197e,Frankford Avenue & Lehigh Avenue,39.98702219996429,-75.12234717607498,Intersection
39.988062857595025,-75.1350391920249,666.6666666666666,4bba6da27421a59357ccc340,Olympia Sports,39.985473999999996,-75.132359,Shoe Store
39.988062857595025,-75.1350391920249,666.6666666666666,57b309f538fa63172aba3e31,Father & Son Auto Repair,39.982346,-75.137125,Auto Garage
39.98356685759502,-75.14235925442988,666.6666666666666,4b70baeef964a520eb2b2de3,Cousin's Supermarket,39.98087928029774,-75.14376755679349,Grocery Store
39.98356685759502,-75.14235925442988,666.6666666666666,4dc32356c65b89d3ca34203c,Kurth's Seafood,39.985363,-75.147913,Seafood Restaurant
39.98356685759502,-75.14235925442988,666.6666666666666,4b05d44af964a52013e422e3,SEPTA Temple University Station,39.98133813162732,-75.14955319998191,Train Station
39.98356685759502,-75.14235925442988,666.6666666666666,4d04d25a37036dcb552413fb,Septa: West Trenton Regional Rail train,39.98136355636295,-75.14945218511745,Train Station
39.98356685759502,-75.14235925442988,666.6666666666666,512e0a61e4b0a2342028fb7b,American & York,39.987287484528366,-75.13719356580918,Campground
39.98356685759502,-75.14235925442988,666.6666666666666,4cd62c84fb595481bff7e250,No 1 Kitchen,39.989131927490234,-75.14115142822266,Chinese Restaurant
39.98356685759502,-75.14235925442988,666.6666666666666,59bee2ae446ea65ecd8a4c62,Blazin Flavorz,39.988494,-75.1468,Dessert Shop
39.988062857595025,-75.14967931683486,666.6666666666666,4ac0dd38f964a520c19420e3,Annenberg Hall,39.98398887545419,-75.154719859077,Office
39.988062857595025,-75.14967931683486,666.6666666666666,4ee286fe9911340c370ce433,Rican Land,39.990608568741294,-75.14259807482578,Smoke Shop
39.98356685759502,-75.15699937923985,666.6666666666666,4ba10cecf964a520a59237e3,Liacouras Walk,39.9817897613978,-75.15618324279785,College Quad
39.98356685759502,-75.15699937923985,666.6666666666666,4c8e323f88ba9521a6abcd62,Temple Performing Arts Center,39.98148450965245,-75.15692644449433,Performing Arts Venue
39.98356685759502,-75.15699937923985,666.6666666666666,4c36220c1e06d13a49b2733e,The Creperie At Temple,39.98295274619055,-75.15435085597088,Creperie
39.98356685759502,-75.15699937923985,666.6666666666666,4b572665f964a5205f2828e3,Richie's Deli and Pizza,39.980977252884415,-75.1535769766765,Deli / Bodega
39.98356685759502,-75.15699937923985,666.6666666666666,4adca64df964a520472e21e3,"""Sexy"" Green Truck",39.98092522396936,-75.15972823102696,Food Truck
39.98356685759502,-75.15699937923985,666.6666666666666,4b2545fcf964a5201e6f24e3,The Liacouras Center,39.97999000854592,-75.15883396623958,College Basketball Court
39.98356685759502,-75.15699937923985,666.6666666666666,5359564a498ebcdd21b16ef8,7-Eleven,39.984482,-75.1570756,Convenience Store
39.98356685759502,-75.15699937923985,666.6666666666666,5d63eb844d67cb0008ded9e6,Chick-fil-A,39.97920011096698,-75.15499234199524,Fast Food Restaurant
39.98356685759502,-75.15699937923985,666.6666666666666,4c63250be1621b8d17402553,Temple Track,39.98203755496683,-75.1604578601644,Track
39.98356685759502,-75.15699937923985,666.6666666666666,4b55fde4f964a520c9fa27e3,Tai's Vietnamese Food,39.980923935584705,-75.15354201388296,Vietnamese Restaurant
39.98356685759502,-75.15699937923985,666.6666666666666,4b2a5db4f964a520d4a724e3,Saxbys Coffee,39.98161777609731,-75.15605803308691,Coffee Shop
39.98356685759502,-75.15699937923985,666.6666666666666,543d3884498e88f9b17fc80e,Tropical Smoothie Cafe,39.9777753,-75.1583054,Juice Bar
39.98356685759502,-75.15699937923985,666.6666666666666,56bbd398498ee3e8f6ff6236,Blaze Pizza,39.97949,-75.153364,Pizza Place
39.98356685759502,-75.15699937923985,666.6666666666666,55da0ede498e8095b1b4d556,Pita Chip,39.977988,-75.158446,Mediterranean Restaurant
39.98356685759502,-75.15699937923985,666.6666666666666,505100f6e4b02dee625a2b5f,Maple Star,39.979211,-75.16043499999999,Chinese Restaurant
39.98356685759502,-75.15699937923985,666.6666666666666,5428386e498eb1712de4c9fe,Chipotle Mexican Grill,39.979333,-75.1530332,Mexican Restaurant
39.98356685759502,-75.15699937923985,666.6666666666666,59961d43491be70d5573c2fc,Chick-fil-A,39.978203,-75.157508,Food Service
39.98356685759502,-75.15699937923985,666.6666666666666,59a40e0d4c954c5afe293101,BurgerFi,39.979701,-75.155148,Burger Joint
39.98356685759502,-75.15699937923985,666.6666666666666,569d001d498e4c558ea906e4,Champ's Diner,39.979286,-75.160966,Bistro
39.98356685759502,-75.15699937923985,666.6666666666666,4be736c6910020a1d22ed514,City View Pizza and Grill,39.978838053441436,-75.15968598757566,Pizza Place
39.98356685759502,-75.15699937923985,666.6666666666666,59a483c315173e2a7a83c4c0,WhichWich Sandwiches,39.979645,-75.155131,Sandwich Place
39.98356685759502,-75.15699937923985,666.6666666666666,4b3287b4f964a520e30d25e3,Pub Webb,39.97902027765577,-75.16050243801952,Pub
39.98356685759502,-75.15699937923985,666.6666666666666,4cc3001701fb236a7b9ca2ba,Owl Breakfast & Lunch,39.97884136022962,-75.15914997525648,Breakfast Spot
39.98356685759502,-75.15699937923985,666.6666666666666,59cdbe3fa3061977bc83019a,Insomnia Cookies,39.978386,-75.15723,Dessert Shop
39.98356685759502,-75.15699937923985,666.6666666666666,4bf42fdc94af2d7ff54b3a72,Wagner Free Institute of Science,39.98091730304039,-75.16274086580007,Science Museum
39.98356685759502,-75.15699937923985,666.6666666666666,4aa9208bf964a520135220e3,The Draught Horse Pub & Grill,39.978847618815664,-75.15889433795049,Pub
39.98356685759502,-75.15699937923985,666.6666666666666,4ba0dfc0f964a520c18337e3,The Bagel Hut,39.97994227789161,-75.15631679867906,Bagel Shop
39.98356685759502,-75.15699937923985,666.6666666666666,4c4475f4429a0f47ddbc481e,Eppy's,39.97998071760914,-75.15602303081143,Food Truck
39.98356685759502,-75.15699937923985,666.6666666666666,4e9886d7cc217f441efbe04c,Auntie Annie's,39.97970013177048,-75.15570380947793,Snack Place
39.98356685759502,-75.15699937923985,666.6666666666666,59a483ff8134884bd023e55e,Saladworks,39.9794272,-75.1550024,Salad Place
39.98356685759502,-75.15699937923985,666.6666666666666,54db8074498ea38f92049830,Saige Café,39.9807308982609,-75.1512407329967,Café
39.98356685759502,-75.15699937923985,666.6666666666666,503fd04ae4b01c1808833b88,SUBWAY,39.9823563709744,-75.1557983334997,Sandwich Place
39.98356685759502,-75.15699937923985,666.6666666666666,5ab051d40457b717e39aca2d,Saxby’s Coffee at Alter Hall,39.98012924194336,-75.15599822998047,Coffee Shop
39.98356685759502,-75.15699937923985,666.6666666666666,5182981b498ecc4209953072,Luv'n Spoonful Yogurt Bar,39.97818999301233,-75.1589871979682,Frozen Yogurt Shop
39.98356685759502,-75.15699937923985,666.6666666666666,4f173c7c77162587b9d724d2,U Got Munchies,39.983698810699224,-75.1567639783323,American Restaurant
39.98356685759502,-75.15699937923985,666.6666666666666,4c656872e0c4be9a27068858,T-Mobile,39.97799499943917,-75.15837952505535,Mobile Phone Shop
39.98356685759502,-75.15699937923985,666.6666666666666,4b17ced8f964a5205ec823e3,Qdoba Mexican Grill,39.9785404,-75.158377,Mexican Restaurant
39.98356685759502,-75.15699937923985,666.6666666666666,4b7c2030f964a520767e2fe3,PNC Bank,39.981832,-75.156132,Bank
39.98356685759502,-75.15699937923985,666.6666666666666,4e53c9b9bd415b8727b90f67,The UPS Store,39.97929465548663,-75.15503525733948,Shipping Store
39.98356685759502,-75.15699937923985,666.6666666666666,5db2fd54e391d60008165281,CVS pharmacy,39.97827110133793,-75.15395164489746,Pharmacy
39.98356685759502,-75.15699937923985,666.6666666666666,4adf15a5f964a520747721e3,7-Eleven,39.9820199477974,-75.1560544967651,Convenience Store
39.98356685759502,-75.15699937923985,666.6666666666666,4c54155a5b8395215c96be31,The Conwell Inn,39.9816505897286,-75.15599281878703,Hotel
39.98356685759502,-75.15699937923985,666.6666666666666,4ca4db11f47ea14301f45121,Jazzman's Cafe,39.98037,-75.15607,Café
39.98356685759502,-75.15699937923985,666.6666666666666,4b6b6d65f964a5200d082ce3,Koja Grille,39.978260284643,-75.15827634842911,Asian Restaurant
39.98356685759502,-75.15699937923985,666.6666666666666,4b4e0320f964a52018de26e3,Subway,39.979115036168984,-75.16005761946064,Sandwich Place
39.98356685759502,-75.15699937923985,666.6666666666666,53b1af1d498ee47d2a4437da,Potbelly Sandwich Shop,39.9795332,-75.1535048,Sandwich Place
39.98356685759502,-75.15699937923985,666.6666666666666,4bb4a60c8786ef3bfe746533,Rock Hall,39.979235659003905,-75.15745729862016,College Arts Building
39.98356685759502,-75.15699937923985,666.6666666666666,4b7cc825f964a5204da52fe3,Eddie's Pizza,39.980786807316974,-75.15342477833126,Pizza Place
39.98356685759502,-75.15699937923985,666.6666666666666,4b2a63e1f964a5202fa824e3,Maxi's Pizza & Bar,39.98222396895258,-75.1559100088187,Pizza Place
39.98356685759502,-75.15699937923985,666.6666666666666,4d0106087c563704c7bfb3f0,7-Eleven,39.9790836429215,-75.1596549153345,Convenience Store
39.98356685759502,-75.15699937923985,666.6666666666666,4b267a2df964a520177c24e3,Jimmy John's,39.97845165718918,-75.15930316407129,Sandwich Place
39.98356685759502,-75.15699937923985,666.6666666666666,4c6e9c7c6af58cfa00ba8c17,5 Dollar Foot Long Truck,39.981719032093956,-75.15332673025026,Food Truck
39.98356685759502,-75.15699937923985,666.6666666666666,4b6b6e2bf964a5204b082ce3,Plaza Pizza,39.97829836315943,-75.1582825226495,Pizza Place
39.98356685759502,-75.15699937923985,666.6666666666666,4b9fc379f964a5205f3c37e3,Ali's middle east,39.980922746979665,-75.15347631666558,Middle Eastern Restaurant
39.98356685759502,-75.15699937923985,666.6666666666666,4b367f1af964a520c63625e3,Burger King,39.9779214,-75.1582845,Fast Food Restaurant
39.98356685759502,-75.15699937923985,666.6666666666666,4dcff6bbd4c065592fa419c0,Mecca Hair Studio,39.97866439819336,-75.15929412841797,Cosmetics Shop
39.98356685759502,-75.15699937923985,666.6666666666666,519fa158498e25e1bd144fed,City Gourmet Market & Deli,39.983437,-75.150079,Deli / Bodega
39.98356685759502,-75.15699937923985,666.6666666666666,540a820d498e51456f3f7085,Diamond Hot Yoga,39.98360955534082,-75.15000331948588,Yoga Studio
39.98356685759502,-75.15699937923985,666.6666666666666,5215800b11d2c0f5e750c400,Pizza Fanatic,39.98370284756536,-75.14974109197955,Italian Restaurant
39.98356685759502,-75.15699937923985,666.6666666666666,523a470b11d25ccda764dde4,Pazzo Pazzo,39.978997,-75.16175,Pizza Place
39.988062857595025,-75.16431944164482,666.6666666666666,4bed697091380f4760d49f18,Excuse Me Who Styled That,39.98775863647461,-75.16657257080078,Cosmetics Shop
39.988062857595025,-75.16431944164482,666.6666666666666,4c84a9a7d34ca143b2a64080,Diamond Street & North 21st Street,39.98620375874509,-75.16796886920929,Intersection
39.988062857595025,-75.16431944164482,666.6666666666666,4d95f5d7a2c65481cda5b353,Papi's Store,39.991603999999995,-75.160227,Deli / Bodega
39.988062857595025,-75.16431944164482,666.6666666666666,4ef11aec0aaf411421d8a14c,Cumberland Street & North 17th Street,39.99147284832612,-75.16004428267479,Intersection
39.988062857595025,-75.16431944164482,666.6666666666666,4f7f7edce4b05d42dd45a4ee,BBQ Town,39.992374420166016,-75.1680908203125,BBQ Joint
39.988062857595025,-75.16431944164482,666.6666666666666,4ec6f48df79041351c1e80df,Passing Through,39.993489791651925,-75.16211091365007,Art Gallery
39.98356685759502,-75.1716395040498,666.6666666666666,4d8d27ead265236ab023ec16,Bella's Breakfast & Lunch,39.979673999999996,-75.170736,Southern / Soul Food Restaurant
39.98356685759502,-75.1716395040498,666.6666666666666,4c617e74b6f3be9a56cf6173,Noble's Lunch Truck,39.97857279806816,-75.16835815872037,Food Truck
39.98356685759502,-75.1716395040498,666.6666666666666,4e96889361af7b877185ade7,City Gourmet,39.98001058124263,-75.1778140539608,Deli / Bodega
39.988062857595025,-75.17895956645478,666.6666666666666,4fa9376ee4b01db688c10412,Dollar General,39.98648754861064,-75.1798940463624,Discount Store
39.988062857595025,-75.17895956645478,666.6666666666666,4d26a5b4ebacb1f7eb4ce04f,Island Bar & Grill,39.9866511317425,-75.18048261582267,Bar
39.988062857595025,-75.17895956645478,666.6666666666666,541d8cc5498ee38559acd04f,spinoff laundry,39.992289,-75.175202,Laundromat
39.98356685759502,-75.18627962885977,666.6666666666666,4c698f2f3bad2d7f402eb0ee,King's Water Ice & Ice Cream,39.98256646643467,-75.18818155235522,Dessert Shop
39.98356685759502,-75.18627962885977,666.6666666666666,4cd5c280aeb1224b969324ff,Strawberry Mansion Driving Range,39.98307037779647,-75.1864999795593,Mini Golf
39.98356685759502,-75.18627962885977,666.6666666666666,4a96e896f964a5207b2720e3,Sedgley Woods Disc Golf Course,39.98141798429578,-75.19124299790587,Disc Golf
39.98356685759502,-75.18627962885977,666.6666666666666,4dd0544d7d8b975f18fd702d,Amtrak Train 672,39.9816018254475,-75.18595854814274,Train
39.98356685759502,-75.18627962885977,666.6666666666666,4cfe610a34c1a093bb40550e,Ebauche Envogue Salon,39.980835914611816,-75.18737196922302,Cosmetics Shop
39.98356685759502,-75.18627962885977,666.6666666666666,4bae461ef964a520c19b3be3,FDR Driving Range,39.981532875162884,-75.18907602759536,Golf Driving Range
39.98356685759502,-75.18627962885977,666.6666666666666,53470f44498ecfcd114a3cbf,Baltimore Penn Station,39.98172082622789,-75.18249334274617,Train Station
39.98356685759502,-75.18627962885977,666.6666666666666,4ec8c6d68b81dcfdc5051872,John Coltrane House,39.980317,-75.18857,History Museum
39.98356685759502,-75.18627962885977,666.6666666666666,4ef276850aaf88e5620d93b7,Yuli Deli,39.981595399038554,-75.18213427925089,Chinese Restaurant
39.98356685759502,-75.18627962885977,666.6666666666666,4d3203e92c76a1431e166cc7,Nick's Vegan,39.980102,-75.188579,Vegetarian / Vegan Restaurant
39.98356685759502,-75.18627962885977,666.6666666666666,4ec8c22e77c8be4924305a09,Medicine Man,39.98130600890172,-75.19118470792142,Art Gallery
39.98356685759502,-75.18627962885977,666.6666666666666,5162cad7e4b0656342c8b70d,Oxfod Street Restruant,39.980402,-75.182156,Breakfast Spot
39.98356685759502,-75.18627962885977,666.6666666666666,4f32939619836c91c7e54e35,Twenty Nine Oxford Restaurant,39.980301,-75.182098,Food
39.98356685759502,-75.18627962885977,666.6666666666666,5bafab05cb3fd2002cee2345,The Discovery Center,39.98285,-75.19302,Reservoir
39.98356685759502,-75.18627962885977,666.6666666666666,5ca7c3229fca56002cd24707,Hops Brewerytown,39.977806,-75.1859,Beer Bar
39.97624679519004,-75.09843888,666.6666666666666,51d6f518498e6c2cc82c606b,Port Richmond Trail,39.979276,-75.093602,Trail
39.98074279519005,-75.10575894240499,666.6666666666666,5c1c03336fd626002c53c18e,Nemi,39.981675,-75.109085,Mexican Restaurant
39.98074279519005,-75.10575894240499,666.6666666666666,4f45170e19836ed001988bfc,Fat Mom's Deli and Luncheonette,39.982376,-75.109575,Deli / Bodega
39.98074279519005,-75.10575894240499,666.6666666666666,4c26bbc1905a0f47d8e66360,No. 1 Cafe,39.98313313358634,-75.10174612270542,Chinese Restaurant
39.98074279519005,-75.10575894240499,666.6666666666666,5824ce97df57f375c41669f5,The Dinner House,39.983864,-75.102635,Polish Restaurant
39.98074279519005,-75.10575894240499,666.6666666666666,4eecbc016da1536879ca8e20,Interstate 95 at Exit 25,39.982161758675396,-75.10075002908707,Intersection
39.98074279519005,-75.10575894240499,666.6666666666666,5400ae95498e22333865f730,"Family & Friends Builders, LLC",39.9819419,-75.1118539,Construction & Landscaping
39.98074279519005,-75.10575894240499,666.6666666666666,4daf44d6b3dc78adc07cf094,Monkiewicz Park - Power 99 Parks & Rec,39.983306884765625,-75.09989929199219,Park
39.97624679519004,-75.11307900480996,666.6666666666666,4c1d86e5b489b713c798a9c7,Graffiti Pier,39.97281188694867,-75.11436223983765,Street Art
39.97624679519004,-75.11307900480996,666.6666666666666,54516ab8498e33951cf67aaf,The Richmond Bottle Shop,39.975219544820604,-75.11979115824253,Beer Store
39.97624679519004,-75.11307900480996,666.6666666666666,4a3eeab2f964a5208ea31fe3,Cold Stone Creamery,39.978129,-75.119368,Ice Cream Shop
39.97624679519004,-75.11307900480996,666.6666666666666,50ba83cfe4b04809bdbdbb29,Eatalia BYOB,39.97497432861246,-75.1184394971756,Italian Restaurant
39.97624679519004,-75.11307900480996,666.6666666666666,529a661f498ecb828ce1a08a,Capital Beer,39.9762048074964,-75.11931244911976,Chinese Restaurant
39.97624679519004,-75.11307900480996,666.6666666666666,4a343765f964a520e69b1fe3,Wawa,39.977197,-75.118485,Convenience Store
39.97624679519004,-75.11307900480996,666.6666666666666,57d43336498eb7b15d81a543,IGA Port Richmond,39.97521980719984,-75.1199360472129,Supermarket
39.97624679519004,-75.11307900480996,666.6666666666666,4b17cb55f964a52043c823e3,CVS pharmacy,39.976096346745564,-75.12036880115423,Pharmacy
39.97624679519004,-75.11307900480996,666.6666666666666,4b9d7cc3f964a520e1af36e3,Slack's Hoagie Shack,39.97594859338089,-75.12010921709111,Sandwich Place
39.97624679519004,-75.11307900480996,666.6666666666666,4dacce5c5da32d679daa9dbc,GNC,39.97582065026139,-75.11999655363819,Supplement Shop
39.97624679519004,-75.11307900480996,666.6666666666666,4b9efdb1f964a520c60e37e3,GameStop,39.97572701820723,-75.12022624658178,Video Game Store
39.97624679519004,-75.11307900480996,666.6666666666666,4f43ce32e4b09d14bce73f49,Dollar Tree,39.97471118722799,-75.1200515026821,Discount Store
39.97624679519004,-75.11307900480996,666.6666666666666,4be5d1f9cf200f47dec8133c,Rite Aid,39.977756410885554,-75.11857021222917,Pharmacy
39.97624679519004,-75.11307900480996,666.6666666666666,4d120a0df898b1f739dfd581,Citizens Bank,39.9752468,-75.1195413,Bank
39.97624679519004,-75.11307900480996,666.6666666666666,4bcf9a2877b29c74a07b8982,Family Dollar,39.974989416588826,-75.12037455329131,Discount Store
39.97624679519004,-75.11307900480996,666.6666666666666,4b4f6ad9f964a520ab0527e3,Applebee's Grill + Bar,39.97688031665385,-75.11896838768823,American Restaurant
39.97624679519004,-75.11307900480996,666.6666666666666,4bb5297af562ef3ba1972e97,Arby's,39.9787930868575,-75.1191684686273,Fast Food Restaurant
39.97624679519004,-75.11307900480996,666.6666666666666,4cb716a386e09eb0b6ac62e2,Dunkin',39.9780811882366,-75.11951990178409,Donut Shop
39.97624679519004,-75.11307900480996,666.6666666666666,4e56a6d462e123a7649371cd,Port Richmond Village,39.975244594755345,-75.1198642535377,Shop & Service
39.98074279519005,-75.12039906721495,666.6666666666666,49bacb4bf964a520ad531fe3,Greensgrow Farms,39.9780789079768,-75.1211254334194,Farmers Market
39.98074279519005,-75.12039906721495,666.6666666666666,4d62ba1c5c39b1f781051e4a,Coffee House Too,39.97683008925086,-75.12368091340477,Café
39.98074279519005,-75.12039906721495,666.6666666666666,4a343855f964a520e99b1fe3,Philadelphia Beer Co.,39.97687614092238,-75.12313754778471,Liquor Store
39.98074279519005,-75.12039906721495,666.6666666666666,4ab4515ef964a520d77020e3,2424 Studios,39.977580234578205,-75.1244349703213,Art Gallery
39.98074279519005,-75.12039906721495,666.6666666666666,576b2181498e2dd64bf1a9a3,Medusa,39.97703202733693,-75.12395560804609,Pizza Place
39.98074279519005,-75.12039906721495,666.6666666666666,5b38fd73cf72a0002c6fcc07,Green Eggs Cafe,39.97697566936224,-75.1241136414942,Breakfast Spot
39.98074279519005,-75.12039906721495,666.6666666666666,5f73a4ab262e962a2c8176c0,Starbucks,39.975,-75.121051,Coffee Shop
39.98074279519005,-75.12039906721495,666.6666666666666,4c9e5daad3c2b60c13a7cabc,T-Mobile,39.9748723,-75.1210114,Mobile Phone Shop
39.98074279519005,-75.12039906721495,666.6666666666666,4cf941dca348f04d28b3fc5c,Planet Fitness - Temporarily Closed,39.975389406961035,-75.12104286827957,Gym / Fitness Center
39.98074279519005,-75.12039906721495,666.6666666666666,4e9a188d93ada5036d336155,Xin Ying,39.98314,-75.11498399999999,Asian Restaurant
39.98074279519005,-75.12039906721495,666.6666666666666,5816251938fae85663c09fc9,Bentoulis Pizza,39.983768,-75.115549,Pizza Place
39.98074279519005,-75.12039906721495,666.6666666666666,582876fb7d93993366c313a5,Strong Towers Security LLC,39.9834098815918,-75.11433410644531,Home Service
39.98074279519005,-75.12039906721495,666.6666666666666,53669a9a498eba09bb4b37b9,HFS Parkour Center,39.983733,-75.113874,Gym / Fitness Center
39.97624679519004,-75.12771912961992,666.6666666666666,51eea960498ec97f4f9b8721,ReAnimator Coffee,39.97650155518247,-75.12708523489351,Coffee Shop
39.97624679519004,-75.12771912961992,666.6666666666666,4e7904f262e16455529ea095,Loco Pez,39.97684357384847,-75.127390339885,Mexican Restaurant
39.97624679519004,-75.12771912961992,666.6666666666666,4be59c35d4f7c9b6149e2520,Whipped Bakeshop,39.97465977652156,-75.1275074877607,Bakery
39.97624679519004,-75.12771912961992,666.6666666666666,514a4811e4b0476abf4575f2,Cedar Point Bar and Kitchen,39.97687265307857,-75.12766820028347,Southern / Soul Food Restaurant
39.97624679519004,-75.12771912961992,666.6666666666666,55ca4248498e81c114e55a38,Andy's Chicken,39.977517,-75.128394,Korean Restaurant
39.97624679519004,-75.12771912961992,666.6666666666666,4ab81041f964a520087c20e3,Primo Hoagies,39.97598496993786,-75.12677184778119,Sandwich Place
39.97624679519004,-75.12771912961992,666.6666666666666,4be2f897cbdbef3be88160d8,Kraftwork,39.97149103610161,-75.12734564943315,Bar
39.97624679519004,-75.12771912961992,666.6666666666666,5086f457e4b096937c775bdc,Lloyd Whiskey Bar,39.97133198702904,-75.12744793114754,Whisky Bar
39.97624679519004,-75.12771912961992,666.6666666666666,5a1edb53da708014e41026a4,Suraya,39.97370931831133,-75.13381987519222,Lebanese Restaurant
39.97624679519004,-75.12771912961992,666.6666666666666,57803c7e498e7f187cda6c4b,Evil Genius Beer Company,39.97574794610907,-75.13393643265502,Brewery
39.97624679519004,-75.12771912961992,666.6666666666666,4e83c4c7d22db0f42c6da213,Interstate Drafthouse,39.97183162185396,-75.12874455290672,Pub
39.97624679519004,-75.12771912961992,666.6666666666666,54b2a2a8498e8053a88e432a,Philly Style Bagels,39.974429431270686,-75.13264931290476,Bagel Shop
39.97624679519004,-75.12771912961992,666.6666666666666,5b1c5e30f15b51002cc6eacc,The International,39.97519892181741,-75.13430028127337,Bar
39.97624679519004,-75.12771912961992,666.6666666666666,57e0485f498ee48cf2e0ae2f,honeygrow,39.974539897491454,-75.13417238303865,Restaurant
39.97624679519004,-75.12771912961992,666.6666666666666,4a86e9acf964a5209d0120e3,Sulimay's Restaurant,39.97170947550354,-75.1260183701946,Diner
39.97624679519004,-75.12771912961992,666.6666666666666,56e20cfc498edbe6857a1b02,Fishtown Social,39.9740344180886,-75.13344676683407,Lounge
39.97624679519004,-75.12771912961992,666.6666666666666,572f8dac498e8539a7bfdf48,the igloo,39.973283,-75.133962,Frozen Yogurt Shop
39.97624679519004,-75.12771912961992,666.6666666666666,515677d0e4b0001cdfee5bc0,The Cow And The Curd,39.97295908585171,-75.13406935588945,Food Truck
39.97624679519004,-75.12771912961992,666.6666666666666,4d94e27e58caa143d63bb625,Xhale Lounge,39.97081286217866,-75.12889783097287,Lounge
39.97624679519004,-75.12771912961992,666.6666666666666,51b07f2a498e9029b320a258,Steap and Grind,39.97461240717548,-75.13301376160932,Coffee Shop
39.97624679519004,-75.12771912961992,666.6666666666666,5bd348a6d41bb7002c49f001,honeygrow,39.974610999999996,-75.13417199999999,Salad Place
39.97624679519004,-75.12771912961992,666.6666666666666,5622cbbf498e6aeb7e1a319e,Heffe Tacos,39.97325633239716,-75.13376381446652,Taco Place
39.97624679519004,-75.12771912961992,666.6666666666666,4f1afb0ee4b0e6badb1d6ff1,Buzz Cafe,39.97735059043818,-75.13499531002864,Café
39.97624679519004,-75.12771912961992,666.6666666666666,554e92e2498eadf2d0790d0d,Tandoor India Fishtown,39.978192,-75.133989,Indian Restaurant
39.97624679519004,-75.12771912961992,666.6666666666666,54ad3f49498e26252e336cae,Gryphon Cafe,39.97420891301459,-75.13499242612316,Café
39.97624679519004,-75.12771912961992,666.6666666666666,40b28c80f964a520b9f91ee3,Les & Doreen's Happy Tap,39.97367040358686,-75.1255811724169,Dive Bar
39.97624679519004,-75.12771912961992,666.6666666666666,4bf1dc04a09076b06cf029d4,J.R.'s Saloon,39.97406455453412,-75.12254944482251,Dive Bar
39.97624679519004,-75.12771912961992,666.6666666666666,4fab0696e4b042012808e6d8,Philadelphia Sculpture Gym,39.978021000000005,-75.13143000000001,Art Gallery
39.97624679519004,-75.12771912961992,666.6666666666666,50ad6fa7e4b0062752849b03,Grady O's Fishtown Pub,39.97284898001936,-75.13411176319919,Dive Bar
39.97624679519004,-75.12771912961992,666.6666666666666,4a6735b7f964a520ffc81fe3,Triangle Dog Park,39.97277962535616,-75.12363359057457,Dog Run
39.97624679519004,-75.12771912961992,666.6666666666666,5bc629c29e0d54002c298b5a,Conoco,39.971676,-75.124915,Gas Station
39.97624679519004,-75.12771912961992,666.6666666666666,4cb716ab86e09eb0caac62e2,Dunkin',39.9723208682956,-75.1256614307581,Donut Shop
39.97624679519004,-75.12771912961992,666.6666666666666,4f4d5ec0e4b0629e7a6e2852,Palmer Dog Depot,39.9760835900667,-75.13314263300066,Dog Run
39.97624679519004,-75.12771912961992,666.6666666666666,4c9a16cec0679eb028a34dd4,Palmer Park,39.974835812747784,-75.1325981391184,Park
39.97624679519004,-75.12771912961992,666.6666666666666,54f65030498ed139bddf85dc,Shenanigan's Saloon,39.974946,-75.134532,Sports Bar
39.97624679519004,-75.12771912961992,666.6666666666666,4da07ccdbb206ea8c5acdcfd,NKCDC Garden Center,39.97742177617703,-75.1314347306783,Farm
39.97624679519004,-75.12771912961992,666.6666666666666,4beecf493686c9b63efc246e,Shissler Playground And Rec Center,39.97736307121421,-75.13234806281731,Baseball Field
39.97624679519004,-75.12771912961992,666.6666666666666,52278fda11d2c377b6415916,Art Of Pizza,39.97053919198126,-75.12970202142056,Pizza Place
39.97624679519004,-75.12771912961992,666.6666666666666,4d319c398250f04dea2debe0,Dan Shissler Recreation,39.97788619995117,-75.13228607177734,Soccer Field
39.97624679519004,-75.12771912961992,666.6666666666666,4d0cd8ed257d6dcb4f539867,The Red Corner,39.973687,-75.123121,Sporting Goods Shop
39.97624679519004,-75.12771912961992,666.6666666666666,4dc409df2271f2705108a1ed,Wilson's Check Cashing,39.972459,-75.124638,Check Cashing Service
39.97624679519004,-75.12771912961992,666.6666666666666,4e7cee0b77c87af77ddb933c,Septa El To FTC,39.97874915978648,-75.1335961581181,Metro Station
39.97624679519004,-75.12771912961992,666.6666666666666,4b760f46f964a520df392ee3,Tommy's Restaurant,39.971046,-75.12865699999999,Pizza Place
39.97624679519004,-75.12771912961992,666.6666666666666,4ecad5b229c26a628369742b,It's Always Funny In Philadelphia HQ,39.97121545009546,-75.12473890133387,Comedy Club
39.98074279519005,-75.1350391920249,666.6666666666666,57c9dc74498e735d53293c66,Fermentery Form,39.97652625045654,-75.13737520510814,Brewery
39.98074279519005,-75.1350391920249,666.6666666666666,53d4475b498ea2e8032fc213,Keystone Mini-Golf and Arcade,39.97627814228616,-75.13735935844541,Mini Golf
39.98074279519005,-75.1350391920249,666.6666666666666,5966baa43149b93dceb7db1a,Alamodak Restaurant,39.97616075856856,-75.13730848437334,Falafel Restaurant
39.98074279519005,-75.1350391920249,666.6666666666666,4b47ba7ff964a5202f3c26e3,SEPTA MFL Berks Station,39.97871839913231,-75.13360863615105,Metro Station
39.98074279519005,-75.1350391920249,666.6666666666666,509ff901e4b0bbf777395ca8,Mid Century Furniture Warehouse,39.976157150874045,-75.13776936111573,Antique Shop
39.98074279519005,-75.1350391920249,666.6666666666666,4c4cef4ce7049c74f1c98565,Old Philadelphia Bar,39.98143161,-75.129502,Dive Bar
39.98074279519005,-75.1350391920249,666.6666666666666,532d949711d23cd675ab41aa,ciclo,39.979412001077286,-75.12968594125041,Athletics & Sports
39.98074279519005,-75.1350391920249,666.6666666666666,4b0c89a0f964a520f53e23e3,Germ Books,39.978599548339844,-75.130126953125,Bookstore
39.98074279519005,-75.1350391920249,666.6666666666666,5f07d3ff58d3a458153d9ac5,Zig Zag BBQ,39.982246,-75.12823,BBQ Joint
39.98074279519005,-75.1350391920249,666.6666666666666,4dcc226c45dd383122953536,Bulk Vintage Warehouse,39.98388193875205,-75.12879319172431,Thrift / Vintage Store
39.98074279519005,-75.1350391920249,666.6666666666666,4b452553f964a520380626e3,The Ox,39.975278164273895,-75.1382267601345,Music Venue
39.97624679519004,-75.14235925442988,666.6666666666666,58b8a03f06f1a31b265b0ff8,Original 13 Ciderworks,39.9745598381846,-75.14005495923229,Brewery
39.97624679519004,-75.14235925442988,666.6666666666666,5e23a7974ea57f000701863e,Human Robot,39.97706,-75.143658,Brewery
39.97624679519004,-75.14235925442988,666.6666666666666,4be5afd22468c92824600043,Philly Homebrew Outlet,39.97369152560158,-75.13963441354737,Hobby Shop
39.97624679519004,-75.14235925442988,666.6666666666666,53f8a5bd498ecc0a79b7557b,ReAnimator Coffee Roastery,39.97244167095113,-75.14115157563333,Café
39.97624679519004,-75.14235925442988,666.6666666666666,4e5e70c952b1425a377177b6,Philadelphia Soundstages,39.97573793568369,-75.14431997334786,Arts & Entertainment
39.97624679519004,-75.14235925442988,666.6666666666666,4ab2bbcaf964a520106c20e3,Crane Arts Building,39.9731943326455,-75.14024049194121,Art Gallery
39.97624679519004,-75.14235925442988,666.6666666666666,4a9e8130f964a520543a20e3,Que Chula Es Puebla,39.97241107148098,-75.1390039762162,Mexican Restaurant
39.97624679519004,-75.14235925442988,666.6666666666666,49c81197f964a520ec571fe3,Taco Riendo,39.971460413774864,-75.14467287666268,Taco Place
39.97624679519004,-75.14235925442988,666.6666666666666,551d51ec498e7ada62d21f08,helm,39.971545,-75.144661,New American Restaurant
39.97624679519004,-75.14235925442988,666.6666666666666,4d5f2b41b19fa14346eee3c8,The Maas Building,39.97206335165034,-75.14545955843917,Music Venue
39.97624679519004,-75.14235925442988,666.6666666666666,4e39b9b2d4c046ee86bd7fc1,Hancock Playground,39.97201251601293,-75.13773445751369,Park
39.97624679519004,-75.14235925442988,666.6666666666666,4cb7818c23a4199cbb02ec89,philadelphia photo arts center,39.97302205779543,-75.14025542889034,Art Gallery
39.97624679519004,-75.14235925442988,666.6666666666666,5b808b46492814002c7b8c7c,Tufas Boulder Lounge,39.975906,-75.14386,Climbing Gym
39.97624679519004,-75.14235925442988,666.6666666666666,5cb344826336be002cc27849,Luna Café,39.976643,-75.140989,Café
39.97624679519004,-75.14235925442988,666.6666666666666,59b539e5791871507c6f9f4d,Usaquén,39.97661,-75.140796,Colombian Restaurant
39.97624679519004,-75.14235925442988,666.6666666666666,5be76c47d1a402002c58d15f,Sutton’s,39.97714,-75.143585,Restaurant
39.97624679519004,-75.14235925442988,666.6666666666666,4d75a071bd735481b10e0bb3,Tie Factory,39.977457150088185,-75.14352628038732,Men's Store
39.97624679519004,-75.14235925442988,666.6666666666666,5d3ce3bda8b76a000806bb91,Sunflower Philly,39.977654,-75.14376,Beer Garden
39.97624679519004,-75.14235925442988,666.6666666666666,4ec15d544690d2338a0ac2e1,Benson Park,39.97346459925616,-75.1432083052136,Park
39.97624679519004,-75.14235925442988,666.6666666666666,4d3ef4956b3d236a7e627764,Hong Kong Garden,39.97661209106445,-75.13838195800781,Chinese Restaurant
39.97624679519004,-75.14235925442988,666.6666666666666,4c59a9e067ac0f4770ca044c,Happ's,39.97612,-75.138348,American Restaurant
39.97624679519004,-75.14235925442988,666.6666666666666,4f15e82be4b0d3f8a9e6dcbf,Second State Press,39.973388671875,-75.1404800415039,Art Gallery
39.97624679519004,-75.14235925442988,666.6666666666666,4e7f4bb16da1080fa27b08c4,Barrys Home Brew,39.97371495837858,-75.13968139728314,Gourmet Shop
39.97624679519004,-75.14235925442988,666.6666666666666,4daf0851b3dcd1a46a0b52cc,Cruz Park - Power 99 Parks & Rec,39.973687643588185,-75.14539147204854,Park
39.97624679519004,-75.14235925442988,666.6666666666666,4ce5bc06f8653704c2269ec4,El Greco,39.973835,-75.138892,Pizza Place
39.97624679519004,-75.14235925442988,666.6666666666666,4bc6661651b376b08f931b6f,Cruz Recreation,39.97335102832237,-75.14540993162858,Baseball Field
39.97624679519004,-75.14235925442988,666.6666666666666,4f7ccd9ee4b0a665d187ab86,5th And Master Ballfield,39.97331792869065,-75.14540857431315,Baseball Field
39.97624679519004,-75.14235925442988,666.6666666666666,58b1f9f6e786b23ff81b3c95,3 Ala Modak,39.97611,-75.137344,Falafel Restaurant
39.97624679519004,-75.14235925442988,666.6666666666666,518661e3498e006970228793,Broad Street Run,39.97855343389466,-75.1486579737395,Athletics & Sports
39.98074279519005,-75.14967931683486,666.6666666666666,4b7cc857f964a52054a52fe3,Orient Express,39.981009477608595,-75.1534077583526,Asian Restaurant
39.98074279519005,-75.14967931683486,666.6666666666666,4b58a2abf964a520bf6228e3,Wall of Food,39.98090533273793,-75.15349842836582,Restaurant
39.98074279519005,-75.14967931683486,666.6666666666666,4d83b6305e70224b70a5fd08,Temple Fruit Salad Truck,39.9768206641336,-75.15033965412641,Food Truck
39.98074279519005,-75.14967931683486,666.6666666666666,4c4f215fea24c9b6d5b5d516,Founder's Garden,39.98119809810668,-75.15563575176945,Garden
39.98074279519005,-75.14967931683486,666.6666666666666,4a721629f964a52051da1fe3,Tomlinson Theater,39.983486209810685,-75.15514423606379,Theater
39.98074279519005,-75.14967931683486,666.6666666666666,50355f4de4b074a23490c6e6,Jefferson Street & North 9th Street,39.97475763201007,-75.15004836772113,Intersection
39.97624679519004,-75.15699937923985,666.6666666666666,4b856203f964a5205a5a31e3,Columbia North YMCA,39.97504205714853,-75.15878571309862,Gym / Fitness Center
39.97624679519004,-75.15699937923985,666.6666666666666,4c085018009a0f470bfae5bf,Barber's Hall,39.977352514274344,-75.15890032295087,Pub
39.97624679519004,-75.15699937923985,666.6666666666666,4b789f7bf964a520a7da2ee3,Freedom Theater,39.97451176492621,-75.15937980338457,Theater
39.97624679519004,-75.15699937923985,666.6666666666666,4e31c4302fb6ede816e39071,Redbox,39.97657,-75.15832,Video Store
39.97624679519004,-75.15699937923985,666.6666666666666,4be366011dd22d7f8ea796bd,Rite Aid,39.9771521,-75.1587666,Pharmacy
39.97624679519004,-75.15699937923985,666.6666666666666,4c1faeff8b3aa593e0d99d5f,Rite Aid,39.9714584,-75.1561223,Drugstore
39.97624679519004,-75.15699937923985,666.6666666666666,4bf55d6998ac0f47430265a8,Citizens Bank,39.976163501326944,-75.15809786011886,Bank
39.97624679519004,-75.15699937923985,666.6666666666666,4b4dead0f964a52004db26e3,The Fresh Grocer,39.97663432521896,-75.15787653598112,Market
39.97624679519004,-75.15699937923985,666.6666666666666,5bfc50be25fb7b003148cb4c,Dollar Tree,39.97059631347656,-75.155029296875,Discount Store
39.97624679519004,-75.15699937923985,666.6666666666666,4becb6fe8bbcc928e6bb8cb1,APlus at Sunoco,39.97341240970692,-75.15923136793153,Coffee Shop
39.97624679519004,-75.15699937923985,666.6666666666666,57c6fb8f498e6cf52ba86dc4,AMC Broadstreet 7,39.977474886216875,-75.15838354823444,Multiplex
39.97624679519004,-75.15699937923985,666.6666666666666,4f0aded1e4b0e624d9892c60,SUBWAY,39.97085548660439,-75.15446682069239,Sandwich Place
39.97624679519004,-75.15699937923985,666.6666666666666,4c3fd9ffff711b8d4fa10f05,Dowling's Palace,39.97370505379282,-75.15944761601709,Performing Arts Venue
39.97624679519004,-75.15699937923985,666.6666666666666,4cc5016ac844721e07c2ec01,BP,39.971996000000004,-75.158842,Gas Station
39.97624679519004,-75.15699937923985,666.6666666666666,4d928d845cf5236a885950a3,Little Caesars Pizza,39.970631243082664,-75.15437299461408,Pizza Place
39.97624679519004,-75.15699937923985,666.6666666666666,4d348ba92e56236a31c52fb4,Popeyes Louisiana Kitchen,39.97052077729675,-75.15504843435859,Fried Chicken Joint
39.97624679519004,-75.15699937923985,666.6666666666666,4f324b0619836c91c7c969fc,KFC,39.97171875369129,-75.1598948104334,Fried Chicken Joint
39.97624679519004,-75.15699937923985,666.6666666666666,4d621cd39be02c0fb63bf774,Thompson Street & North 10th Street,39.97231856296058,-75.15219748020172,Intersection
39.97624679519004,-75.15699937923985,666.6666666666666,589f57db01f4336068a3cde8,Thunderbird Salvage,39.974173,-75.149911,Thrift / Vintage Store
39.98074279519005,-75.16431944164482,666.6666666666666,57030987498e99b675dde289,Amasi,39.979561548550244,-75.16387475135714,Middle Eastern Restaurant
39.98074279519005,-75.16431944164482,666.6666666666666,504cefdde4b05828d1b4fe62,BallardsBilliardsCenter,39.97995153490684,-75.16756016680682,Athletics & Sports
39.98074279519005,-75.16431944164482,666.6666666666666,4c6e95806af58cfa62a48c17,Oxford Street & Bouvier Street,39.978000655413965,-75.16378743151529,Intersection
39.98074279519005,-75.16431944164482,666.6666666666666,522a4ef111d2b1afcc518272,Oxford Street & North 19th Street,39.97830758370212,-75.16615100204943,Intersection
39.98074279519005,-75.16431944164482,666.6666666666666,4d1e24126e8c370444d2e39f,City Food Market,39.976778,-75.166288,Grocery Store
39.98074279519005,-75.16431944164482,666.6666666666666,4daf31ddb3dc78adc07ca22f,M.L. King Park - Power 99 Parks & Rec,39.98103332519531,-75.16991424560547,Park
39.98074279519005,-75.16431944164482,666.6666666666666,4ef9c167b8f72ebeaa485ed1,Mercado Food Market,39.983175,-75.16922,Deli / Bodega
39.98074279519005,-75.16431944164482,666.6666666666666,4ec6f77fe5fa232a74926902,MLKing Rec. Center,39.98044117716595,-75.17026762290527,Art Gallery
39.98074279519005,-75.16431944164482,666.6666666666666,524c9c2c11d292be75808eff,Martin Luther King Recreation Center,39.98042161344576,-75.17065521279932,Playground
39.98074279519005,-75.16431944164482,666.6666666666666,4ec8c4e64690116a8daa39a8,Freedom Symbol,39.980372,-75.170892,Art Gallery
39.98074279519005,-75.16431944164482,666.6666666666666,4fbefba7e4b0599986f592d8,Cecil B. Moore Avenue & North 22nd Street,39.980364441304296,-75.17090083027665,Intersection
39.98074279519005,-75.16431944164482,666.6666666666666,4dfd0175aeb7594e862224cc,The Right Choice,39.983623,-75.170901,Deli / Bodega
39.97624679519004,-75.1716395040498,666.6666666666666,4d7adeda7ed85481b7f16fd0,The Flying Carpet,39.97122916164123,-75.16766716307825,Lounge
39.97624679519004,-75.1716395040498,666.6666666666666,4dcda6ddae603b786d1bc08c,PA Wine & Spirits,39.97396935877792,-75.17809988781151,Liquor Store
39.97624679519004,-75.1716395040498,666.6666666666666,597bbca7f79faa278180cb09,Dollar Tree,39.97399,-75.17884,Discount Store
39.97624679519004,-75.1716395040498,666.6666666666666,4c2677dd905a0f476a5d6360,Garden's Pizza,39.972318,-75.167579,Pizza Place
39.97624679519004,-75.1716395040498,666.6666666666666,4f418ae1e4b0f6acbc710c4c,Mom's Kitchen Table,39.981167,-75.173017,Restaurant
39.97624679519004,-75.1716395040498,666.6666666666666,4d6ac807994f224bb6c80ceb,Eatible Delights Catering,39.98140519653144,-75.17359060518146,Restaurant
39.97624679519004,-75.1716395040498,666.6666666666666,4e8610c0e5fab0fb114eccb4,Kelly Fieldhouse,39.97332488063959,-75.16564978067645,Basketball Court
39.97624679519004,-75.1716395040498,666.6666666666666,4fe5d05ee4b03c981b3720c7,The.Kind Bus,39.970538,-75.172555,Moving Target
39.97624679519004,-75.1716395040498,666.6666666666666,5e094c5e4cdf390008f17b86,The Greyhound Cafe,39.971255,-75.167528,Vegetarian / Vegan Restaurant
39.98074279519005,-75.17895956645478,666.6666666666666,4f2c2836e4b0c642e583e79f,The 29th & Oxford Restaurant,39.98484420776367,-75.18195343017578,Breakfast Spot
39.98074279519005,-75.17895956645478,666.6666666666666,5564adc2498e5c7f675214c2,Garage Door Squad,39.98409,-75.1745,Construction & Landscaping
39.97624679519004,-75.18627962885977,666.6666666666666,5581468f498e449ab3599366,ALDI,39.975884,-75.1868075,Grocery Store
39.97624679519004,-75.18627962885977,666.6666666666666,51728e70e4b04c63541c0c4a,iMunch,39.975939,-75.186286,Café
39.97624679519004,-75.18627962885977,666.6666666666666,569c1287498eb5f3503e3e7d,SpOt Gourmet Burgers,39.97452463103979,-75.18263388818384,Burger Joint
39.97624679519004,-75.18627962885977,666.6666666666666,58dfdf82a36ecd15df5cc3d2,Pizza Dads,39.974647999999995,-75.182503,Pizza Place
39.97624679519004,-75.18627962885977,666.6666666666666,51edb830498e2e432117a1c5,Rybrew,39.97437923579758,-75.1825098320958,Sandwich Place
39.97624679519004,-75.18627962885977,666.6666666666666,5352ffbc498e614ef2caf795,Crime & Punishment Brewing Co.,39.974380798402606,-75.18085869250694,Brewery
39.97624679519004,-75.18627962885977,666.6666666666666,57e7025b38fa7204f0e016e9,2637brew,39.97424890827338,-75.18022167955291,American Restaurant
39.97624679519004,-75.18627962885977,666.6666666666666,4afef90af964a520563222e3,Lemon Hill Park,39.9716216348043,-75.18700151435877,Park
39.97624679519004,-75.18627962885977,666.6666666666666,54e73d72498ef73903600abe,The Monkey & The Elephant Café,39.974580401264056,-75.182955435364,Café
39.97624679519004,-75.18627962885977,666.6666666666666,4b392e37f964a520bb5725e3,Era,39.97313439449465,-75.18200340189539,Ethiopian Restaurant
39.97624679519004,-75.18627962885977,666.6666666666666,4c75d5b1db52b1f7b6117adc,Septa Trolley Girard & 31st,39.9749824701951,-75.18678188323975,Light Rail Station
39.97624679519004,-75.18627962885977,666.6666666666666,4e2f79bcae60231c032e072e,The Non Stop,39.9747050139577,-75.18393912195654,Deli / Bodega
39.97624679519004,-75.18627962885977,666.6666666666666,4c6c33b469b4ef3b1f004b4e,Girard Mini Market,39.974726916825766,-75.183892682775,Deli / Bodega
39.97624679519004,-75.18627962885977,666.6666666666666,4e6d1ad7fa76fa03588d96b6,Spirit Of Enterprise,39.97356264294541,-75.19068888564354,Sculpture Garden
39.97624679519004,-75.18627962885977,666.6666666666666,4b65c759f964a5202bff2ae3,Ellen Phillips Samuel Memorial Sculpture Garden,39.97341436146806,-75.19068318652776,Sculpture Garden
39.97624679519004,-75.18627962885977,666.6666666666666,4c631755e1621b8d4d172553,Italian Express,39.974364,-75.18028100000001,Pizza Place
39.968926732785064,-75.09843888,666.6666666666666,5fbde5a85e4a23458f2a4a89,Pizza In Style,39.96615171268112,-75.10357975959778,Restaurant
39.97342273278507,-75.10575894240499,666.6666666666666,504acf9ce4b0f0297cb30efd,North Wildwood,39.970511037297435,-75.10379894968311,Beach
39.97342273278507,-75.10575894240499,666.6666666666666,4f25a995e4b0fd183917aa1d,dirt biking,39.97436474875172,-75.1118161248855,Trail
39.97342273278507,-75.10575894240499,666.6666666666666,4e415cc818a875a006ab078c,Conrail Ann Street (Philadelphia) Yard,39.979102,-75.107042,Train Station
39.968926732785064,-75.11307900480996,666.6666666666666,56bf8ef1cd109aa5efe918b4,Crowley Liner & Logistics,39.964297,-75.1084753,Business Service
39.97342273278507,-75.12039906721495,666.6666666666666,40b28c80f964a520baf91ee3,Luke's Bar,39.97884156344093,-75.12372139436694,Bar
39.97342273278507,-75.12039906721495,666.6666666666666,6032ef0050b90453e4e73883,Nifty Fifty’s,39.974514,-75.121084,Diner
39.97342273278507,-75.12039906721495,666.6666666666666,4d7a8bc1a1236dcb0145e15e,Mandee,39.975146,-75.119505,Clothing Store
39.97342273278507,-75.12039906721495,666.6666666666666,4e36ddafd4c06343483c78f5,SEPTA: Route 15 Trolley - Huntingdon,39.9758063597016,-75.11546534481576,Train Station
39.97342273278507,-75.12039906721495,666.6666666666666,5ce339bfd41bb70039ea1d08,Fishtown Diner,39.977207453392914,-75.12397092366696,Diner
39.97342273278507,-75.12039906721495,666.6666666666666,520bf3f6498e9e2ce5d837f2,Aramingo Avenue & Huntingdon Street,39.978881536079065,-75.11860817670822,Intersection
39.97342273278507,-75.12039906721495,666.6666666666666,4b51e591f964a520375a27e3,D&C Deli Grocery,39.972928,-75.128085,Deli / Bodega
39.97342273278507,-75.12039906721495,666.6666666666666,4c24f05dc11dc9b670502624,Hollywood Tans,39.97916116171211,-75.11837192035188,Tanning Salon
39.968926732785064,-75.12771912961992,666.6666666666666,4ac215b0f964a520de9720e3,Milkcrate Cafe,39.97017020067477,-75.13037273094584,Record Shop
39.968926732785064,-75.12771912961992,666.6666666666666,4b38cd5ef964a520865025e3,Johnny's Hots,39.96727811235305,-75.12949475268908,Breakfast Spot
39.968926732785064,-75.12771912961992,666.6666666666666,538bb4ab498ef492b7cb30a1,Stock.,39.96985711915159,-75.13142053479943,Vietnamese Restaurant
39.968926732785064,-75.12771912961992,666.6666666666666,4a888e49f964a520df0620e3,Ekta Indian Cuisine,39.96957277532635,-75.13215707131546,Indian Restaurant
39.968926732785064,-75.12771912961992,666.6666666666666,4c51d7ef384c76b0006aee2a,Sulimay's Barber Shop,39.96983669947407,-75.13165923006771,Salon / Barbershop
39.968926732785064,-75.12771912961992,666.6666666666666,49f33e7ef964a520756a1fe3,Penn Treaty Park,39.9661,-75.12858,Park
39.968926732785064,-75.12771912961992,666.6666666666666,4dc81f4c315170a4221e250a,Frankford Hall,39.96941148084116,-75.13455947752107,Beer Garden
39.968926732785064,-75.12771912961992,666.6666666666666,584b4228c7ec6b17ddd6d0f5,Weckerly's,39.96883388374683,-75.13471759507286,Ice Cream Shop
39.968926732785064,-75.12771912961992,666.6666666666666,40b28c80f964a520b8f91ee3,Johnny Brenda's,39.96899061147213,-75.13425008138374,Bar
39.968926732785064,-75.12771912961992,666.6666666666666,5427166a498e85a2c0b936b3,La Colombe Coffee Roasters,39.97120797191968,-75.13427000683028,Café
39.968926732785064,-75.12771912961992,666.6666666666666,507ad324e4b0c101c709028d,Bottle Bar East,39.97051769303767,-75.13462573962506,Bar
39.968926732785064,-75.12771912961992,666.6666666666666,581e053cc30e677f6b8776d4,Cake Life,39.97046988452994,-75.13457208484088,Bakery
39.968926732785064,-75.12771912961992,666.6666666666666,527532b711d2e7fab0145bb4,Jinxed On Frankford,39.97114423610721,-75.13421846623726,Antique Shop
39.968926732785064,-75.12771912961992,666.6666666666666,4d6151b8d7206ea8cdeffef1,Amrita Yoga And Wellness Center,39.96912581877424,-75.13457024352489,Yoga Studio
39.968926732785064,-75.12771912961992,666.6666666666666,54fbbb5c498e665a500749f9,Kosta's,39.96880389088569,-75.13493660588752,Greek Restaurant
39.968926732785064,-75.12771912961992,666.6666666666666,507428fde4b09fec57b1b524,Fette Sau,39.9692358,-75.134788,BBQ Joint
39.968926732785064,-75.12771912961992,666.6666666666666,4e8d9e16cc217a2e5c192a69,Barcade,39.96755264839301,-75.13459302918925,Bar
39.968926732785064,-75.12771912961992,666.6666666666666,5bb94982e07550002c8ae7b4,R&D,39.968991,-75.134605,Cocktail Bar
39.968926732785064,-75.12771912961992,666.6666666666666,5afe252b295513002c47aa98,Pizza Shackamaxon,39.969103,-75.133774,Pizza Place
39.968926732785064,-75.12771912961992,666.6666666666666,544ec59e498e4d8c2f088582,Kensington Quarters - Restaurant & Butcher,39.97059403676516,-75.13454247978547,American Restaurant
39.968926732785064,-75.12771912961992,666.6666666666666,4ad91ab0f964a520201821e3,Fishtown Tavern,39.97052,-75.134233,Dive Bar
39.968926732785064,-75.12771912961992,666.6666666666666,52e6e03a498e610c8071539b,Sancho Pistola's,39.968855,-75.135199,Mexican Restaurant
39.968926732785064,-75.12771912961992,666.6666666666666,4a62598ff964a520d3c31fe3,Murph's Bar,39.96904010767708,-75.13373082860107,Italian Restaurant
39.968926732785064,-75.12771912961992,666.6666666666666,5519cb16498e2bfe66145928,Joe's Steaks & Soda Shop,39.96898197344018,-75.13444036664868,Sandwich Place
39.968926732785064,-75.12771912961992,666.6666666666666,4a65f777f964a520c7c71fe3,Delicious Boutique,39.96912639486103,-75.13300228337273,Boutique
39.968926732785064,-75.12771912961992,666.6666666666666,52ebdfa3498ee6cf3a9591d0,Falafel Hummus & Juice Bar,39.97021124295509,-75.13039205878566,Mediterranean Restaurant
39.968926732785064,-75.12771912961992,666.6666666666666,539684a2498e94dc38a267a4,7-Eleven,39.965898999115,-75.1324717901783,Convenience Store
39.968926732785064,-75.12771912961992,666.6666666666666,57c061e8498e902a39c2ba27,Warby Parker,39.97136479315381,-75.1341462135315,Optical Shop
39.968926732785064,-75.12771912961992,666.6666666666666,4f2d4c5ae4b04297f719d28c,Parlour Hair & Skin,39.97136731379771,-75.13443872304423,Salon / Barbershop
39.968926732785064,-75.12771912961992,666.6666666666666,50ad8b9be4b0be4ddd7c3195,Calle Del Sabor,39.96856548791802,-75.1347591958821,Food Truck
39.968926732785064,-75.12771912961992,666.6666666666666,4c11b64c6e5dc9b63caeb02d,Bookspace,39.96795543261344,-75.13419804523906,Bookstore
39.968926732785064,-75.12771912961992,666.6666666666666,502d1dfde4b060c1a4487b4e,Street Food Philly,39.966148691614,-75.1343601152622,Food Truck
39.968926732785064,-75.12771912961992,666.6666666666666,4ba7ff27f964a520fdc439e3,EBE Events & Entertainment,39.96560502557637,-75.13323983352387,Concert Hall
39.968926732785064,-75.12771912961992,666.6666666666666,4aac40d2f964a520255d20e3,Anthonys Cafe,39.970036607698994,-75.13121612705218,Bar
39.968926732785064,-75.12771912961992,666.6666666666666,5b9099266fd62600399f1418,Sarvida,39.969672,-75.131555,Filipino Restaurant
39.968926732785064,-75.12771912961992,666.6666666666666,57b63714498e47db3c05eba5,Garage Fishtown,39.96886352343471,-75.13452924222102,Beer Bar
39.968926732785064,-75.12771912961992,666.6666666666666,4e879a6977c8080ee277957a,CrossFit Novem,39.96963893827249,-75.13439446591639,Gym
39.968926732785064,-75.12771912961992,666.6666666666666,52a75b45498e41894f7a9796,Palm Tree Market,39.96900580922036,-75.13406428234799,Deli / Bodega
39.968926732785064,-75.12771912961992,666.6666666666666,597beb80b1538e3fd65eecb1,Fishtown Brewpub,39.9676701688168,-75.13429553905004,Brewery
39.968926732785064,-75.12771912961992,666.6666666666666,51a0e3a8498e4560316248a2,Zynnie Bakes,39.97117233276367,-75.13233184814453,Bakery
39.968926732785064,-75.12771912961992,666.6666666666666,57ca44a2498e50ae9c519d81,El Tlaloc,39.968544739073586,-75.13497583922461,Food Truck
39.968926732785064,-75.12771912961992,666.6666666666666,4c0fcef981e976b010200eeb,Rivers Casino Philadelphia,39.96420509987811,-75.13251292896418,Casino
39.97342273278507,-75.1350391920249,666.6666666666666,56fb2e82498ec4440b0aa2e9,Wm. Mulherin's Sons,39.97180489879118,-75.13512193388114,Italian Restaurant
39.97342273278507,-75.1350391920249,666.6666666666666,54838c0e498e11594c8e025e,Good Spoon Soupery,39.9719539206291,-75.13551466586341,Soup Place
39.97342273278507,-75.1350391920249,666.6666666666666,597397c3851de565cc92bc6d,Cheu Noodle Bar Fishtown,39.972292301802526,-75.13436373725699,Noodle House
39.97342273278507,-75.1350391920249,666.6666666666666,585b0fb9076be150f60a133a,City Fitness,39.9725357043094,-75.13457786765775,Gym / Fitness Center
39.97342273278507,-75.1350391920249,666.6666666666666,5c958f5e2619ee002c1a8470,Pizzeria Beddia,39.970679428720345,-75.13520493089442,Pizza Place
39.97342273278507,-75.1350391920249,666.6666666666666,5601856e498e1f6975784b0c,Front Street Cafe,39.97024360947757,-75.13556955238727,Café
39.97342273278507,-75.1350391920249,666.6666666666666,5e39fb18c1b6e70008a2cfa7,Laser Wolf,39.97060921916222,-75.13654679059982,Israeli Restaurant
39.97342273278507,-75.1350391920249,666.6666666666666,4a624c0ef964a520b3c31fe3,El Bar,39.971817775695264,-75.13532477164699,Dive Bar
39.97342273278507,-75.1350391920249,666.6666666666666,4a3ab563f964a52021a01fe3,Kung Fu Necktie,39.970248,-75.1359322,Dive Bar
39.97342273278507,-75.1350391920249,666.6666666666666,4edf8ac6722e992a3e3cb4ab,Fine Wine & Good Spirits,39.96910528963047,-75.13911178997336,Liquor Store
39.97342273278507,-75.1350391920249,666.6666666666666,55ccc8c2498efae341e35b9c,Street Side,39.96939927540338,-75.13888545124988,Vietnamese Restaurant
39.97342273278507,-75.1350391920249,666.6666666666666,51f8695b498ecf9150c149d4,Saint Lazarus Bar,39.968792,-75.13639,Bar
39.97342273278507,-75.1350391920249,666.6666666666666,5ac41aa38e886a65045a4a8e,Cadence,39.96950564147957,-75.13839112516592,New American Restaurant
39.968926732785064,-75.14235925442988,666.6666666666666,4a664d14f964a5205dc81fe3,One Shot Cafe,39.967631,-75.1407,Café
39.968926732785064,-75.14235925442988,666.6666666666666,56b39f32498e5ac013987bfb,apricot stone,39.96729469501758,-75.14070319776458,Mediterranean Restaurant
39.968926732785064,-75.14235925442988,666.6666666666666,5018607de0e25f079d19ead0,El Camino Real,39.96723890206772,-75.14010202816547,BBQ Joint
39.968926732785064,-75.14235925442988,666.6666666666666,4b6b4c06f964a520f6fe2be3,SEER Interactive,39.96743743,-75.13960811,IT Services
39.968926732785064,-75.14235925442988,666.6666666666666,4b4e8babf964a5200df126e3,Liberty Lands Park,39.96560851465099,-75.14204509032162,Park
39.968926732785064,-75.14235925442988,666.6666666666666,4aa14e88f964a5206c4020e3,The Velvet Lily,39.9672987,-75.1401867,Adult Boutique
39.968926732785064,-75.14235925442988,666.6666666666666,4a5a4159f964a52001ba1fe3,Schmidt's Commons,39.9667,-75.13997,Residential Building (Apartment / Condo)
39.968926732785064,-75.14235925442988,666.6666666666666,592e0c953abcaf023734c696,Urban Village Brewing Company,39.967050420413734,-75.14000367559183,Brewery
39.968926732785064,-75.14235925442988,666.6666666666666,4b5f81a2f964a52053be29e3,Trios fresh italian,39.96966,-75.14291,Pizza Place
39.968926732785064,-75.14235925442988,666.6666666666666,5741053e498e6896a5203266,Poke Bowl,39.96553290820934,-75.1404943395997,Poke Place
39.968926732785064,-75.14235925442988,666.6666666666666,4f8deda1e4b084124a1a9b04,Ortliebs,39.964547608588354,-75.1424950187416,Lounge
39.968926732785064,-75.14235925442988,666.6666666666666,4d446854bbb1a1431a394672,Swag Boutique,39.96505032213104,-75.14046980829544,Gift Shop
39.968926732785064,-75.14235925442988,666.6666666666666,591635d6e57ca6461b9aecae,Love & Honey Fried Chicken,39.96734148961375,-75.13687078011297,Fried Chicken Joint
39.968926732785064,-75.14235925442988,666.6666666666666,4bd5a07dcfa7b713541126da,Café La Maude,39.96421025040534,-75.14441952790673,Café
39.968926732785064,-75.14235925442988,666.6666666666666,4c10561dce640f478de13952,Jerry's Bar,39.96510109416032,-75.138906973813,Bar
39.968926732785064,-75.14235925442988,666.6666666666666,4a3aebbcf964a5206da01fe3,Rustica Pizza,39.96421,-75.14047,Pizza Place
39.968926732785064,-75.14235925442988,666.6666666666666,4bb7e63f3db7b713afbf209a,Las Cazuelas,39.97000839323045,-75.1439827143933,Mexican Restaurant
39.968926732785064,-75.14235925442988,666.6666666666666,55134324498eb766d2fbfb9c,Heritage,39.964595417990765,-75.14074571398977,New American Restaurant
39.968926732785064,-75.14235925442988,666.6666666666666,4a4ee6c1f964a5202faf1fe3,Cantina Dos Segundos,39.96487049573255,-75.1405111980139,Mexican Restaurant
39.968926732785064,-75.14235925442988,666.6666666666666,419e8900f964a5202f1e1fe3,North Third Restaurant,39.963445106697804,-75.14286226635875,American Restaurant
39.968926732785064,-75.14235925442988,666.6666666666666,40b28c80f964a52088f91ee3,Standard Tap,39.964151790856484,-75.14050137804128,Gastropub
39.968926732785064,-75.14235925442988,666.6666666666666,458e9dd5f964a52013401fe3,Honey's Sit 'n Eat,39.96385375077135,-75.14441370766173,Breakfast Spot
39.968926732785064,-75.14235925442988,666.6666666666666,4558f6a4f964a5204f3d1fe3,The Fire,39.96994662705758,-75.14354303885442,Rock Club
39.968926732785064,-75.14235925442988,666.6666666666666,49c83e35f964a52006581fe3,North Bowl,39.96436639172969,-75.14032481715088,Bowling Alley
39.968926732785064,-75.14235925442988,666.6666666666666,4c517ad3ed8895219e954de4,Orianna Hill Dog Park,39.965621246244865,-75.14286076053428,Dog Run
39.968926732785064,-75.14235925442988,666.6666666666666,50609bb1e4b023b9a132b3fa,Philly Phaithful Showroom,39.963746819963056,-75.14441266023377,Clothing Store
39.968926732785064,-75.14235925442988,666.6666666666666,4aa1b278f964a520794120e3,Creep Records,39.96672955555127,-75.13933234765763,Record Shop
39.968926732785064,-75.14235925442988,666.6666666666666,4bc8aebb92b376b053f3513a,City Planter,39.964152009692526,-75.14432255772185,Flower Shop
39.968926732785064,-75.14235925442988,666.6666666666666,4ab657b3f964a520aa7620e3,The Random Tea Room,39.963247251812916,-75.14455798388327,Tea Room
39.968926732785064,-75.14235925442988,666.6666666666666,4a90346cf964a5208a1620e3,Tiffin,39.970424014721544,-75.14873063681557,Indian Restaurant
39.968926732785064,-75.14235925442988,666.6666666666666,57922d30cd1097470db7b619,Bimini Juice Bar,39.96313672518874,-75.14079941614575,Juice Bar
39.968926732785064,-75.14235925442988,666.6666666666666,4fece8c5e4b015d24ebadbef,Circles Contemporary Thai,39.96336864566448,-75.1409057208259,Thai Restaurant
39.968926732785064,-75.14235925442988,666.6666666666666,4af71ce5f964a520010622e3,Cescaphe Ballroom,39.964521991876296,-75.14010667383853,Event Space
39.968926732785064,-75.14235925442988,666.6666666666666,4a33236bf964a520079b1fe3,The Foodery,39.96392272580278,-75.14063556871588,Convenience Store
39.968926732785064,-75.14235925442988,666.6666666666666,5132afb6e4b04a7c70a9ad87,Everybody Hits,39.97044143962422,-75.14628272016365,Athletics & Sports
39.968926732785064,-75.14235925442988,666.6666666666666,534a123f498e94738d926fef,Esquina del Sabor,39.96428468809967,-75.14085930257775,Food Truck
39.968926732785064,-75.14235925442988,666.6666666666666,4de96c84ae60e989233de239,Sculpere,39.96387713163468,-75.14021509683187,Yoga Studio
39.968926732785064,-75.14235925442988,666.6666666666666,5407ccb6498e606849cff526,Bardot Cafe,39.966475206501634,-75.14555149287355,Bar
39.968926732785064,-75.14235925442988,666.6666666666666,4a8adb9ef964a520a20a20e3,Exit Skateshop,39.96362040207492,-75.14075074492571,Board Shop
39.968926732785064,-75.14235925442988,666.6666666666666,5356e225498e7cc23676ede6,Just Cravings,39.965337,-75.140683,Frozen Yogurt Shop
39.968926732785064,-75.14235925442988,666.6666666666666,4c68153c1c91a593770eef07,Dew Inn Restaurant,39.97018794857007,-75.1451725456791,Diner
39.968926732785064,-75.14235925442988,666.6666666666666,4bb7ab5198c7ef3bbc293002,Kaplan's New Model Bakery,39.96491894644496,-75.14250927547354,Bakery
39.968926732785064,-75.14235925442988,666.6666666666666,4ceda933f7ac8eec9dd7e61e,Riehs Florist,39.969893,-75.14540600000001,Flower Shop
39.968926732785064,-75.14235925442988,666.6666666666666,5267f39d498e30c9713ec2a5,Union Taco,39.97037109351869,-75.14871728317289,Taco Place
39.968926732785064,-75.14235925442988,666.6666666666666,4dd737257d8b322663eb58c4,Girard Avenue & North 6th Street,39.9703878847434,-75.14654271304607,Intersection
39.968926732785064,-75.14235925442988,666.6666666666666,5da23b339850d8000717c4e0,Ambassador,39.970760345458984,-75.1479721069336,Restaurant
39.968926732785064,-75.14235925442988,666.6666666666666,4cafc85c39458cfa2b85fd9f,Ukie Club,39.96697235107422,-75.14952850341797,Speakeasy
39.968926732785064,-75.14235925442988,666.6666666666666,4b19d7d3f964a5202de523e3,Media Bureau Studios,39.963234,-75.144317,Performing Arts Venue
39.97342273278507,-75.14967931683486,666.6666666666666,4cb7169f86e09eb0afac62e2,Dunkin',39.97094267362628,-75.15211626334155,Donut Shop
39.97342273278507,-75.14967931683486,666.6666666666666,4ea71ed930f897d8dae1718c,Larry's Famous steaks The Home Of The Belly Filler,39.970485335692395,-75.15206496112174,Pizza Place
39.968926732785064,-75.15699937923985,666.6666666666666,5c05cb40a6ec98002c21a59f,The Met Philadelphia,39.96975368448874,-75.16028599490026,Performing Arts Venue
39.968926732785064,-75.15699937923985,666.6666666666666,4c570dcd12f0d13a5b3d06ad,Dunkin',39.96938329974525,-75.15945460183502,Donut Shop
39.968926732785064,-75.15699937923985,666.6666666666666,5278353b11d247fb9538c9c9,Jimmy G's Steaks,39.96620678790365,-75.16053484292783,Sandwich Place
39.968926732785064,-75.15699937923985,666.6666666666666,562ac902498ee676140a2070,Santucci's Original Square Pizza,39.9652876,-75.1603945,Pizza Place
39.968926732785064,-75.15699937923985,666.6666666666666,4a08b0b4f964a5200b741fe3,Osteria,39.965029,-75.161056,Italian Restaurant
39.968926732785064,-75.15699937923985,666.6666666666666,55fdfa4b498e02b96a8a9572,South Restaurant,39.9643765451612,-75.16133303643504,Southern / Soul Food Restaurant
39.968926732785064,-75.15699937923985,666.6666666666666,554eba55498e01d1a23aa7cb,Lorraine,39.96808023353377,-75.16224522535927,Bar
39.968926732785064,-75.15699937923985,666.6666666666666,49c1d95ff964a520d5551fe3,The Institute Bar,39.962967028895136,-75.15737971425136,Gastropub
39.968926732785064,-75.15699937923985,666.6666666666666,4b7cf360f964a52026aa2fe3,Divine Lorraine Hotel,39.96686357780396,-75.16024125186766,Hotel
39.968926732785064,-75.15699937923985,666.6666666666666,54d97209498ea26459030464,Johnnie Bleu,39.96852544047761,-75.16019699129109,Lounge
39.968926732785064,-75.15699937923985,666.6666666666666,4d85090d02eb5481bbaa3bf5,Sals Seafood,39.96642088889052,-75.16088763420547,Seafood Restaurant
39.968926732785064,-75.15699937923985,666.6666666666666,55be1b1f498e3a3e6a6d3813,Vineyards,39.969993146161706,-75.16305542225041,Coffee Shop
39.968926732785064,-75.15699937923985,666.6666666666666,4b2ea989f964a5208be424e3,ALDI,39.9664329,-75.1601276,Grocery Store
39.968926732785064,-75.15699937923985,666.6666666666666,4bb662176edc76b0f6d9301c,Cameron's Seafood,39.9707094,-75.1601089,Seafood Restaurant
39.968926732785064,-75.15699937923985,666.6666666666666,4f31d837e4b0c190b9a0b656,St. Paul's Community Center,39.96386347591107,-75.15473713157593,Recreation Center
39.968926732785064,-75.15699937923985,666.6666666666666,4fd7b7940e1dbab2f37ffc01,Family Dollar,39.970663,-75.160127,Discount Store
39.968926732785064,-75.15699937923985,666.6666666666666,50bd138de4b088caffad7d69,McDonald's,39.96903350822333,-75.16107918230688,Fast Food Restaurant
39.968926732785064,-75.15699937923985,666.6666666666666,4f2f3ac4e4b0599150f0c659,Larry's Steaks,39.97025,-75.151782,Sandwich Place
39.968926732785064,-75.15699937923985,666.6666666666666,4daf0ae7b3dcd1a46a0b5ed4,East Poplar Recreation Center,39.966856725964675,-75.15128532275389,Recreation Center
39.968926732785064,-75.15699937923985,666.6666666666666,541130c4498e4dd0f421854f,The Laundry Cafe II,39.971102,-75.151107,Laundromat
39.968926732785064,-75.15699937923985,666.6666666666666,4ec8c744b634b2fd75ffded7,Discovery and Pay Attention,39.966526,-75.15085429999999,Art Gallery
39.968926732785064,-75.15699937923985,666.6666666666666,4ad0d0c2f964a52011da20e3,East Poplar Field,39.96851730083785,-75.14991584898513,Baseball Field
