search_spot_lat,search_spot_lon,search_radius,id,Name,Latitude,Longitude,Category
33.50972992,-112.02783288,666.6666666666666,4cccd30c566aa093154424fd,Zinburger,33.510284276278966,-112.0281804674093,Burger Joint
33.50972992,-112.02783288,666.6666666666666,4c8eafbd1664b1f76e76a22f,Seasons 52,33.510501050886965,-112.02669128802876,New American Restaurant
33.50972992,-112.02783288,666.6666666666666,56200179498eab10ed1431e1,The Camby Hotel,33.508675315243174,-112.02934876845575,Hotel
33.50972992,-112.02783288,666.6666666666666,4a395979f964a5205d9f1fe3,True Food Kitchen,33.51036992695967,-112.02774058895494,New American Restaurant
33.50972992,-112.02783288,666.6666666666666,538f7f55498e3f7bfb50cef6,"Frost, A Gelato Shop",33.510359790038635,-112.02788569869647,Ice Cream Shop
33.50972992,-112.02783288,666.6666666666666,413ba880f964a520231b1fe3,The Capital Grille,33.510124899273556,-112.02709582127825,American Restaurant
33.50972992,-112.02783288,666.6666666666666,4a621755f964a5200fc31fe3,Biltmore Fashion Park,33.51071764369468,-112.02846828717877,Shopping Mall
33.50972992,-112.02783288,666.6666666666666,4b788451f964a52098d32ee3,MAC Cosmetics,33.510677990770986,-112.0286257521496,Cosmetics Shop
33.50972992,-112.02783288,666.6666666666666,4b105f83f964a520f26e23e3,lululemon athletica,33.5105686,-112.0278629,Clothing Store
33.50972992,-112.02783288,666.6666666666666,53190dee11d203667cb8e321,Short Leash Hot Dogs,33.51052199310462,-112.02647095308413,Hot Dog Joint
33.50972992,-112.02783288,666.6666666666666,529fe65e11d2400338415a70,Blanco Tacos + Tequila,33.51041243386956,-112.02842640110369,Mexican Restaurant
33.50972992,-112.02783288,666.6666666666666,4b783281f964a5208fbb2ee3,The Red Door Spa,33.5101556,-112.0271989,Spa
33.50972992,-112.02783288,666.6666666666666,4afb1349f964a520e21a22e3,Williams-Sonoma,33.510541717196965,-112.02821843021786,Kitchen Supply Store
33.50972992,-112.02783288,666.6666666666666,4b0defbcf964a520e55223e3,Saks Fifth Avenue,33.5108897566933,-112.02809568175934,Department Store
33.50972992,-112.02783288,666.6666666666666,413ba880f964a520c21b1fe3,MercBar PHX,33.508749906347596,-112.02765612373815,Lounge
33.50972992,-112.02783288,666.6666666666666,4b24519af964a520d36524e3,The Cheesecake Factory,33.510178706137076,-112.02956098881002,American Restaurant
33.50972992,-112.02783288,666.6666666666666,4d02f4c8a26854813a18afbd,Hillstone Restaurant,33.51012988496173,-112.0242363732429,New American Restaurant
33.50972992,-112.02783288,666.6666666666666,4b2430e5f964a5205a6324e3,AMC Dine-in Theatres Esplanade 14,33.508401514840955,-112.0275704546587,Movie Theater
33.50972992,-112.02783288,666.6666666666666,5830a8df9dc8d00576e1c505,SEPHORA,33.510458,-112.026379,Cosmetics Shop
33.50972992,-112.02783288,666.6666666666666,5ab7f7cfe4c45904ee0479e9,Scramble,33.508714,-112.030637,Breakfast Spot
33.50972992,-112.02783288,666.6666666666666,4d2f09345055a35d10fa97ca,Royal at the Biltmore,33.51009546494343,-112.02730196182883,Coffee Shop
33.50972992,-112.02783288,666.6666666666666,5679a010498edff7d23e4467,ARTIZEN,33.50900834588547,-112.029248655777,New American Restaurant
33.50972992,-112.02783288,666.6666666666666,4bd0caf5462cb7137319d907,Origins,33.51053656581881,-112.0287899735121,Cosmetics Shop
33.50972992,-112.02783288,666.6666666666666,4c4282bcff711b8d9dbe1305,Camelback Esplanade,33.508443990596184,-112.02806074999869,Building
33.50972992,-112.02783288,666.6666666666666,53eeda7b498e350b179e1a4e,Ten Handcrafted American Fare & Spirits,33.5085592630151,-112.02727587551807,Lounge
33.50972992,-112.02783288,666.6666666666666,4aff47ddf964a520da3622e3,Petique,33.510775530158256,-112.02648771487691,Pet Store
33.50972992,-112.02783288,666.6666666666666,4d9a00c46df841bd4b897c2b,Louis Vuitton,33.50960922241211,-112.0281982421875,Boutique
33.50972992,-112.02783288,666.6666666666666,413ba880f964a520221b1fe3,California Pizza Kitchen,33.510599,-112.029753,Pizza Place
33.50972992,-112.02783288,666.6666666666666,50aaa32a498e0d2c02666620,Trattoria Del Piero,33.5107275372408,-112.02643060067885,Café
33.50972992,-112.02783288,666.6666666666666,4be474dabcef2d7f329502e5,Macy's,33.5109755,-112.028818,Department Store
33.50972992,-112.02783288,666.6666666666666,4abe50ebf964a5209e8c20e3,Brooks Brothers,33.510694730731615,-112.02707526505472,Clothing Store
33.50972992,-112.02783288,666.6666666666666,4ebf1acdb8f7963bcd6cd1d2,White House Black Market,33.51046745801552,-112.02799770295604,Women's Store
33.50972992,-112.02783288,666.6666666666666,51950982498e685d443dbefa,The Gladly,33.50905536986944,-112.03389294500529,American Restaurant
33.50972992,-112.02783288,666.6666666666666,4dc174501838710f437dbcba,Royal Coffee Bar,33.51077499694306,-112.0264265980776,Coffee Shop
33.50972992,-112.02783288,666.6666666666666,4ab3a4a6f964a520ea6d20e3,Starbucks,33.510955,-112.029218,Coffee Shop
33.50972992,-112.02783288,666.6666666666666,4ab3be54f964a5203e6e20e3,Embassy Suites by Hilton,33.51099877161819,-112.02488154172897,Hotel
33.50972992,-112.02783288,666.6666666666666,4e449994b0fb71d21984ed65,J.Crew,33.5108112,-112.0279564,Clothing Store
33.50972992,-112.02783288,666.6666666666666,4bc8ded7fb84c9b65cec193e,Chase Bank,33.510129,-112.024864,Bank
33.50972992,-112.02783288,666.6666666666666,5a0080fd4186861cd197912d,Press Coffee - Biltmore Center,33.51029468018344,-112.03157067973679,Coffee Shop
33.50972992,-112.02783288,666.6666666666666,50e8908ce4b004b1a46d2118,Julia Baker Confections,33.510544,-112.028083,Dessert Shop
33.50972992,-112.02783288,666.6666666666666,4de16fbbe4cd056f742c4875,Sunglass Hut at Macy's,33.510972017885486,-112.02926164418022,Accessories Store
33.50972992,-112.02783288,666.6666666666666,4ad4a6bff964a52080e820e3,Wells Fargo,33.5107795,-112.030664,Bank
33.50972992,-112.02783288,666.6666666666666,4b5cdd30f964a520184829e3,Hampton Inn by Hilton,33.5062141,-112.0319976,Hotel
33.50972992,-112.02783288,666.6666666666666,4e322bd23151414d4655bf44,BBVA Compass,33.5100112,-112.0219154,Bank
33.51422592,-112.03515294240499,666.6666666666666,50341fbae4b00dd3ac5d5386,Cafe Rio Mexican Grill,33.50880463517953,-112.03595696908945,Mexican Restaurant
33.51422592,-112.03515294240499,666.6666666666666,413ba880f964a5207f1b1fe3,Greekfest,33.510012055647834,-112.03918293541398,Greek Restaurant
33.51422592,-112.03515294240499,666.6666666666666,50259ca6e4b0b57d71491766,Potbelly Sandwich Shop,33.50870149450522,-112.03564976650398,Sandwich Place
33.51422592,-112.03515294240499,666.6666666666666,4b46353bf964a520101a26e3,Ski Pro,33.509626356232616,-112.03593762542393,Sporting Goods Shop
33.51422592,-112.03515294240499,666.6666666666666,4bcca346b6c49c743c1a9491,Wells Fargo Bank,33.50957642743714,-112.03861176967621,Bank
33.51422592,-112.03515294240499,666.6666666666666,50dc80fbe4b052e1b6214083,Dunkin',33.5090488,-112.0356534,Donut Shop
33.51422592,-112.03515294240499,666.6666666666666,4b2a63dcf964a5202da824e3,Wendy’s,33.509612209967344,-112.03752011060715,Fast Food Restaurant
33.51422592,-112.03515294240499,666.6666666666666,4acfdcc8f964a52080d620e3,FedEx Office Print & Ship Center,33.5085782,-112.0357376,Shipping Store
33.51422592,-112.03515294240499,666.6666666666666,4b75f52ef964a52009322ee3,AT&T,33.50958244568556,-112.03842129483485,Mobile Phone Shop
33.51422592,-112.03515294240499,666.6666666666666,5525eb83498ecaf17de5ba27,Tokyo Joe's,33.508373919027555,-112.0357547723453,Asian Restaurant
33.51422592,-112.03515294240499,666.6666666666666,4b1069baf964a520e46f23e3,The UPS Store,33.509706586330125,-112.03971657163493,Shipping Store
33.51422592,-112.03515294240499,666.6666666666666,5749ba2a38faad9e96819eeb,Forever 21 Red,33.50889046791884,-112.03839969905192,Clothing Store
33.51422592,-112.03515294240499,666.6666666666666,4d2e0fdc73e5a09314964ecf,Missouri Avenue & 20th Street,33.51652881924431,-112.03887696681538,Intersection
33.51422592,-112.03515294240499,666.6666666666666,4db33aaaf7b121c29f329050,Thunderbird Trail,33.516523603181824,-112.03002857182669,Trail
33.50972992,-112.04247300480996,666.6666666666666,4ab2ee42f964a520066d20e3,The Parlor Pizzeria,33.50950866744282,-112.04038899140494,Pizza Place
33.50972992,-112.04247300480996,666.6666666666666,4ab6ac14f964a520857820e3,Cost Plus World Market,33.5096398,-112.0436212,Furniture / Home Store
33.50972992,-112.04247300480996,666.6666666666666,4ed4007a7ee5be844f55f46c,Cafe Zupas,33.508822963781526,-112.04150630571858,Salad Place
33.50972992,-112.04247300480996,666.6666666666666,4ae738aef964a52081a921e3,Bluewater Grill,33.510126363697275,-112.04507335130266,Sushi Restaurant
33.50972992,-112.04247300480996,666.6666666666666,4b08a1b2f964a520e00f23e3,Total Wine & More,33.5103597,-112.0457552,Wine Shop
33.50972992,-112.04247300480996,666.6666666666666,4ab29e1df964a520a76b20e3,Arriba Mexican Grill,33.50948810673369,-112.04249464839127,Mexican Restaurant
33.50972992,-112.04247300480996,666.6666666666666,4b1acfc4f964a52056f223e3,Duck & Decanter,33.50761012663001,-112.04480519014164,Sandwich Place
33.50972992,-112.04247300480996,666.6666666666666,5612edae498e413aa7dc2517,Nordstrom Rack,33.507581,-112.042218,Clothing Store
33.50972992,-112.04247300480996,666.6666666666666,4a561b94f964a52073b41fe3,Armadillo Grill,33.50949541119742,-112.0409329696594,American Restaurant
33.50972992,-112.04247300480996,666.6666666666666,55160838498e3df969e4ca4e,Jersey Mike's Subs,33.50879527,-112.0437971,Sandwich Place
33.50972992,-112.04247300480996,666.6666666666666,4b05a88ff964a52064e022e3,Massage Envy - Camelback,33.5103468,-112.0461422,Spa
33.50972992,-112.04247300480996,666.6666666666666,581b8af5195c4b5a43340207,In-N-Out Burger,33.507151206743885,-112.03946690949448,Fast Food Restaurant
33.50972992,-112.04247300480996,666.6666666666666,5604ba6d498e5f7c072e7dd7,The Container Store,33.50832848048277,-112.03834999368362,Furniture / Home Store
33.50972992,-112.04247300480996,666.6666666666666,4b1c59b4f964a5206c0624e3,NYPD Pizza,33.50751311172204,-112.04094211717755,Pizza Place
33.50972992,-112.04247300480996,666.6666666666666,4b1404c6f964a520d99b23e3,Zoës Kitchen,33.50864884572338,-112.04585170923558,Mediterranean Restaurant
33.50972992,-112.04247300480996,666.6666666666666,4a6b279df964a52010ce1fe3,Starbucks,33.506888,-112.041395,Coffee Shop
33.50972992,-112.04247300480996,666.6666666666666,4b0048b1f964a5204f3c22e3,Ulta Beauty – Curbside Pickup Only,33.5078736,-112.0410009,Cosmetics Shop
33.50972992,-112.04247300480996,666.6666666666666,4b4e35cbf964a52065e526e3,PetSmart,33.5074975,-112.0403259,Pet Store
33.50972992,-112.04247300480996,666.6666666666666,5bf0b1c96f0aa2002cdc2c7c,Panera Bread,33.5075273,-112.0398132,Bakery
33.50972992,-112.04247300480996,666.6666666666666,4ab98e8af964a520df7f20e3,Chipotle Mexican Grill,33.510374821624836,-112.0462292432785,Mexican Restaurant
33.50972992,-112.04247300480996,666.6666666666666,4a492ee6f964a52012ab1fe3,Trader Joe's,33.50722703794009,-112.03773875402634,Grocery Store
33.50972992,-112.04247300480996,666.6666666666666,4b96ef4cf964a520e8ee34e3,Smashburger,33.50777953323413,-112.03984533696052,Burger Joint
33.50972992,-112.04247300480996,666.6666666666666,517c4c7de4b0e311d0f3b733,Pizzeria Bianco,33.50730928087134,-112.0374917065958,Pizza Place
33.50972992,-112.04247300480996,666.6666666666666,4b1fc946f964a520092924e3,Einstein Bros Bagels,33.5086555,-112.0456947,Bagel Shop
33.50972992,-112.04247300480996,666.6666666666666,528ce75e11d22bdec3d7a189,"Snooze, an A.M. Eatery",33.508183882396864,-112.03706572744491,Breakfast Spot
33.50972992,-112.04247300480996,666.6666666666666,4bd0ce12b221c9b63775d4d0,European Wax Center,33.51029005381814,-112.04644314331166,Health & Beauty Service
33.50972992,-112.04247300480996,666.6666666666666,52122d3811d2775a7fffdcf2,Whole Foods Market,33.50643857990166,-112.03790656135357,Grocery Store
33.50972992,-112.04247300480996,666.6666666666666,51f5a049498ed9fb1135152e,Chick-fil-A,33.5089005,-112.0472105,Fast Food Restaurant
33.50972992,-112.04247300480996,666.6666666666666,4b5a3ca8f964a52088b628e3,Bed Bath & Beyond,33.507701,-112.0420337,Furniture / Home Store
33.50972992,-112.04247300480996,666.6666666666666,5050352be4b04e8a4c1e58e5,Daily Dose Midtown Bar & Grill,33.50588782981034,-112.04133523113519,Bar
33.50972992,-112.04247300480996,666.6666666666666,572a9261498ed388376c4fe5,Tratto,33.50741511295963,-112.03767431643682,Italian Restaurant
33.50972992,-112.04247300480996,666.6666666666666,56c26adfcd10628ed372f256,Hopdoddy Burger Bar,33.5084001,-112.0374503,Burger Joint
33.50972992,-112.04247300480996,666.6666666666666,4dd03f427d8b975f18fb6f99,Zaytoon Kabob Bistro,33.50735938307002,-112.04701271275464,Middle Eastern Restaurant
33.50972992,-112.04247300480996,666.6666666666666,56329846498e58859e021f41,Nekter Juice Bar,33.5082758,-112.0372054,Juice Bar
33.50972992,-112.04247300480996,666.6666666666666,4b342dc4f964a520d72525e3,Ajo Al's Mexican Cafe,33.51126888870775,-112.0471686391991,Mexican Restaurant
33.50972992,-112.04247300480996,666.6666666666666,542ccbaf498e94777b25a9a1,Floor & Decor,33.506832,-112.042361,Home Service
33.50972992,-112.04247300480996,666.6666666666666,4ba3c934f964a520275f38e3,Great Clips,33.5061451,-112.0412031,Salon / Barbershop
33.50972992,-112.04247300480996,666.6666666666666,4afaf3b8f964a520cd1922e3,Jamba Juice,33.50746746842681,-112.04710096120834,Juice Bar
33.50972992,-112.04247300480996,666.6666666666666,4b757e72f964a520ba0f2ee3,Sumits Yoga,33.507836938542,-112.03797984069091,Yoga Studio
33.50972992,-112.04247300480996,666.6666666666666,54f27479498eed5faac5d9b7,Sushi Station,33.509096343868414,-112.04824249074537,Sushi Restaurant
33.50972992,-112.04247300480996,666.6666666666666,4c0456619a7920a1d82fd179,The Shops at Town & Country,33.507550217522194,-112.0371150970459,Shopping Mall
33.50972992,-112.04247300480996,666.6666666666666,4c009995379020a1f2d6467f,Harvey's Wine Burger,33.5079711925097,-112.0479181707334,Burger Joint
33.50972992,-112.04247300480996,666.6666666666666,523a177911d234c0965c588b,Twenty Highland Tavern,33.50637950870668,-112.0379385123886,Bar
33.50972992,-112.04247300480996,666.6666666666666,506d9c4ce4b0515e0ce4e958,Nordstrom Rack,33.5081118,-112.0367057,Clothing Store
33.50972992,-112.04247300480996,666.6666666666666,4abfdcbaf964a520a99220e3,QuikTrip,33.50614086837385,-112.04678408091667,Convenience Store
33.50972992,-112.04247300480996,666.6666666666666,4c04053b0d0e0f47a05e039a,Desert Storm Park,33.513442282411106,-112.0452354783769,Park
33.50972992,-112.04247300480996,666.6666666666666,4c9cd7c69693236a88e6cce1,Fitness 4 Home Superstore,33.50914154780863,-112.04772143843691,Sporting Goods Shop
33.50972992,-112.04247300480996,666.6666666666666,4d517f5080df88bf5c5ef897,FIIT Training Center,33.508576684129046,-112.04767377360986,Gym
33.50972992,-112.04247300480996,666.6666666666666,50958f2fe4b08ccc27fbb4ac,Cigar Inn,33.508670806884766,-112.04780578613281,Smoke Shop
33.50972992,-112.04247300480996,666.6666666666666,4c13cfc5a1010f47074f4b18,Phoenix Fishing Supply,33.507808340076274,-112.0477958976992,Sporting Goods Shop
33.50972992,-112.04247300480996,666.6666666666666,501cc2ffe4b04dbcf0a13b22,l.a. wholesale shoes,33.5081901550293,-112.04825592041016,Shoe Store
33.51422592,-112.04979306721495,666.6666666666666,4a99627cf964a5200d2e20e3,5 & Diner,33.51358217,-112.04810767,Diner
33.51422592,-112.04979306721495,666.6666666666666,4a9c3627f964a520713620e3,Corleone's,33.51037139353658,-112.04675545332857,Sandwich Place
33.51422592,-112.04979306721495,666.6666666666666,51fd7d18498e3551267ca872,Tropical Smoothie Cafe,33.51038147184832,-112.04669042611454,Juice Bar
33.51422592,-112.04979306721495,666.6666666666666,4b3aa36ff964a520ac6b25e3,CVS pharmacy,33.50957195461981,-112.04679787158966,Pharmacy
33.51422592,-112.04979306721495,666.6666666666666,4b5485bdf964a52076be27e3,H&R Block,33.5103922,-112.0468366,Financial or Legal Service
33.51422592,-112.04979306721495,666.6666666666666,4c12d66ea1010f478ea64918,Chase Bank,33.51087,-112.047075,Bank
33.51422592,-112.04979306721495,666.6666666666666,5b3bbc6f2b274a002c6f7caf,Shell,33.51633072,-112.0559315,Gas Station
33.51422592,-112.04979306721495,666.6666666666666,4ccf5f30f6378cfa1c4caed6,Jimmy John's,33.51036483148053,-112.04653502865874,Sandwich Place
33.51422592,-112.04979306721495,666.6666666666666,4cd1eaa3bcab952133313a15,Stuckey Insurance,33.51552963256836,-112.04689025878906,Insurance Office
33.51422592,-112.04979306721495,666.6666666666666,4f43ec6ce4b011b0080d8f35,Missouri Avenue & 16th Street,33.516488931248965,-112.04752502922028,Intersection
33.51422592,-112.04979306721495,666.6666666666666,5cf7dbd233e118002c49df05,Eddie Nunez: Allstate Insurance,33.5158055,-112.0458439,Insurance Office
33.51422592,-112.04979306721495,666.6666666666666,50f483c7e4b0e1057b5b6ea9,$9.99 Shoes,33.50941481169571,-112.04745945212386,Shoe Store
33.51422592,-112.04979306721495,666.6666666666666,4b7dfebaf964a5201fde2fe3,Max's Food & Fuel,33.516144361651776,-112.05593833476654,Gas Station
33.50972992,-112.05711312961992,666.6666666666666,4a8deb48f964a5206f1120e3,Oregano's,33.509493,-112.060218,Pizza Place
33.50972992,-112.05711312961992,666.6666666666666,50187777e4b0baa6b64cd848,Los Dos Molinos,33.50946908975338,-112.05882084630235,Mexican Restaurant
33.50972992,-112.05711312961992,666.6666666666666,4bd0fe59046076b0d8397171,Noble Beast,33.50891796510741,-112.05997098267389,Pet Store
33.50972992,-112.05711312961992,666.6666666666666,4f95756fe4b07b02279f1dea,Courtesy Cafe,33.508244,-112.05493600000001,Café
33.50972992,-112.05711312961992,666.6666666666666,413ba880f964a5202e1b1fe3,Cherryblossom Noodle Cafe,33.50982772975157,-112.06104809411767,Sushi Restaurant
33.50972992,-112.05711312961992,666.6666666666666,511139e6e4b05b23751b9ddb,SNOH Ice Shavery,33.509800522054604,-112.06091195942207,Ice Cream Shop
33.50972992,-112.05711312961992,666.6666666666666,4ccd15b554f0b1f745c61aca,Rosie McCaffrey's Irish Pub,33.50943202921934,-112.061410728726,Irish Pub
33.50972992,-112.05711312961992,666.6666666666666,4c7460413adda143689004af,Just Blazed,33.50892786651211,-112.06033229827881,Arts & Crafts Store
33.50972992,-112.05711312961992,666.6666666666666,4b3be4cff964a520cc7d25e3,Culver's,33.50885515815783,-112.06312471804323,Fast Food Restaurant
33.50972992,-112.05711312961992,666.6666666666666,4c2190d69390c9b6fe4ac9cd,Domino's Pizza,33.50940109282169,-112.06131894888131,Pizza Place
33.50972992,-112.05711312961992,666.6666666666666,58669b127d0f6d0aa2988b7e,Original Gravity,33.5059167,-112.0567312,Beer Bar
33.50972992,-112.05711312961992,666.6666666666666,4b33c0fcf964a520841e25e3,Tokyo Express,33.509861584349466,-112.06114123201033,Chinese Restaurant
33.50972992,-112.05711312961992,666.6666666666666,4ba18c94f964a520d4bf37e3,Urban Southwest,33.509508000000004,-112.059835,Furniture / Home Store
33.50972992,-112.05711312961992,666.6666666666666,4be0694698f2a5936928c25a,Camelback consign and design,33.50948249822487,-112.06007480621338,Thrift / Vintage Store
33.50972992,-112.05711312961992,666.6666666666666,52a9eb1b11d2aca88d8b8d8a,Vape Central,33.50940806833046,-112.06089058325601,Smoke Shop
33.51422592,-112.06443319202491,666.6666666666666,5689f9cd498e1d0108f024f3,Pita Jungle,33.516744253456594,-112.06461975609363,Vegetarian / Vegan Restaurant
33.51422592,-112.06443319202491,666.6666666666666,4c8bd3345e38b1f766932bf9,Shampoo Ink Salon,33.51266826513218,-112.06540929410139,Cosmetics Shop
33.51422592,-112.06443319202491,666.6666666666666,5294ff3d11d2c9f4d0552080,Spinato's Pizzeria,33.51705589628244,-112.06460142870107,Pizza Place
33.51422592,-112.06443319202491,666.6666666666666,4c60545e13791b8d4f444faf,Pizza Heaven Bistro,33.51272848797956,-112.06515126792341,Pizza Place
33.51422592,-112.06443319202491,666.6666666666666,5b9df2069ba3e50039ba1ad0,Hula's Modern Tiki,33.51165282464893,-112.06538410673284,Hawaiian Restaurant
33.51422592,-112.06443319202491,666.6666666666666,4bc8d2b2511f95210e6eacc7,Fantasia Crystals,33.51130657688977,-112.06525595610503,Gift Shop
33.51422592,-112.06443319202491,666.6666666666666,528c366211d27046ba5e62fc,Spinatos,33.51710271786229,-112.06470947447569,Pizza Place
33.51422592,-112.06443319202491,666.6666666666666,4b4b3fcbf964a520839526e3,Starbucks,33.518272026369154,-112.06458856048933,Coffee Shop
33.51422592,-112.06443319202491,666.6666666666666,51a80ac2498e6dd8579e01ff,The Yard,33.51938515469257,-112.06545193161134,American Restaurant
33.51422592,-112.06443319202491,666.6666666666666,5112f444e4b09741d7285205,Culinary Dropout,33.51955619628107,-112.0653140112102,Gastropub
33.51422592,-112.06443319202491,666.6666666666666,58b884a8e9efba3ce65f00d0,Scott's Generations,33.518315802199574,-112.06363574526384,Breakfast Spot
33.51422592,-112.06443319202491,666.6666666666666,5c75ee110d8a0f002cd0a330,Verdura,33.518343,-112.063566,Vegetarian / Vegan Restaurant
33.51422592,-112.06443319202491,666.6666666666666,58896ec3409f566ade6c3195,Mora Italian,33.5199040165623,-112.06461671467827,Italian Restaurant
33.51422592,-112.06443319202491,666.6666666666666,5a9d35d4598e641cd49fdd4c,Bevvy Uptown,33.518391352815925,-112.06524984715196,Restaurant
33.51422592,-112.06443319202491,666.6666666666666,4e74fbfb2271ffa4e6bb140d,Dance Staz AZ,33.518312144992265,-112.0636147805478,Gym / Fitness Center
33.51422592,-112.06443319202491,666.6666666666666,4b7348dbf964a52050a62de3,Bashas',33.517670091831704,-112.06350456242026,Grocery Store
33.51422592,-112.06443319202491,666.6666666666666,4a8d8e81f964a5200a1020e3,Two Hippies Beach House,33.50907195348564,-112.06705762188673,Mexican Restaurant
33.51422592,-112.06443319202491,666.6666666666666,4b5e2cfaf964a520c08129e3,Foto Forum,33.508634644273684,-112.06533401917486,Camera Store
33.51422592,-112.06443319202491,666.6666666666666,58e01a5ad772f933ead8e4d4,Cold Beers And Cheeseburgers,33.5193541,-112.06469239,Burger Joint
33.51422592,-112.06443319202491,666.6666666666666,500dafa9e4b07352bd7767f7,The Marijuana Doctor,33.50899,-112.066588,Marijuana Dispensary
33.51422592,-112.06443319202491,666.6666666666666,4b468dd0f964a520222426e3,Snapdragon Salon,33.5089498,-112.06741859,Salon / Barbershop
33.51422592,-112.06443319202491,666.6666666666666,4bf9d0aa5317a5932cee017f,Wells Fargo,33.51033456663205,-112.06449508666992,Bank
33.51422592,-112.06443319202491,666.6666666666666,575a1848498e487912892d9e,Honor Amongst Thieves,33.51811754701742,-112.06546407087278,Bar
33.51422592,-112.06443319202491,666.6666666666666,4a466309f964a520cea81fe3,Pomeroy's,33.518494393208506,-112.06419775493751,Dive Bar
33.51422592,-112.06443319202491,666.6666666666666,4bb0fbf5f964a5202a703ce3,Jiffy Lube,33.51058625147356,-112.0653057819008,Automotive Shop
33.51422592,-112.06443319202491,666.6666666666666,4b69d797f964a5208eb72be3,Walgreens,33.509779940380604,-112.0643824338913,Pharmacy
33.51422592,-112.06443319202491,666.6666666666666,4aa5d04ef964a5207c4920e3,Buffalo Exchange,33.51674223933344,-112.06345813172688,Thrift / Vintage Store
33.51422592,-112.06443319202491,666.6666666666666,4aac2692f964a520875c20e3,Circle K,33.516478,-112.066121,Convenience Store
33.51422592,-112.06443319202491,666.6666666666666,4befbbf1d4e4d13a938915a7,Redbox,33.509772999999996,-112.064393,Video Store
33.51422592,-112.06443319202491,666.6666666666666,4f7f0347e4b0340b446dad9c,Chase Bank,33.508927,-112.065416,Bank
33.51422592,-112.06443319202491,666.6666666666666,57326b50498eae5316ba1652,Stock & Stable,33.51811207160313,-112.06533056691649,New American Restaurant
33.51422592,-112.06443319202491,666.6666666666666,4b3ffe3ef964a520d2b325e3,Rolbertos,33.51021088608475,-112.06530232012643,Mexican Restaurant
33.51422592,-112.06443319202491,666.6666666666666,4ac199f3f964a520909720e3,Denny's,33.50949735331494,-112.06528968184102,Breakfast Spot
33.51422592,-112.06443319202491,666.6666666666666,4c61bf1969a1c9b60a0737a4,SUBWAY,33.5181306,-112.0634499,Sandwich Place
33.51422592,-112.06443319202491,666.6666666666666,5150dce3e4b0af5ee4cdc378,5th Street Nutrition,33.50909787820584,-112.0664900625499,Juice Bar
33.51422592,-112.06443319202491,666.6666666666666,4c0829ac6071a5935bd5db32,Lighting Unlimited,33.5089717,-112.0661972,Furniture / Home Store
33.50972992,-112.07175325442988,666.6666666666666,5706bdf1498e59fb64497927,Lou Malnati's Pizzeria,33.51064241961266,-112.07207204365639,Pizza Place
33.50972992,-112.07175325442988,666.6666666666666,562531bc498edd91e5ac40a5,Flower Child,33.509607182763396,-112.07208495095654,Gluten-free Restaurant
33.50972992,-112.07175325442988,666.6666666666666,4b8421fcf964a520d12231e3,St. Francis,33.50894,-112.071278,New American Restaurant
33.50972992,-112.07175325442988,666.6666666666666,4a62702cf964a52011c41fe3,Frances,33.509571754498005,-112.07454065239634,Boutique
33.50972992,-112.07175325442988,666.6666666666666,5605a981498e5f7c09bb3404,Sauce Pizza & Wine,33.5092451,-112.0731429,Pizza Place
33.50972992,-112.07175325442988,666.6666666666666,4a46d6f7f964a5208ea91fe3,AJ's Fine Foods,33.509988872247334,-112.07205925137596,Supermarket
33.50972992,-112.07175325442988,666.6666666666666,5c6344d960255e002c250753,Chula Seafood,33.510248,-112.07194,Seafood Restaurant
33.50972992,-112.07175325442988,666.6666666666666,4babf25af964a52007d83ae3,Uptown Phoenix District,33.509261917027715,-112.07388500458107,Neighborhood
33.50972992,-112.07175325442988,666.6666666666666,56df20cf498efed0a53473a2,Shake Shack,33.51067114252316,-112.07332491874695,Burger Joint
33.50972992,-112.07175325442988,666.6666666666666,58f0174d67af3a38a41a1927,Huss Brewing Co. Taproom,33.51055455199519,-112.07184232537305,Brewery
33.50972992,-112.07175325442988,666.6666666666666,5077a654d63e7e0c0d5d7734,Zookz - Sandwiches with an Edge,33.50958849721764,-112.07175966602234,Sandwich Place
33.50972992,-112.07175325442988,666.6666666666666,4b01f45ff964a520ce4622e3,SunUp Brewing Co.,33.50938233995391,-112.06873014840374,Brewery
33.50972992,-112.07175325442988,666.6666666666666,4aa186c8f964a520df4020e3,Cheese N Stuff,33.5102286,-112.0741357,Deli / Bodega
33.50972992,-112.07175325442988,666.6666666666666,57f467d1498ee821ecb42caa,Chipotle Mexican Grill,33.5096508,-112.0716658,Mexican Restaurant
33.50972992,-112.07175325442988,666.6666666666666,4a5fcb9cf964a5203cc01fe3,Postino Winecafé,33.51274203729353,-112.0740306415283,Wine Bar
33.50972992,-112.07175325442988,666.6666666666666,4a58d329f964a520fab71fe3,Stinkweeds,33.509558536166445,-112.07460701465607,Record Shop
33.50972992,-112.07175325442988,666.6666666666666,4b6b2bf1f964a52057f72be3,All About Books and Comics,33.50965,-112.0757,Comic Shop
33.50972992,-112.07175325442988,666.6666666666666,4b96b7cff964a52000e034e3,See's Candies,33.50949677889014,-112.07095460060204,Candy Store
33.50972992,-112.07175325442988,666.6666666666666,4b958bc7f964a5209fa834e3,Dairy Queen,33.510404393091505,-112.0741077033053,Ice Cream Shop
33.50972992,-112.07175325442988,666.6666666666666,5085c381e4b038e4e19d739e,Federal Pizza,33.51336503529546,-112.07394094299796,Pizza Place
33.50972992,-112.07175325442988,666.6666666666666,4db235964df0b371d10bd2a0,Churn,33.513578473397395,-112.07347210602894,Ice Cream Shop
33.50972992,-112.07175325442988,666.6666666666666,5785856e498e38241261e75c,Creamistry,33.51065911917602,-112.07220115881866,Ice Cream Shop
33.50972992,-112.07175325442988,666.6666666666666,4b10517af964a520b36d23e3,Practical Art,33.511112862035915,-112.07396458069658,Arts & Crafts Store
33.50972992,-112.07175325442988,666.6666666666666,4dafa9eb93a037b7b074b6b4,Windsor,33.51368432568883,-112.07336055936561,Gastropub
33.50972992,-112.07175325442988,666.6666666666666,52c9ec6f498e75e0c26059bf,Joyride Taco Central,33.51314160870502,-112.07407982227707,Taco Place
33.50972992,-112.07175325442988,666.6666666666666,55216205498e9288870be01c,Fàme Caffe,33.50584206838659,-112.07397595146374,Breakfast Spot
33.50972992,-112.07175325442988,666.6666666666666,59557c8f8173cb5b6f763ec1,West Elm,33.510695057483005,-112.072272996187,Furniture / Home Store
33.50972992,-112.07175325442988,666.6666666666666,58e957853cccc6401e29e587,Blaze Pizza,33.51194889397071,-112.07419682328978,Pizza Place
33.50972992,-112.07175325442988,666.6666666666666,4b50f42df964a520673a27e3,Uptown Plaza,33.509840323249776,-112.07316398620605,Shopping Plaza
33.50972992,-112.07175325442988,666.6666666666666,4bbfbff1461576b0ad247932,Castle Megastore,33.50950217598654,-112.06970087187,Adult Boutique
33.50972992,-112.07175325442988,666.6666666666666,5725619e498ee54137733d6d,My Tea,33.50685601652935,-112.07411481432126,Café
33.50972992,-112.07175325442988,666.6666666666666,4bc12afbabf495216db5c093,Don's Cigars,33.510108947753906,-112.07411193847656,Smoke Shop
33.50972992,-112.07175325442988,666.6666666666666,59185abd588e361ab504d4c9,Elly's Brunch and Cafe,33.510468506385095,-112.07196537044491,Breakfast Spot
33.50972992,-112.07175325442988,666.6666666666666,5733d451498efe74bf348a60,Bonus Round,33.5097773,-112.0758149,Bar
33.50972992,-112.07175325442988,666.6666666666666,4bef2cdef97d9521baf49438,Halo Piercing & Jewelry,33.5097306442875,-112.07447891091036,Jewelry Store
33.50972992,-112.07175325442988,666.6666666666666,5949d365dab4b11ed3b10ad6,Nekter Juice Bar,33.509603,-112.071757,Juice Bar
33.50972992,-112.07175325442988,666.6666666666666,4a70f8aaf964a520e4d81fe3,The Prime Restaurant,33.509845208902355,-112.07544903627777,Chinese Restaurant
33.50972992,-112.07175325442988,666.6666666666666,53835e5d498e59fc1282b90a,Changing Hands Bookstore,33.50969602628221,-112.07879908704555,Bookstore
33.50972992,-112.07175325442988,666.6666666666666,57a29ee0498ec8031dc01677,Kream Coffee,33.51125647016117,-112.07404512074211,Coffee Shop
33.50972992,-112.07175325442988,666.6666666666666,510aae9c011c39d88db0daa4,See's Candies Quantity Discount,33.509498596191406,-112.0711441040039,Candy Store
33.50972992,-112.07175325442988,666.6666666666666,4b299c43f964a520aea124e3,Applebee's Grill + Bar,33.50957348,-112.0732831,American Restaurant
33.50972992,-112.07175325442988,666.6666666666666,4c2f7db73896e21e6f04e490,Tammie Coe Cakes and MJ Bread,33.513829972049066,-112.07380771636963,Dessert Shop
33.50972992,-112.07175325442988,666.6666666666666,4eaae4fe108160300039c5ec,Torch Theatre Elevator,33.506369264280146,-112.073799575136,Theater
33.50972992,-112.07175325442988,666.6666666666666,538a8710498e7a14c9982a30,First Draft Book Bar,33.509757151303546,-112.0788926389813,Bar
33.50972992,-112.07175325442988,666.6666666666666,53892aa5498e3f763f4dd04c,Southern Rail,33.50960353277395,-112.07877921184789,American Restaurant
33.50972992,-112.07175325442988,666.6666666666666,589012645289302f304a0fde,francesca's,33.51062585841953,-112.07302110601384,Boutique
33.50972992,-112.07175325442988,666.6666666666666,4af32fdbf964a5208ceb21e3,Streets of New York,33.5094653,-112.0701334,Pizza Place
33.50972992,-112.07175325442988,666.6666666666666,57f7e3f3498e225309196886,Yama Sushi,33.506921999999996,-112.07419099999998,Japanese Restaurant
33.50972992,-112.07175325442988,666.6666666666666,4eaae2e41081603000397bd8,The Torch Theatre Longform Improv Training Center,33.50630025794701,-112.07374442101356,Performing Arts Venue
33.50972992,-112.07175325442988,666.6666666666666,4da0c4d163b5a35d9163d919,Camelback and Central Bus Stop of Insanity,33.509045507045364,-112.07123605765346,Bus Station
33.50972992,-112.07175325442988,666.6666666666666,4c605f40de6920a1c1c89564,Dunn-Edwards Paints,33.509055,-112.069667,Hardware Store
33.50972992,-112.07175325442988,666.6666666666666,5df46478a5bc0c000bf4c0b5,Los Sombreros,33.50953674316406,-112.06866455078125,Mexican Restaurant
33.50972992,-112.07175325442988,666.6666666666666,4e60d7261fc78fc23230f838,The Fit,33.50898742675781,-112.0683822631836,Clothing Store
33.50972992,-112.07175325442988,666.6666666666666,4ed7fbb302d57802e677354e,Mr. Formal,33.508973,-112.068251,Clothing Store
33.50972992,-112.07175325442988,666.6666666666666,52017ff92fc60c28bec0d776,The KaK Shop,33.506199,-112.074269,Bakery
33.50972992,-112.07175325442988,666.6666666666666,53740e2a498e9fb18a78f89d,SFX baseball field,33.50489,-112.069415,Baseball Field
33.50972992,-112.07175325442988,666.6666666666666,4ea7582d29c25150a63e5942,Brophy Sports Complex,33.50528711418149,-112.0678197298076,Track Stadium
33.50972992,-112.07175325442988,666.6666666666666,54fb8b32498e485243c287c6,AZ Pops,33.511058604169605,-112.06527446136224,Dessert Shop
33.51422592,-112.07907331683487,666.6666666666666,4b520188f964a520bf6027e3,La Piñata,33.51741064185438,-112.08206720855372,Mexican Restaurant
33.51422592,-112.07907331683487,666.6666666666666,4b6f10d9f964a520adda2ce3,Starbucks,33.51636748029453,-112.08282751122911,Coffee Shop
33.51422592,-112.07907331683487,666.6666666666666,4a6d15c2f964a5207ed21fe3,Hana Japanese Eatery,33.51736125449243,-112.08287273020622,Japanese Restaurant
33.51422592,-112.07907331683487,666.6666666666666,50e2180de4b0a2f21aee7c05,LA Fitness,33.51136200487606,-112.08342471248312,Gym
33.51422592,-112.07907331683487,666.6666666666666,4c671206e75ac928e088f9da,SeaTop Nails And Spa,33.509792436498905,-112.08337673237375,Cosmetics Shop
33.51422592,-112.07907331683487,666.6666666666666,4bf028c3d4f70f47308a390f,Colter Park,33.51263203278322,-112.08484171752855,Park
33.51422592,-112.07907331683487,666.6666666666666,54189e25498e343127360e2c,Mucho Macho Taco,33.51629926979497,-112.08211929659248,Taco Place
33.51422592,-112.07907331683487,666.6666666666666,4e8683ac775b31247c3a60dc,Michael's Cafe,33.5102287161669,-112.08178762253,Cocktail Bar
33.51422592,-112.07907331683487,666.6666666666666,5100a225e4b0b335bfc7382b,One Stop Nutrition,33.50978076475043,-112.08323463488253,Health Food Store
33.51422592,-112.07907331683487,666.6666666666666,4f025551d3e364d5fec01c66,T-Mobile,33.50998,-112.08354,Mobile Phone Shop
33.51422592,-112.07907331683487,666.6666666666666,4f807be3e4b09a1476d2dc3d,T-Mobile,33.50968186412026,-112.08305095656324,Mobile Phone Shop
33.51422592,-112.07907331683487,666.6666666666666,4c362b4e2c8020a13ddd8600,Sally Beauty,33.509922064222195,-112.08309462140969,Cosmetics Shop
33.51422592,-112.07907331683487,666.6666666666666,4bd33f9e77b29c74ff549082,7th Ave Smoke Shop,33.516919,-112.08201299999999,Smoke Shop
33.51422592,-112.07907331683487,666.6666666666666,4b3810b0f964a520174b25e3,Sylvia's La Canasta,33.516960573626285,-112.08292450748372,Mexican Restaurant
33.51422592,-112.07907331683487,666.6666666666666,579041c5498e1763fa11540f,La Piñata,33.517444,-112.082096,Mexican Restaurant
33.51422592,-112.07907331683487,666.6666666666666,4b3028fff964a5201af724e3,Kyoto Bowl,33.50981958996395,-112.0834791039752,Japanese Restaurant
33.51422592,-112.07907331683487,666.6666666666666,4efd000e4fc6fc240ea74a76,Pool at Colter Park- Main,33.51235580444336,-112.08443450927734,Gym Pool
33.51422592,-112.07907331683487,666.6666666666666,4efcffa44fc6fc240ea73c59,Fitness Center at Colter Park,33.51235580444336,-112.08443450927734,Gym
33.51422592,-112.07907331683487,666.6666666666666,5b1b13eaa5a315002c6a74b3,Pt Noodles,33.509796,-112.083496,Asian Restaurant
33.50972992,-112.08639337923985,666.6666666666666,4d8eb547c1b1721ebb7e3746,Taqueria Los Yaquis,33.509038754154226,-112.08338810033841,Taco Place
33.50972992,-112.08639337923985,666.6666666666666,4b382850f964a5204f4c25e3,Thai Rama,33.509223773727534,-112.08875862157431,Thai Restaurant
33.50972992,-112.08639337923985,666.6666666666666,5286906a498e3289da67710f,Starbucks,33.511378,-112.085472,Coffee Shop
33.50972992,-112.08639337923985,666.6666666666666,4b3fed0ef964a52043b225e3,Charlie's,33.50903866468275,-112.083633947701,Gay Bar
33.50972992,-112.08639337923985,666.6666666666666,4ae22eb3f964a520898b21e3,Fry's Food Store,33.51138822979975,-112.08547265860034,Grocery Store
33.50972992,-112.08639337923985,666.6666666666666,413ba880f964a5202d1b1fe3,Char's Has the Blues,33.50500667302228,-112.08216469783319,Jazz Club
33.50972992,-112.08639337923985,666.6666666666666,4e7625be1f6e072f13fc06bf,Sweet Salvage,33.505362870730416,-112.08279020357935,Flea Market
33.50972992,-112.08639337923985,666.6666666666666,4b75e59df964a520f32c2ee3,HTC Body Piercing,33.5050539709857,-112.08266575282121,Piercing Parlor
33.50972992,-112.08639337923985,666.6666666666666,5259f61911d27782660b2bf4,The Refuge,33.506705370011154,-112.08224968137515,Coffee Shop
33.50972992,-112.08639337923985,666.6666666666666,55b69aa3498e2c954e81f012,Rally's Hamburgers,33.5091533,-112.0908113,Burger Joint
33.50972992,-112.08639337923985,666.6666666666666,4e31c4302fb6ede816e388d4,Redbox,33.50896165323811,-112.08251970099367,Video Store
33.50972992,-112.08639337923985,666.6666666666666,514f00e8e4b0ab030b185893,Starbucks at Fry's,33.51102535155189,-112.08530933261338,Coffee Shop
33.50972992,-112.08639337923985,666.6666666666666,4b55def2f964a520e4f327e3,SUBWAY,33.50979407750918,-112.08332401155474,Sandwich Place
33.50972992,-112.08639337923985,666.6666666666666,4c03f146310fc9b62090c661,Antiques On Camelback,33.50863985807695,-112.08229686549443,Antique Shop
33.50972992,-112.08639337923985,666.6666666666666,4cb4db2858b6ef3b29f9260c,White Dove Thrift Shoppe,33.51068900611265,-112.08211806878585,Thrift / Vintage Store
33.50972992,-112.08639337923985,666.6666666666666,4eb581b877c897273712c0fb,Smelly Dog,33.510765075683594,-112.08165740966797,Pet Store
33.50972992,-112.08639337923985,666.6666666666666,51377a3a45b077188bfef6d0,Hotel 502,33.51001,-112.08055300000001,Hotel
33.50972992,-112.08639337923985,666.6666666666666,4daefdf70cb65a8b0d258ad4,15th Ave And Camelback Bus Stop,33.509009000000006,-112.09156499999999,Bus Stop
33.50972992,-112.08639337923985,666.6666666666666,4dadb9ee0cb6f003f48eb823,The Apothecary Shop,33.510545,-112.091656,Pharmacy
33.51422592,-112.09371344164482,666.6666666666666,4aeca835f964a520fbc921e3,Phở Thành,33.51014782794838,-112.0958648622036,Vietnamese Restaurant
33.51422592,-112.09371344164482,666.6666666666666,5950280cfd16bb35d2a5f9e7,Milk Run,33.510638,-112.096346,Dessert Shop
33.51422592,-112.09371344164482,666.6666666666666,4bea1aec62c0c928988ce0d4,Christown YMCA,33.517419039175486,-112.09469111086143,Gym / Fitness Center
33.51422592,-112.09371344164482,666.6666666666666,505b78f6e4b065a90bfb9405,Tấn Phát,33.510085,-112.096103,Grocery Store
33.51422592,-112.09371344164482,666.6666666666666,599277e85d0fea40f0543fe3,Planet Fitness,33.50858684300972,-112.09490336796529,Gym
33.51422592,-112.09371344164482,666.6666666666666,4be5cb092468c928f58f0043,Ichi Bowl,33.51248294519588,-112.10033401113812,Asian Restaurant
33.51422592,-112.09371344164482,666.6666666666666,4e6f90a3ae604d1b45ae259e,Family Dollar,33.510040318255946,-112.09477850499862,Discount Store
33.51422592,-112.09371344164482,666.6666666666666,50d4865de4b06e89c51abd24,Blast Fitness,33.50834496912502,-112.09485831992265,Gym
33.51422592,-112.09371344164482,666.6666666666666,4e0e1b29aeb7a5b33ee6960d,Missouri Avenue & 17th Avenue,33.51680442731061,-112.09559565814699,Intersection
33.51422592,-112.09371344164482,666.6666666666666,4f24207ce4b050258adcf330,Yoga @ YMCA,33.51731491088867,-112.09446716308594,Yoga Studio
33.51422592,-112.09371344164482,666.6666666666666,5a456591c9a51725f391b456,GameJunki,33.5179935,-112.0958653,Video Game Store
33.51422592,-112.09371344164482,666.6666666666666,59ee5ac69fca567c8d66c3a8,Milk Run Premium Ice Cream & Boba,33.5100117,-112.0960331,Ice Cream Shop
33.51422592,-112.09371344164482,666.6666666666666,4c2bfc0fd1a10f47c6e6f864,iPhone Solutions,33.5120735168457,-112.0992431640625,Mobile Phone Shop
33.51422592,-112.09371344164482,666.6666666666666,53e3182e498e2fc1a971f912,Goodwill Store and Donation Center,33.508431800869246,-112.09469451576139,Thrift / Vintage Store
33.50972992,-112.10103350404981,666.6666666666666,4b3b95f7f964a520687625e3,Zia Records,33.50971866835438,-112.09930398637918,Record Shop
33.50972992,-112.10103350404981,666.6666666666666,413ba880f964a520e81b1fe3,Pepe's Taco Villa,33.50981468731544,-112.10456610277485,Mexican Restaurant
33.50972992,-112.10103350404981,666.6666666666666,4bf99b0b508c0f4785783f31,Church's Chicken,33.50992749,-112.1005051,Fried Chicken Joint
33.50972992,-112.10103350404981,666.6666666666666,4a7ca4e7f964a5200fed1fe3,Da Vàng Restaurant,33.503764924555085,-112.10039108991622,Vietnamese Restaurant
33.50972992,-112.10103350404981,666.6666666666666,4d335e96c6cba35dd0132a7a,Dollar General,33.50910478363195,-112.10042458209243,Discount Store
33.50972992,-112.10103350404981,666.6666666666666,5a2589bdda5ede385550a5f8,Popeyes Louisiana Kitchen,33.5092958,-112.1067334,Fried Chicken Joint
33.50972992,-112.10103350404981,666.6666666666666,5d93947a72d65800080e1b61,Wendy's,33.5092112,-112.1079853,Fast Food Restaurant
33.50972992,-112.10103350404981,666.6666666666666,4f0771ffe4b090ef20e4f018,Camelback Liquors,33.509818,-112.10271499999999,Convenience Store
33.50972992,-112.10103350404981,666.6666666666666,54ce868b498e25fa9ef0691a,Lil Caesers,33.50858688354492,-112.09481811523438,Pizza Place
33.50972992,-112.10103350404981,666.6666666666666,5a2ac30bd4cc987f643a298e,El Super,33.5085943882761,-112.10725690429916,Grocery Store
33.50972992,-112.10103350404981,666.6666666666666,4c81990cd92ea09343db4272,Bien Nails,33.508379,-112.094652,Cosmetics Shop
33.50972992,-112.10103350404981,666.6666666666666,5b1c655b3d4791002c9a71ea,Original Genos,33.508525,-112.107695,Pizza Place
33.50972992,-112.10103350404981,666.6666666666666,5a54e695a9fe1240ab810b8d,Bosa Donuts,33.50832,-112.10797,Donut Shop
33.50972992,-112.10103350404981,666.6666666666666,4c9423f36b35a14307f618dc,Little Caesars Pizza,33.50854971778468,-112.09446518712464,Pizza Place
33.51422592,-112.10835356645478,666.6666666666666,4ca38d2da73cb60c84c51978,Frank's New York Deli,33.511927,-112.108621,Deli / Bodega
33.51422592,-112.10835356645478,666.6666666666666,5591b447498eb8391138c462,Grand Canyon University Hotel,33.51120840750062,-112.11373605505698,Hotel
33.51422592,-112.10835356645478,666.6666666666666,4a7c4da0f964a52030ec1fe3,Country Boys Restaurant,33.50976195110375,-112.1094154405062,Diner
33.51422592,-112.10835356645478,666.6666666666666,5bb43703fe37400039b84392,Subway,33.50880713884563,-112.10653327583998,Sandwich Place
33.51422592,-112.10835356645478,666.6666666666666,4bcd12ea8920b7139e599fdc,Filiberto's Mexican Food,33.509622063022825,-112.1090105545767,Mexican Restaurant
33.51422592,-112.10835356645478,666.6666666666666,4e1df344d4c0893099623c28,Worldwide Insurance Specialists Inc,33.517095,-112.111631,Insurance Office
33.51422592,-112.10835356645478,666.6666666666666,4bd8a17b2e6f0f472ae90708,Sack's Cafe,33.5095822671854,-112.11105146238208,Food Truck
33.51422592,-112.10835356645478,666.6666666666666,57a1161f498e501f46ebcdf9,Grand Canyon University Hotel Restaurant,33.510935,-112.113776,Restaurant
33.51422592,-112.10835356645478,666.6666666666666,57f6a80d498e98832a833b6b,Canyon 49 Grill,33.511288617792275,-112.11408176754341,Restaurant
33.51422592,-112.10835356645478,666.6666666666666,4c9a6cc3b8e9224b79b04d3d,Interstate 17 at Exit 203,33.509511571563365,-112.11240470409393,Intersection
33.50972992,-112.11567362885977,666.6666666666666,4c0fee63b93cc9b648f155e0,Dairy Queen,33.50968764987654,-112.11845926478418,Ice Cream Shop
33.50972992,-112.11567362885977,666.6666666666666,4f130d14e4b04720465ed7db,QuikTrip,33.5090155,-112.1138692,Convenience Store
33.50972992,-112.11567362885977,666.6666666666666,5382b2ff498ef9ed05130224,Circle K,33.50997,-112.11636499999999,Convenience Store
33.50972992,-112.11567362885977,666.6666666666666,4be8a15a88ed2d7ffa25cc1d,Enterprise Rent-A-Car,33.50995437966546,-112.11913704872131,Rental Car Location
33.50972992,-112.11567362885977,666.6666666666666,4bdde5a7ffdec928e4dee6a1,Jack in the Box,33.509207419231046,-112.11748346686363,Fast Food Restaurant
33.50972992,-112.11567362885977,666.6666666666666,5217f0f311d20329b4887027,Camelback Road & 27th Avenue,33.50944723507434,-112.11699438877474,Intersection
33.50972992,-112.11567362885977,666.6666666666666,4ba10897f964a520079137e3,Quality Inn & Suites Phoenix,33.51132233497936,-112.1134476477676,Motel
33.50972992,-112.11567362885977,666.6666666666666,4cdfb5bbaba88cfa4f044bd7,Tacos Mex,33.509244,-112.118991,Mexican Restaurant
33.50972992,-112.11567362885977,666.6666666666666,53f84e63498e7b0959957ecd,Taco Mich,33.509122,-112.119215,Taco Place
33.50240985759502,-112.02783288,666.6666666666666,4c014218cf3aa5935bb7ccb0,Body Beautiful Spa,33.501905196125485,-112.02994543429267,Spa
33.50240985759502,-112.02783288,666.6666666666666,5880fe9ea14926637441c8a8,Noble Eatery,33.502790000000005,-112.029738,Bakery
33.50240985759502,-112.02783288,666.6666666666666,4b525540f964a520c77727e3,Ye Old Pipe & Tobacco Shop,33.502777715078956,-112.02994405308372,Smoke Shop
33.50240985759502,-112.02783288,666.6666666666666,4c2cbcdc57a9c9b65addf767,7-Eleven,33.5026690038117,-112.029730975627,Convenience Store
33.50240985759502,-112.04247300480996,666.6666666666666,5577a63b498e506f7ff4e377,Miracle Mile Deli,33.50174622039588,-112.04732284780276,Deli / Bodega
33.50240985759502,-112.04247300480996,666.6666666666666,4af8caa5f964a520f50f22e3,Flavors of India,33.50276577641915,-112.04723442515616,Indian Restaurant
33.50240985759502,-112.04247300480996,666.6666666666666,59e235c967e5f2780f047055,The Casual Pint Central Phoenix,33.50525590894593,-112.04766888382487,Beer Store
33.50240985759502,-112.04247300480996,666.6666666666666,57ad2753498e3d178e5ef195,Orangetheory Fitness,33.506189,-112.041179,Gym
33.50240985759502,-112.04247300480996,666.6666666666666,4b08b11bf964a520d81023e3,Marshalls,33.5076832,-112.0429195,Department Store
33.50240985759502,-112.04247300480996,666.6666666666666,4b638440f964a52014802ae3,Cold Stone Creamery,33.507686,-112.039749,Ice Cream Shop
33.50240985759502,-112.04247300480996,666.6666666666666,4b153782f964a5206ca923e3,Best Buy,33.5081284,-112.040503,Electronics Store
33.50240985759502,-112.04247300480996,666.6666666666666,5ed7e1d0803f0000077dcefc,Five Below,33.5076302,-112.0418151,Discount Store
33.50240985759502,-112.04247300480996,666.6666666666666,4b173145f964a52094c323e3,Michaels,33.50757034566855,-112.0415273308754,Arts & Crafts Store
33.50240985759502,-112.04247300480996,666.6666666666666,4e4adbbafa7671a85ce2aa9a,DXL,33.50793721362574,-112.044977473242,Men's Store
33.50240985759502,-112.04247300480996,666.6666666666666,4b53c3edf964a520baaa27e3,Fry's Food Store,33.5069106,-112.0414003,Supermarket
33.50240985759502,-112.04247300480996,666.6666666666666,4d150481bb64224b6aa1b165,Redbox,33.507389068603516,-112.04261016845703,Video Store
33.50240985759502,-112.04247300480996,666.6666666666666,4b44e9c8f964a52094ff25e3,Yogis Grill,33.50773708621263,-112.0457387215562,Asian Restaurant
33.50240985759502,-112.04247300480996,666.6666666666666,4b7afa95f964a520c8492fe3,Homewood Suites by Hilton,33.505115795519856,-112.03786343336105,Hotel
33.50240985759502,-112.04247300480996,666.6666666666666,4b082213f964a5207c0423e3,Old Navy,33.50818103403356,-112.04061060322266,Clothing Store
33.50240985759502,-112.04247300480996,666.6666666666666,4be7393a2468c92856420243,Famous Footwear,33.50788368329671,-112.04174469843382,Shoe Store
33.50240985759502,-112.04247300480996,666.6666666666666,4b871880f964a5205eb031e3,Starbucks,33.506786838552564,-112.04118467324591,Coffee Shop
33.50240985759502,-112.04247300480996,666.6666666666666,4c64d03cd02b20a135119c90,Shell,33.506129340729295,-112.03954318387754,Gas Station
33.50240985759502,-112.04247300480996,666.6666666666666,4b25b646f964a520967524e3,Camelback Colonnade,33.50695978981273,-112.0409345626831,Shopping Plaza
33.50240985759502,-112.04247300480996,666.6666666666666,4a56bc73f964a520b9b51fe3,Half Moon Windy City Sports Grill,33.5053569,-112.0370034,Sports Bar
33.50240985759502,-112.04247300480996,666.6666666666666,4b3174f1f964a5203e0725e3,Staples,33.507869867225104,-112.04311700768766,Paper / Office Supplies Store
33.50240985759502,-112.04247300480996,666.6666666666666,4c182ad84ff90f47b4180e49,Celebrity Tanning,33.50231149,-112.04721073,Tanning Salon
33.50240985759502,-112.04247300480996,666.6666666666666,4c1fea18eac020a140d24bc2,A.D. Banker Ford Insurance School,33.50667953491211,-112.0456771850586,Insurance Office
33.50240985759502,-112.04247300480996,666.6666666666666,4b8f6227f964a520005333e3,Burger King,33.50641149972462,-112.04750020555205,Fast Food Restaurant
33.50690585759502,-112.04979306721495,666.6666666666666,4db1c788a86e63d2117363e7,Le's Nails & Waxing,33.507532,-112.046485,Cosmetics Shop
33.50690585759502,-112.04979306721495,666.6666666666666,4b61e033f964a5208c282ae3,Copenhagen Showroom - Phoenix,33.508291388346564,-112.0450033000662,Furniture / Home Store
33.50690585759502,-112.04979306721495,666.6666666666666,5964fa0c42d8c238024cc42b,Target,33.50770619392995,-112.04639439319254,Big Box Store
33.50690585759502,-112.04979306721495,666.6666666666666,4b75b95bf964a520f11f2ee3,SUBWAY,33.50729122823483,-112.04703564567649,Sandwich Place
33.50690585759502,-112.04979306721495,666.6666666666666,4b33dce0f964a520c92025e3,GNC,33.507532,-112.046485,Supplement Shop
33.50690585759502,-112.04979306721495,666.6666666666666,4bce4c0c29d4b713f868a8dc,DV Nails,33.50838426958487,-112.04378746441903,Cosmetics Shop
33.50690585759502,-112.04979306721495,666.6666666666666,5baac68f182223002527a3a0,IHOP,33.508736,-112.043902,American Restaurant
33.50690585759502,-112.04979306721495,666.6666666666666,4c840666d34ca143fb013b80,Sally Beauty,33.50780740203063,-112.04600554312785,Cosmetics Shop
33.50690585759502,-112.04979306721495,666.6666666666666,4b7feedef964a520444530e3,McDonald's,33.5087518,-112.0461772,Fast Food Restaurant
33.50690585759502,-112.04979306721495,666.6666666666666,4b43c0eaf964a5208de825e3,Pier 1 Imports,33.5085654885442,-112.043885190687,Furniture / Home Store
33.50690585759502,-112.04979306721495,666.6666666666666,4c005fee379020a17b6b467f,Mattress Firm,33.50875852082541,-112.04311047554289,Furniture / Home Store
33.50690585759502,-112.04979306721495,666.6666666666666,4b548549f964a5205bbe27e3,Verizon,33.50768552330494,-112.04708486795425,Mobile Phone Shop
33.50690585759502,-112.04979306721495,666.6666666666666,5b36aea625fb7b002ca0abde,Pokitrition - Sushi Burritos & Poke,33.507532,-112.046485,Hawaiian Restaurant
33.50690585759502,-112.04979306721495,666.6666666666666,4d193d186c8b54812254f7cc,18th Street and Camelback,33.5092124511717,-112.04319639132109,Intersection
33.50240985759502,-112.05711312961992,666.6666666666666,4d362088600a721eb038ae55,Paper Crazy,33.502140999999995,-112.05656,Paper / Office Supplies Store
33.50240985759502,-112.05711312961992,666.6666666666666,4bc459c7dce4eee1361c729d,Royal Villa Resort,33.499087035450266,-112.05685615539551,Resort
33.50240985759502,-112.05711312961992,666.6666666666666,561cdcdb498eaa293e4352ce,Thrift-Palace Studios.,33.498081,-112.061308,Art Gallery
33.50240985759502,-112.05711312961992,666.6666666666666,4de11ae8d4c040523eb4eb51,Bountiful Baskets - Pick Up,33.49674107342289,-112.05786902146086,Farmers Market
33.50690585759502,-112.06443319202491,666.6666666666666,552810c8498ea4c61cfe2043,Enterprise,33.504474940797465,-112.06486976039737,Rental Car Location
33.50690585759502,-112.06443319202491,666.6666666666666,5b4e601161f070002c2aa550,Starbucks,33.506249766157126,-112.06459735703545,Coffee Shop
33.50690585759502,-112.06443319202491,666.6666666666666,4c3b625dd94dc9b6f0baffe7,Enterprise Rent-A-Car,33.50454480908338,-112.0643692910835,Rental Car Location
33.50690585759502,-112.06443319202491,666.6666666666666,4caed053562d224bef120988,Citi Clubhouse and Gym,33.50904905252948,-112.06104863039351,Gym
33.50690585759502,-112.06443319202491,666.6666666666666,5d7c4de179bb820008762eea,Someburros,33.511684,-112.06468600000001,Mexican Restaurant
33.50690585759502,-112.06443319202491,666.6666666666666,5bd9a40bbcbf7a002d8684ff,Curaleaf AZ Camelback,33.509486039735926,-112.05905233908834,Marijuana Dispensary
33.50690585759502,-112.06443319202491,666.6666666666666,5f5c0e6b6e9fd1758492a466,Chantico Mexican Restaurant,33.50898436,-112.05865716,Restaurant
33.50690585759502,-112.06443319202491,666.6666666666666,4e961b5429c2e08636dc06d9,Jr's Foodmart,33.50589933951458,-112.05774099917144,Convenience Store
33.50240985759502,-112.07175325442988,666.6666666666666,414b7a80f964a520d01c1fe3,Lux Central,33.500428,-112.074046,Café
33.50240985759502,-112.07175325442988,666.6666666666666,4a4d18f4f964a5208aad1fe3,Pane Bianco,33.50055929481314,-112.07424218286326,Sandwich Place
33.50240985759502,-112.07175325442988,666.6666666666666,4ca3fcef750ca09374f61d67,Grand Canal (Central Phoenix),33.50381972022802,-112.07395792007446,River
33.50240985759502,-112.07175325442988,666.6666666666666,4d69613b9bd6a14369ab5edf,Arizona Highland Games,33.49986622773122,-112.06837169869767,Performing Arts Venue
33.50240985759502,-112.07175325442988,666.6666666666666,4a501cd2f964a520f9af1fe3,Steele Indian School Park,33.498100287046256,-112.06975730364157,Park
33.50240985759502,-112.07175325442988,666.6666666666666,52904170498eeba55cb047fa,The Clever Koi,33.49744363606567,-112.0741310337537,Asian Restaurant
33.50240985759502,-112.07175325442988,666.6666666666666,413ba880f964a520741b1fe3,George & Dragon,33.49775938313249,-112.07402789387739,Pub
33.50240985759502,-112.07175325442988,666.6666666666666,4c574755744a0f4706a3c8cb,Steele Indian School Dog Park,33.50085846761465,-112.06876516342163,Dog Run
33.50240985759502,-112.07175325442988,666.6666666666666,52f2d80c11d257687a256870,Central Wine,33.497510013520895,-112.07418305932094,Wine Bar
33.50690585759502,-112.07907331683487,666.6666666666666,413ba880f964a5206f1b1fe3,Fry Bread House,33.503682591722225,-112.08222771341569,American Restaurant
33.50690585759502,-112.07907331683487,666.6666666666666,4bb7c4a9314e95210bad479d,Modern Manor,33.50408552788079,-112.08357837958751,Antique Shop
33.50690585759502,-112.07907331683487,666.6666666666666,4c8cf9588018a1cd8c20f1d2,Joe's Diner,33.5027034,-112.082056,Diner
33.50690585759502,-112.07907331683487,666.6666666666666,56a6e317498ec048f5609135,Thai Long-An,33.50194953118647,-112.08216551704851,Thai Restaurant
33.50690585759502,-112.07907331683487,666.6666666666666,4ce9862a948f224bc3b8f65d,LollyPOP Vintage,33.508978308623306,-112.08357746635821,Thrift / Vintage Store
33.50690585759502,-112.07907331683487,666.6666666666666,4c254db2f7ced13adf67246d,Camelback Village Square,33.50954953884004,-112.08366570711699,Shopping Mall
33.50690585759502,-112.07907331683487,666.6666666666666,4aff07bcf964a5203b3322e3,Phoenix Metro Retro,33.50409419630592,-112.0835504869136,Furniture / Home Store
33.50690585759502,-112.07907331683487,666.6666666666666,56b64ae4498e429dd4a44192,modern on melrose,33.503696142054984,-112.08407905737602,Furniture / Home Store
33.50240985759502,-112.08639337923985,666.6666666666666,4b9c0185f964a520ea3f36e3,Pat O's Bunkhouse Saloon,33.501257913721446,-112.08285307072043,Gay Bar
33.50240985759502,-112.08639337923985,666.6666666666666,589fcf869435a91678015f5e,Restaurant Progress,33.499436,-112.082848,New American Restaurant
33.50240985759502,-112.08639337923985,666.6666666666666,4a57f364f964a52021b71fe3,Copper Star Coffee,33.49746267,-112.08388363,Coffee Shop
33.50240985759502,-112.08639337923985,666.6666666666666,4a66aba1f964a520ccc81fe3,Wag N' Wash Natural Pet Food & Grooming,33.4977676925276,-112.08373005193222,Pet Service
33.50240985759502,-112.08639337923985,666.6666666666666,5195d10d498e27b87f121316,Stacy's at Melrose,33.49982328765632,-112.082175579658,Gay Bar
33.50240985759502,-112.08639337923985,666.6666666666666,4ada140af964a520181e21e3,Melrose Kitchen,33.49884200888606,-112.08326201907718,American Restaurant
33.50240985759502,-112.08639337923985,666.6666666666666,4aea31e2f964a52012ba21e3,Melrose Pharmacy,33.4995659151369,-112.08330563865923,Pharmacy
33.50240985759502,-112.08639337923985,666.6666666666666,4ac533b9f964a520f1b020e3,Retro Ranch,33.49878916069861,-112.08276957331823,Thrift / Vintage Store
33.50240985759502,-112.08639337923985,666.6666666666666,587e256430ecc623688c69f2,Mid Century Modern Unique,33.504059999999996,-112.082847,Furniture / Home Store
33.50240985759502,-112.08639337923985,666.6666666666666,4a6270e3f964a52018c41fe3,Go Kat Go,33.49898782443155,-112.08329310964024,Antique Shop
33.50240985759502,-112.08639337923985,666.6666666666666,4c361d1f18e72d7f4c4514f5,Home Again Furnishings & Antiq,33.49867630004883,-112.0831298828125,Flea Market
33.50240985759502,-112.08639337923985,666.6666666666666,4dc1df26ae609667509e5581,Melrose Vintage,33.498253000000005,-112.08389199999999,Antique Shop
33.50240985759502,-112.08639337923985,666.6666666666666,4c8ff66a6fbf224b46ad4f8f,Baisch & Skinner,33.499999661105,-112.08158168012795,Flower Shop
33.50240985759502,-112.08639337923985,666.6666666666666,57241744cd1040df6198f0e3,Grand Canal At 15th Ave,33.500404,-112.09174,Canal
33.50690585759502,-112.09371344164482,666.6666666666666,4e262e7dfa7682ed22ff8822,Namaste Market,33.508161,-112.099223,Grocery Store
33.50690585759502,-112.09371344164482,666.6666666666666,4a9f6130f964a520213d20e3,METRO 19th Ave/Camelback,33.50954243524945,-112.0992099566972,Light Rail Station
33.50690585759502,-112.09371344164482,666.6666666666666,4d9f32d4baa2530c9d674c0e,Camelback Road & 19th Avenue,33.50956915910888,-112.09984067828827,Intersection
33.50240985759502,-112.10103350404981,666.6666666666666,4bc3aeae920eb71357d81d2c,Circle K,33.502364,-112.099899,Convenience Store
33.50240985759502,-112.10103350404981,666.6666666666666,4be9b67fb3352d7fdc5054d2,Food City #95,33.49684081732564,-112.10157768590784,Grocery Store
33.50240985759502,-112.10103350404981,666.6666666666666,4e0e45c0b0fb59de67d5056a,Jeffs Professional Audio Repair,33.497659999999996,-112.099617,Electronics Store
33.50240985759502,-112.11567362885977,666.6666666666666,5b0ef0801953f3002c7dfb65,"Littlejohn Lock, Key & Safe",33.5035013,-112.1215277,Locksmith
33.49508979519004,-112.02783288,666.6666666666666,5854788154073d0ba3d5fcd7,The Wandering Tortoise,33.494564016860856,-112.02913686422407,Beer Bar
33.49508979519004,-112.02783288,666.6666666666666,4f67ac0fe4b05c273b643793,Khyber Halal Restaurant & Catering,33.49424555002138,-112.03050202540032,Halal Restaurant
33.49508979519004,-112.02783288,666.6666666666666,4b5a3311f964a520b5b328e3,Chopper John's,33.49471720492008,-112.02604990382989,Dive Bar
33.49508979519004,-112.02783288,666.6666666666666,4b5a1848f964a520d4ac28e3,Subway,33.49540527516345,-112.03076517507861,Sandwich Place
33.49508979519004,-112.02783288,666.6666666666666,4c6ada227c052d7f053028cf,La Purisima Bakery,33.49501848220825,-112.031606,Bakery
33.49508979519004,-112.02783288,666.6666666666666,4a862dcff964a520ac0020e3,Shady's Fine Ales and Cocktails,33.4948438773387,-112.02358830838509,Dive Bar
33.49508979519004,-112.02783288,666.6666666666666,4b43ab6af964a520c9e525e3,Yoshi's,33.495468044956375,-112.03073599879588,Japanese Restaurant
33.49508979519004,-112.02783288,666.6666666666666,555ec212498e86f0de0171cd,Rebel Lounge,33.49457297407177,-112.03207339769722,Bar
33.49508979519004,-112.02783288,666.6666666666666,4b9d8cd9f964a52035b336e3,China Village Restaurant,33.49524556201199,-112.02301052987524,Chinese Restaurant
33.49508979519004,-112.02783288,666.6666666666666,5383a021498e31b16470e518,Angry Crab Shack and BBQ,33.4962302,-112.021245,Seafood Restaurant
33.49508979519004,-112.02783288,666.6666666666666,4d63ca996973a35d8e6babea,The Secret Village,33.494365,-112.025548,Thrift / Vintage Store
33.49508979519004,-112.02783288,666.6666666666666,4b576a9ff964a520883628e3,Asi Es La Vida,33.4894879709702,-112.03037799070859,Mexican Restaurant
33.49508979519004,-112.02783288,666.6666666666666,55a26de3498e05d4ef28b643,Helton Brewing Company,33.495361,-112.034869,Brewery
33.49508979519004,-112.02783288,666.6666666666666,4a78d0d3f964a5207ce61fe3,Old Heidelberg Bakery,33.494955878233526,-112.03389055380565,Bakery
33.49508979519004,-112.02783288,666.6666666666666,52269e1b11d22a489e0dc3d7,Starbucks,33.495434,-112.02115,Coffee Shop
33.49508979519004,-112.02783288,666.6666666666666,4b70d971f964a52087312de3,Manuel's Mexican Food,33.49525677785588,-112.0208035066136,Mexican Restaurant
33.49508979519004,-112.02783288,666.6666666666666,4b6bafb8f964a52088152ce3,Circle K,33.4944162,-112.029751,Convenience Store
33.49508979519004,-112.02783288,666.6666666666666,4c2f8a1316adc92810bdbd9c,Budget Car Rental,33.495548,-112.024158,Rental Car Location
33.49508979519004,-112.02783288,666.6666666666666,5d658fc9c79f3b00086cb1f7,Burger King,33.49515,-112.028984,Restaurant
33.49508979519004,-112.02783288,666.6666666666666,4e31c42f2fb6ede816e34839,Redbox,33.495329999999996,-112.029568,Video Store
33.49508979519004,-112.02783288,666.6666666666666,4e988b554fc674719a3d01b1,U-Haul Moving & Storage of Biltmore,33.49555671308877,-112.02463336667506,Storage Facility
33.49508979519004,-112.02783288,666.6666666666666,4b5b9e5cf964a520640b29e3,Anvil,33.49454399043865,-112.03209946942563,Gay Bar
33.49508979519004,-112.02783288,666.6666666666666,4bf791e44a67c928a9e823cf,Julioberto's Mexican Food,33.49462023482901,-112.03274363664048,Mexican Restaurant
33.49508979519004,-112.02783288,666.6666666666666,4b05ab30f964a520a2e022e3,Walgreens,33.49533827917913,-112.02955394983292,Pharmacy
33.49508979519004,-112.02783288,666.6666666666666,4daa3bd96e81162ae7d2b6e9,Kat's Neighborhood Bar,33.49457217983453,-112.03179761767387,Dive Bar
33.49508979519004,-112.02783288,666.6666666666666,4b48ec1df964a520835d26e3,Smart & Final,33.495497680624815,-112.02234919180684,Grocery Store
33.49508979519004,-112.02783288,666.6666666666666,4b4f6ec2f964a5205e0627e3,Taco Bell/Pizza Hut,33.495214,-112.028583,Fast Food Restaurant
33.49508979519004,-112.02783288,666.6666666666666,4b804893f964a520186430e3,Jack in the Box,33.4951311,-112.0342694,Fast Food Restaurant
33.49508979519004,-112.02783288,666.6666666666666,4b065060f964a520acea22e3,25th Street Automotive,33.495465,-112.028355,Automotive Shop
33.49508979519004,-112.02783288,666.6666666666666,4d3f6703915a370425c90a7f,The Hong Kong Restaurant,33.49514148045368,-112.03118826312898,Asian Restaurant
33.49958579519004,-112.03515294240499,666.6666666666666,51040972e4b0059cdcd6b4ce,AZ Collector's Marketplace,33.49460964480823,-112.03913924776971,Market
33.49958579519004,-112.03515294240499,666.6666666666666,4b4e2674f964a5200ae326e3,7-Eleven,33.4951749943398,-112.039256170392,Convenience Store
33.49508979519004,-112.04247300480996,666.6666666666666,4c4fd6781886c9b60848b127,Nogales Hot Dogs,33.49409014814309,-112.03936115135215,Food Truck
33.49508979519004,-112.04247300480996,666.6666666666666,4ad8bad0f964a5201a1421e3,Luke's of Chicago,33.494907647902934,-112.04714442163308,Sandwich Place
33.49508979519004,-112.04247300480996,666.6666666666666,4d40970b90f9224b24ce071e,Regio's Mexican Food,33.49437031351234,-112.04469004402057,Mexican Restaurant
33.49508979519004,-112.04247300480996,666.6666666666666,4aecc0d2f964a520f3ca21e3,Arizona Art Supply,33.49434410762427,-112.0465622452506,Arts & Crafts Store
33.49508979519004,-112.04247300480996,666.6666666666666,4b75e40af964a520802c2ee3,Drumbeat Indian Arts,33.49626450466193,-112.04730166320272,Gift Shop
33.49508979519004,-112.04247300480996,666.6666666666666,56d5fb12498e3ed8bbb0110d,Little Caesars Pizza,33.493919,-112.046604,Pizza Place
33.49508979519004,-112.04247300480996,666.6666666666666,55b2a423498e9924ae8426fd,Circle K,33.494325,-112.04723700000001,Convenience Store
33.49508979519004,-112.04247300480996,666.6666666666666,4b55de48f964a520bcf327e3,Goodwill Store and Donation Center,33.49358462585354,-112.04681960557328,Thrift / Vintage Store
33.49508979519004,-112.04247300480996,666.6666666666666,5650cd2e498ecc8d8fb95f6a,Smoke Dem Bones,33.494892,-112.04563,BBQ Joint
33.49508979519004,-112.04247300480996,666.6666666666666,501d5c6be4b0373b1437a35d,20th Street & Fairmount Avenue,33.49295738910007,-112.03890641864734,Intersection
33.49508979519004,-112.04247300480996,666.6666666666666,4deec5c8e4cdcd6c3f1adc42,Switchblade Salon,33.497051,-112.04661200000001,Salon / Barbershop
33.49508979519004,-112.04247300480996,666.6666666666666,4d19ea848312236a25bf6fba,Indian School Road & 16th Street,33.494713965969,-112.04763733361108,Intersection
33.49508979519004,-112.04247300480996,666.6666666666666,4ec061389911a2ec5c40a282,Grand Canal - 16th Street Walk,33.491197321117134,-112.04547999914199,River
33.49508979519004,-112.04247300480996,666.6666666666666,50aba390e4b079c12db8d85f,phoenix indian eye clinic,33.496307373046875,-112.0487060546875,Optical Shop
33.49958579519004,-112.04979306721495,666.6666666666666,51d1d1d6498e603ab4548b29,Reathrey Sekong Cambodian Cuisine,33.49487818145266,-112.05360844664416,Asian Restaurant
33.49958579519004,-112.04979306721495,666.6666666666666,4e9019c6f5b9f8967c8c7338,CHUTE - A Private Men's Health Club,33.49503556974564,-112.05043656771834,Gym / Fitness Center
33.49958579519004,-112.04979306721495,666.6666666666666,58b9b58b005a0f100d8158aa,Appliance Works,33.498492999999996,-112.04733799999998,Other Repair Shop
33.49958579519004,-112.04979306721495,666.6666666666666,51a6b3d5498e95a70fb8f572,Uber Black,33.50062090372572,-112.0468073971875,Moving Target
33.49958579519004,-112.04979306721495,666.6666666666666,4ccc6233ba0a548172fc3c59,Techniques Barber Shop,33.497051,-112.04661200000001,Salon / Barbershop
33.49958579519004,-112.04979306721495,666.6666666666666,4da6830f4df0c49b0317bce5,Campbell Avenue & 12th Street,33.50197286327583,-112.05629462376919,Intersection
33.49508979519004,-112.05711312961992,666.6666666666666,4b0d62aaf964a520444723e3,SAS Fabrics,33.494534680178184,-112.05750789877587,Arts & Crafts Store
33.49508979519004,-112.05711312961992,666.6666666666666,552f2a11498e3b259f2268d6,Los Diablos Bar-Bistro,33.49494001504289,-112.05942627609905,Gay Bar
33.49508979519004,-112.05711312961992,666.6666666666666,413ba880f964a520011c1fe3,The Rhythm Room,33.494315338854214,-112.05973230227602,Rock Club
33.49508979519004,-112.05711312961992,666.6666666666666,4e89be544901b86fc2a4ecd8,Panda Express,33.49504128170082,-112.06132086071646,Chinese Restaurant
33.49508979519004,-112.05711312961992,666.6666666666666,51b2a51b498e4f1a3196f8ad,Zorfs,33.4949306546459,-112.05944874920027,Gay Bar
33.49508979519004,-112.05711312961992,666.6666666666666,4e31c4312fb6ede816e39d72,Redbox,33.4947,-112.057634,Video Store
33.49508979519004,-112.05711312961992,666.6666666666666,4baa8c7bf964a520a6733ae3,McDonald's,33.49512578514976,-112.06179678440093,Fast Food Restaurant
33.49508979519004,-112.05711312961992,666.6666666666666,4b7c5125f964a520f18b2fe3,Mo-Money Pawn Shop,33.4949316,-112.056723,Miscellaneous Shop
33.49958579519004,-112.06443319202491,666.6666666666666,4fb5189ae4b008453f11fc2b,CVS pharmacy,33.494286079134646,-112.06451654434204,Pharmacy
33.49958579519004,-112.06443319202491,666.6666666666666,5232f14b93cd9389e6094e93,Cheetahs Gentlemen's Club,33.49574772265137,-112.06469368184648,Strip Club
33.49958579519004,-112.06443319202491,666.6666666666666,4b469f88f964a520c32526e3,Jack in the Box,33.4954709,-112.0647114,Fast Food Restaurant
33.49958579519004,-112.06443319202491,666.6666666666666,4d2624b1f9406dcbb253928d,Djs Conveniences,33.496987,-112.064761,Convenience Store
33.49958579519004,-112.06443319202491,666.6666666666666,4ec5802b0e01a510cd8c23dd,VA Canteen,33.495772495817526,-112.06683666487865,Food Court
33.49958579519004,-112.06443319202491,666.6666666666666,4b15a223f964a5207ab123e3,Cartridge World,33.49433,-112.06541899999999,Paper / Office Supplies Store
33.49508979519004,-112.07175325442988,666.6666666666666,4e07a684fa767637fd2c79c2,Antique Sugar,33.496029891947046,-112.07726311561079,Thrift / Vintage Store
33.49508979519004,-112.07175325442988,666.6666666666666,4b803464f964a520245c30e3,Flo's on 7th,33.49602588295031,-112.07725790818306,Thrift / Vintage Store
33.49508979519004,-112.07175325442988,666.6666666666666,4b5a1891f964a520e4ac28e3,Yoshi's,33.49404480281352,-112.07411543002293,Japanese Restaurant
33.49508979519004,-112.07175325442988,666.6666666666666,4bb11385f964a52042783ce3,Starbucks,33.494404628202446,-112.07436239691448,Coffee Shop
33.49508979519004,-112.07175325442988,666.6666666666666,4b99bfc2f964a520e48f35e3,Sports Club at City Square,33.49240741480846,-112.07565484886842,Gym
33.49508979519004,-112.07175325442988,666.6666666666666,4ba2bc38f964a520c11438e3,U.S. Bank ATM,33.49141497,-112.07413861,ATM
33.49508979519004,-112.07175325442988,666.6666666666666,4bfed2cd4e5d0f47de377d1f,FedEx Office Print & Ship Center,33.491358,-112.073335,Shipping Store
33.49508979519004,-112.07175325442988,666.6666666666666,4b007529f964a520733e22e3,Wendy’s,33.494508431116444,-112.06895560026169,Fast Food Restaurant
33.49508979519004,-112.07175325442988,666.6666666666666,4b44eb74f964a520c9ff25e3,Hertz,33.49409484863281,-112.07782745361328,Rental Car Location
33.49508979519004,-112.07175325442988,666.6666666666666,5a8257ad35f983055e8a7b07,Woody's Macayo,33.4916698,-112.07344809,Mexican Restaurant
33.49508979519004,-112.07175325442988,666.6666666666666,4b6d0393f964a52008632ce3,Hilton Garden Inn,33.4926191,-112.0754424,Hotel
33.49508979519004,-112.07175325442988,666.6666666666666,4dbb553f43a1d8504b6d9be6,The Station on Central,33.495938,-112.075503,Residential Building (Apartment / Condo)
33.49508979519004,-112.07175325442988,666.6666666666666,4e6faab8b0fbacf2addcfc89,Chase Bank,33.489889,-112.074282,Bank
33.49958579519004,-112.07907331683487,666.6666666666666,4bb02954f964a520523a3ce3,Whataburger,33.49508552306442,-112.07994863390928,Burger Joint
33.49958579519004,-112.07907331683487,666.6666666666666,4b5be373f964a520c41b29e3,The Rock,33.4960793784368,-112.08327759352389,Gay Bar
33.49958579519004,-112.07907331683487,666.6666666666666,52c33225498e73f2b948fae8,Phoenix Burrito House,33.496390316144236,-112.08396552198052,Mexican Restaurant
33.49958579519004,-112.07907331683487,666.6666666666666,4addfa64f964a520026721e3,Thai E-San,33.49514051528618,-112.08207839111832,Thai Restaurant
33.49958579519004,-112.07907331683487,666.6666666666666,4ad88a33f964a520241221e3,QuikTrip,33.49416070416317,-112.07923062888362,Convenience Store
33.49958579519004,-112.07907331683487,666.6666666666666,52f837da498ee018dc62bef3,Filiberto's,33.49693277277601,-112.08327624436802,Mexican Restaurant
33.49958579519004,-112.07907331683487,666.6666666666666,574e0636498eeb0085b477a4,Natural Grocers,33.49457113145034,-112.08281142654168,Organic Grocery
33.49958579519004,-112.07907331683487,666.6666666666666,4bcff3cbb221c9b633f9d2d0,7-Eleven,33.4952398609567,-112.08309084177,Convenience Store
33.49958579519004,-112.07907331683487,666.6666666666666,5cb69de5c0af57002c476679,Thunderbird Lounge,33.499702,-112.08347,Lounge
33.49958579519004,-112.07907331683487,666.6666666666666,4c76aa28d8948cfa8b166bda,Thairapy Hair and Nails,33.498871835352176,-112.08340954635786,Cosmetics Shop
33.49958579519004,-112.07907331683487,666.6666666666666,4e569659b993e0d1940c0641,Rust and Roses,33.496835,-112.08391999999999,Furniture / Home Store
33.49958579519004,-112.07907331683487,666.6666666666666,5259f619498e40589833e578,Rebel Salon and Vintage,33.496533,-112.083846,Thrift / Vintage Store
33.49958579519004,-112.07907331683487,666.6666666666666,4be48e67d4f7c9b6ee512420,3 Snaps,33.495330810546875,-112.08236694335938,Thrift / Vintage Store
33.49958579519004,-112.07907331683487,666.6666666666666,5fc9726fc3af7a10835dd9e6,Valentine,33.495927,-112.083678,Café
33.49958579519004,-112.07907331683487,666.6666666666666,513416b2e4b0f53f9bd9a092,Indian School Road & 7th Avenue,33.494872201083886,-112.08344974834475,Intersection
33.49508979519004,-112.08639337923985,666.6666666666666,54835999498ebc92c582758d,Goodwill Store and Donation Center,33.494474737759724,-112.08430176424353,Thrift / Vintage Store
33.49508979519004,-112.08639337923985,666.6666666666666,4babf301f964a5203fd83ae3,Melrose on 7th District,33.49593542488714,-112.08564920553431,Plaza
33.49508979519004,-112.08639337923985,666.6666666666666,4a78f96df964a520bde61fe3,Crazy Jim's Restaurant,33.49440486104217,-112.09113703106188,Mediterranean Restaurant
33.49508979519004,-112.08639337923985,666.6666666666666,4ad50c4af964a5207f0121e3,Landis Cyclery,33.495209830064866,-112.08412296502972,Bike Shop
33.49508979519004,-112.08639337923985,666.6666666666666,5c0d33bc396de0002c15f117,Scooter’s Coffee,33.493825,-112.083684,Coffee Shop
33.49508979519004,-112.08639337923985,666.6666666666666,599e6da514994653c1f566c2,Family Dollar,33.494356,-112.084639,Discount Store
33.49508979519004,-112.08639337923985,666.6666666666666,52e18ded498e5b24ba9fc2e3,McDonald's,33.49448606313404,-112.08374932408333,Fast Food Restaurant
33.49508979519004,-112.08639337923985,666.6666666666666,4b8027adf964a5206a5730e3,Circle K,33.494954,-112.091423,Convenience Store
33.49508979519004,-112.08639337923985,666.6666666666666,4a9bd3e9f964a5204b3520e3,Taco Bell,33.494108,-112.083079,Fast Food Restaurant
33.49508979519004,-112.08639337923985,666.6666666666666,4b3a958df964a520716a25e3,Salvation Army Thrift Store,33.494353000000004,-112.084608,Thrift / Vintage Store
33.49508979519004,-112.08639337923985,666.6666666666666,5fb5807cb9337c25f93ee7f2,Salad And Go,33.494592,-112.085508,Salad Place
33.49508979519004,-112.08639337923985,666.6666666666666,56fd1d99498efa942be50247,Premier Studios LLC,33.49524,-112.088995,Recording Studio
33.49508979519004,-112.08639337923985,666.6666666666666,4bf338186a31d13aae74942e,Caffé Italia,33.496798,-112.08330273628235,Italian Restaurant
33.49508979519004,-112.08639337923985,666.6666666666666,4de93079e4cd15735409dd23,Forest Park,33.49135182023308,-112.08241983408075,Park
33.49508979519004,-112.08639337923985,666.6666666666666,4ced98e67db3224b99fc222e,Shoot The Bull,33.495289,-112.090704,Sporting Goods Shop
33.49508979519004,-112.08639337923985,666.6666666666666,5babc44c598e64002c095079,Arizona Wholesale Mortgage Inc.,33.493876,-112.09103600000002,Business Service
33.49508979519004,-112.08639337923985,666.6666666666666,4bf434a213a6b713832c5d33,Clarendon Little League,33.489863019861794,-112.08852234768341,Baseball Field
33.49508979519004,-112.10103350404981,666.6666666666666,4b9307d8f964a520103034e3,My Mother's,33.496038593240115,-112.100299178334,American Restaurant
33.49508979519004,-112.10103350404981,666.6666666666666,4d41f01eaed776eb213c6997,Domino's Pizza,33.49542000411318,-112.09949444343692,Pizza Place
33.49508979519004,-112.10103350404981,666.6666666666666,4b862926f964a5207d8131e3,CVS pharmacy,33.4946960219644,-112.1003381336883,Pharmacy
33.49508979519004,-112.10103350404981,666.6666666666666,4c6003153a3703bb6f1de406,Pizza Hut,33.49482829263249,-112.09950193762779,Pizza Place
33.49508979519004,-112.10103350404981,666.6666666666666,5b292b15d0a149002cafcd24,Burger King,33.49537432927614,-112.10033799104247,Fast Food Restaurant
33.49508979519004,-112.10103350404981,666.6666666666666,4bd1000f046076b06e3d7171,Subway,33.4954694,-112.1015937,Sandwich Place
33.49508979519004,-112.10103350404981,666.6666666666666,4d2fbf9e7791224b6ce2ca42,Mariscos Chihuahua,33.495224,-112.099259,Mexican Restaurant
33.49508979519004,-112.10103350404981,666.6666666666666,4e111015b61c637b97aa7b94,Water And Ice,33.49578857421875,-112.10112762451172,Convenience Store
33.49508979519004,-112.10103350404981,666.6666666666666,4eb89683be7bfc284ba6436e,Loi Nam,33.492678000000005,-112.100373,Grocery Store
33.49508979519004,-112.10103350404981,666.6666666666666,4d2c8155774f76eb4b5c9533,ampm,33.49542,-112.107791,Convenience Store
33.49958579519004,-112.10835356645478,666.6666666666666,5671c507498e38196607126b,Shamrock Foodservice Warehouse,33.49594497680664,-112.11206817626953,Warehouse Store
33.49958579519004,-112.10835356645478,666.6666666666666,55f2ea13498e7eab825cb244,Professional Landscaping and Design by Sergio LLC,33.498587,-112.103518,Construction & Landscaping
33.49958579519004,-112.10835356645478,666.6666666666666,4bff9e99ca1920a1a601ed81,Federico's,33.495333175656704,-112.10828368652345,Mexican Restaurant
33.49958579519004,-112.10835356645478,666.6666666666666,4ec5c03f02d5888e99dfd5c9,Grand Canyon University Arena,33.502406009901044,-112.11302504076647,Concert Hall
33.49958579519004,-112.10835356645478,666.6666666666666,4dcf1ff2b0fb25f6e3567fd3,K-momo's Warehouse Store,33.49420166015625,-112.10902404785156,Clothing Store
33.49958579519004,-112.10835356645478,666.6666666666666,4fa40394e4b0752c6853589a,valley eye specialists,33.49476623535156,-112.10496520996094,Optical Shop
33.49508979519004,-112.11567362885977,666.6666666666666,54b97f2d498e312c6dadd52c,Urban Greenhouse Dispensary,33.49532770892785,-112.11554319429054,Marijuana Dispensary
33.49508979519004,-112.11567362885977,666.6666666666666,4b59cf20f964a5204b9928e3,Shooters World,33.49214378884757,-112.11927358943763,Sporting Goods Shop
33.49508979519004,-112.11567362885977,666.6666666666666,526817be498e625c7d93d8a9,Lenny's Burger Shop,33.49476823782816,-112.11866516211933,Burger Joint
33.49508979519004,-112.11567362885977,666.6666666666666,4c5e351d7735c9b654859172,7-Eleven,33.4954378982818,-112.116671675715,Convenience Store
33.49508979519004,-112.11567362885977,666.6666666666666,4bd9d3ec3f01c9b6e04853a5,Restaurant Depot,33.491778575287846,-112.11427069335605,Kitchen Supply Store
33.49508979519004,-112.11567362885977,666.6666666666666,54bf1e03498e96329c9c2e1e,Taqueria La Korita,33.495826844926434,-112.11675096581183,Restaurant
33.49508979519004,-112.11567362885977,666.6666666666666,4d6ab7efd2596ea8367c6920,Mariscos Ensenada,33.495775,-112.117678,Seafood Restaurant
33.48776973278506,-112.02783288,666.6666666666666,59b5ec5d6a8d860b72ff878b,Glai Baan,33.487345589610364,-112.03083223795313,Thai Restaurant
33.48776973278506,-112.02783288,666.6666666666666,5234a53811d2188c5600433a,Vaqueros,33.488144,-112.030385,Mexican Restaurant
33.48776973278506,-112.02783288,666.6666666666666,4b31236ff964a520ef0025e3,Mr Submarine,33.48722962394023,-112.0302556280991,Sandwich Place
33.48776973278506,-112.02783288,666.6666666666666,4b4f5132f964a5200e0127e3,McDonald's,33.48665467735826,-112.02976584434504,Fast Food Restaurant
33.48776973278506,-112.02783288,666.6666666666666,4c005e89ceabb7130dd78752,Chase Bank,33.482403,-112.029858,Bank
33.492265732785064,-112.03515294240499,666.6666666666666,4c45d39ff97fbe9a1e15bd30,"Phoenix Lamps, Shades, Repairs and Antiques",33.4946035,-112.0334101,Lighting Store
33.492265732785064,-112.03515294240499,666.6666666666666,5ba039d8234724002ca832a0,Camelback Antiques,33.49517,-112.03318200000001,Antique Shop
33.492265732785064,-112.03515294240499,666.6666666666666,4e3c683d52b1a04aff0a3f22,Indian School Road & 24th Street,33.494848423737324,-112.03022986650465,Intersection
33.492265732785064,-112.03515294240499,666.6666666666666,511ae3fbe4b02d597381df46,Pro Edge Boxing,33.494419,-112.041634,Gym
33.492265732785064,-112.03515294240499,666.6666666666666,4c017989716bc9b628efbb55,Valero,33.48742228508086,-112.03929221433447,Convenience Store
33.48776973278506,-112.04247300480996,666.6666666666666,516b0733e4b0a341daa1a16a,Desert Song Healing Arts Center,33.48648019111808,-112.03944325447083,Yoga Studio
33.48776973278506,-112.04247300480996,666.6666666666666,4a7a3cc6f964a520f7e81fe3,Lucky Boy Burger Shop,33.48804767959419,-112.04791267635476,Burger Joint
33.48776973278506,-112.04247300480996,666.6666666666666,4a6695cbf964a520c0c81fe3,Bar1,33.49098838474,-112.04790517688855,Gay Bar
33.48776973278506,-112.04247300480996,666.6666666666666,4b523c5bf964a520c07127e3,Rips Ales & Cocktails,33.48370861540486,-112.04742187630583,Bar
33.48776973278506,-112.04247300480996,666.6666666666666,4ea9e845e5fa45480d703975,Bar 1 Patio Bar,33.49098528996285,-112.04798569101801,Gay Bar
33.48776973278506,-112.04247300480996,666.6666666666666,4b627adbf964a52025492ae3,Plazma,33.48780810643789,-112.04876821494521,Gay Bar
33.48776973278506,-112.04247300480996,666.6666666666666,4bdca66aafe8c9b61b665085,Boom Boom LaRue's,33.489812172270284,-112.04794694862917,Boutique
33.48776973278506,-112.04247300480996,666.6666666666666,4c3182ff3896e21eeb30e790,Redbox,33.48762893676758,-112.04801940917969,Video Store
33.48776973278506,-112.04247300480996,666.6666666666666,4fbbbe56e4b0b3a994e22134,Circle K,33.487481,-112.047655,Convenience Store
33.48776973278506,-112.04247300480996,666.6666666666666,4fe79686e4b047eae9d3b669,AZ Route 51 at Osborn Road Underpass,33.48750361501084,-112.04210668802261,Intersection
33.48776973278506,-112.04247300480996,666.6666666666666,4f32a5e619836c91c7ec32e2,Restaurante Y Pescaderia Serranos,33.486442,-112.04731699999999,Seafood Restaurant
33.48776973278506,-112.04247300480996,666.6666666666666,4f31a905e4b03a80a75d67c7,Osborn Road & 16th Street,33.48742627058439,-112.04767030344809,Intersection
33.48776973278506,-112.04247300480996,666.6666666666666,4e3cb0f9c65b4ec275d94e08,El Pacifico Restaurante y Pescaderia,33.48621631884287,-112.04746364390388,Seafood Restaurant
33.48776973278506,-112.04247300480996,666.6666666666666,4d1ce0dec68aa1cd5981a6e2,UFO - Universal Furnishings & Offerings,33.48970564,-112.04791368,Furniture / Home Store
33.48776973278506,-112.04247300480996,666.6666666666666,4c8977bea92fa093460489bf,LaRue's Men,33.48978,-112.04803168773651,Boutique
33.48776973278506,-112.04247300480996,666.6666666666666,4c66d193e75ac9287495f8da,Weight Watchers,33.484046,-112.047329,Health Food Store
33.48776973278506,-112.04247300480996,666.6666666666666,4c1e5800eac020a1838a49c2,Two Hippies Beach House,33.48401606082916,-112.04804241657257,Mexican Restaurant
33.492265732785064,-112.04979306721495,666.6666666666666,4b803a50f964a5209c5e30e3,Urban Hair,33.493774,-112.046402,Cosmetics Shop
33.492265732785064,-112.04979306721495,666.6666666666666,5a4fd6471ffed7574151ffa7,Shanti's 2nd Chances,33.49392084,-112.04616016,Thrift / Vintage Store
33.492265732785064,-112.04979306721495,666.6666666666666,4fd13dc51081a832e39f2a66,A to Z Smoke Shop,33.49431,-112.044734,Smoke Shop
33.492265732785064,-112.04979306721495,666.6666666666666,4ca96aa944a8224bb0772140,AZ-51 at Exit 3,33.49472540024577,-112.04391181468964,Intersection
33.48776973278506,-112.05711312961992,666.6666666666666,4e7294b1b0fbd691574c9409,Subway,33.488246525873215,-112.05689373568536,Sandwich Place
33.492265732785064,-112.06443319202491,666.6666666666666,4ae7966ff964a520a4ac21e3,Schreiner's Fine Sausages,33.4894313,-112.064679,Restaurant
33.492265732785064,-112.06443319202491,666.6666666666666,4ac3ae33f964a520599c20e3,Urban Beans,33.488464541657805,-112.06533563247021,Coffee Shop
33.492265732785064,-112.06443319202491,666.6666666666666,5277b35a11d2b7e9be037701,Taco Guild Gastropub,33.4876217,-112.0656654,Restaurant
33.492265732785064,-112.06443319202491,666.6666666666666,510716bce4b056a13c5e4755,Gadzooks Enchiladas & Soup,33.48737605433509,-112.06487846916855,Mexican Restaurant
33.492265732785064,-112.06443319202491,666.6666666666666,4cfec42fdd2760fc6c9e3e63,salon embellish,33.488779,-112.065579,Salon / Barbershop
33.492265732785064,-112.06443319202491,666.6666666666666,5225fa8e498e5c360bcc25b7,Starbucks,33.48764,-112.06531,Coffee Shop
33.492265732785064,-112.06443319202491,666.6666666666666,4b762679f964a52033402ee3,Cruisin Seventh Bar,33.490437000888285,-112.0653662794691,Gay Bar
33.492265732785064,-112.06443319202491,666.6666666666666,56a3cb90498e9b7f01286848,Buffalo Exchange,33.48816632376443,-112.06566351611072,Thrift / Vintage Store
33.492265732785064,-112.06443319202491,666.6666666666666,50d260e7e4b03521ca97233e,Tertio Wine Bar,33.48857875992235,-112.06536067898189,Wine Bar
33.492265732785064,-112.06443319202491,666.6666666666666,4ac3a28ff964a520219c20e3,The Bookshop,33.48882879827811,-112.06538216610663,Bookstore
33.492265732785064,-112.06443319202491,666.6666666666666,56c2b925cd105aa983a1e682,Red Star Vape Smoke & CBD,33.49016133455362,-112.0648142695427,Smoke Shop
33.492265732785064,-112.06443319202491,666.6666666666666,4b4fca6ff964a520861527e3,"Greenleaf Wholesale Florist, Inc",33.494479,-112.062409,Flower Shop
33.492265732785064,-112.06443319202491,666.6666666666666,5272d2de11d2e14988b268d7,The Guitar Tree,33.487494226433746,-112.06471859848821,Music Store
33.492265732785064,-112.06443319202491,666.6666666666666,53a6258f498e65f063dcc062,Record Revival,33.48731068144814,-112.06565288342064,Record Shop
33.492265732785064,-112.06443319202491,666.6666666666666,5733768b498e125a2d65b06e,SAS Too,33.494926,-112.05852,Arts & Crafts Store
33.48776973278506,-112.07175325442988,666.6666666666666,4ab52659f964a520d17220e3,Urban Yoga,33.486199173170725,-112.07326313960007,Yoga Studio
33.48776973278506,-112.07175325442988,666.6666666666666,413ba880f964a520311b1fe3,China Chili,33.48586836799868,-112.06903472542763,Chinese Restaurant
33.48776973278506,-112.07175325442988,666.6666666666666,50ca02bd245f2d4aa8c2aa10,Alexi'S,33.48892222541001,-112.07399252863172,Italian Restaurant
33.48776973278506,-112.07175325442988,666.6666666666666,560ad56d498e6f9d8f7c515f,Ocotillo,33.48547089424583,-112.06919670606953,New American Restaurant
33.48776973278506,-112.07175325442988,666.6666666666666,520bd64d11d2800af8721d4e,Fired Pie {park central},33.48387165722938,-112.07532147368921,Pizza Place
33.48776973278506,-112.07175325442988,666.6666666666666,4a418de3f964a5206ba51fe3,Jamba Juice,33.484258,-112.074934,Juice Bar
33.48776973278506,-112.07175325442988,666.6666666666666,531243b7498e43149077d774,Jimmy John's,33.48380757682688,-112.07494638735923,Sandwich Place
33.48776973278506,-112.07175325442988,666.6666666666666,4b2ad184f964a5203bb024e3,Kobalt Bar,33.48389736498543,-112.07594384873371,Gay Bar
33.48776973278506,-112.07175325442988,666.6666666666666,57572a1ccd1034d39ac52f48,First Watch - Park Central,33.483611,-112.074955,Breakfast Spot
33.48776973278506,-112.07175325442988,666.6666666666666,4ae4899af964a5206a9b21e3,Walgreens,33.487861,-112.0746354,Pharmacy
33.48776973278506,-112.07175325442988,666.6666666666666,4bdb491f2a3a0f47d948aeb6,Redbox,33.487865933880855,-112.07422668741093,Video Store
33.48776973278506,-112.07175325442988,666.6666666666666,4c09446a009a0f47a976e7bf,Cranberry Hills Eatery & Catering,33.48266601304517,-112.07325518131256,American Restaurant
33.48776973278506,-112.07175325442988,666.6666666666666,4a808005f964a5207af51fe3,Staples,33.48796,-112.075589,Paper / Office Supplies Store
33.48776973278506,-112.07175325442988,666.6666666666666,4f9c4037e4b09fef537af4e2,Wyndham Garden Phoenix Midtown,33.48850150095051,-112.07683687604474,Hotel
33.48776973278506,-112.07175325442988,666.6666666666666,4b6cbac4f964a520cb4f2ce3,Jack in the Box,33.485575317734245,-112.07349389791489,Fast Food Restaurant
33.48776973278506,-112.07175325442988,666.6666666666666,4a418b08f964a52068a51fe3,Thai Basil,33.48355132389666,-112.07503608220783,Thai Restaurant
33.48776973278506,-112.07175325442988,666.6666666666666,58eb9d79d4390771f05e987c,Ramada Inn,33.4878851815186,-112.07665529682008,Hotel
33.48776973278506,-112.07175325442988,666.6666666666666,4b943a5ef964a520ef6f34e3,Park Central Mall,33.48370223382226,-112.07510759451971,Shopping Mall
33.48776973278506,-112.07175325442988,666.6666666666666,5668c543498ed0a60347ccd8,phoenix hotel and suites,33.487948930262725,-112.07684250682597,Hotel
33.48776973278506,-112.07175325442988,666.6666666666666,4b897e56f964a520bf3b32e3,Extended Stay America,33.48705487354086,-112.07717475850396,Hotel
33.48776973278506,-112.07175325442988,666.6666666666666,4bf1942e324cc9b63834cc92,BBVA Compass,33.48272641482789,-112.07312107086182,Bank
33.48776973278506,-112.07175325442988,666.6666666666666,4b7d8cc0f964a5200dc62fe3,Interface Technical Training,33.48343081,-112.07574128,Trade School
33.48776973278506,-112.07175325442988,666.6666666666666,4e4563567d8b91a06580522b,"Burch & Cracchiolo, P.A.",33.48820877075195,-112.0647201538086,Lawyer
33.492265732785064,-112.07907331683487,666.6666666666666,4a336759f964a5202b9b1fe3,Clarendon Hotel,33.491159978349394,-112.07918975413492,Hotel
33.492265732785064,-112.07907331683487,666.6666666666666,54e37aaa498e70c66ed94be4,Tranquilo,33.49127729736876,-112.07922830646108,Mexican Restaurant
33.492265732785064,-112.07907331683487,666.6666666666666,580ff27838fa4b202cb2e61b,Pho Noodles,33.488778905377586,-112.0824207443156,Vietnamese Restaurant
33.492265732785064,-112.07907331683487,666.6666666666666,4a4ecce7f964a52014af1fe3,Clarendon - Roof,33.491024240705855,-112.07920776248992,Roof Deck
33.492265732785064,-112.07907331683487,666.6666666666666,4a53c00af964a520b1b21fe3,Eriberto's Mexican Food,33.48905411987084,-112.0830478427321,Mexican Restaurant
33.492265732785064,-112.07907331683487,666.6666666666666,413ba880f964a520c51b1fe3,Mi Patio,33.487330867500624,-112.08291619523263,Mexican Restaurant
33.492265732785064,-112.07907331683487,666.6666666666666,5ac185621f8ed605c16e78c9,Dark Hall Coffee,33.48715030900986,-112.08262985595954,Coffee Shop
33.492265732785064,-112.07907331683487,666.6666666666666,4a9849f1f964a520542b20e3,Great Clips,33.4886672,-112.0824049,Salon / Barbershop
33.492265732785064,-112.07907331683487,666.6666666666666,4b63913bf964a520e5832ae3,Burger Factory,33.48798,-112.08359,Burger Joint
33.492265732785064,-112.07907331683487,666.6666666666666,4ce1b66b69136dcbf30bebe6,Starbucks,33.48837759174876,-112.08177694117717,Coffee Shop
33.492265732785064,-112.07907331683487,666.6666666666666,4abdee78f964a520838b20e3,Safeway,33.4885441,-112.0816908,Grocery Store
33.492265732785064,-112.07907331683487,666.6666666666666,4b6dca5af964a52025902ce3,Subway,33.4886948034514,-112.08236455619522,Sandwich Place
33.492265732785064,-112.07907331683487,666.6666666666666,56a95f93498e69ffb83f3398,Stacy's Pampered Pig,33.487142,-112.082339,BBQ Joint
33.492265732785064,-112.07907331683487,666.6666666666666,4c464825cd5ca593be6b0087,Peter Piper Pizza,33.48841243806172,-112.08235310672855,Pizza Place
33.48776973278506,-112.08639337923985,666.6666666666666,5b719d4953159300396bbf0d,Sprouts Farmers Market,33.4869813,-112.0842076,Grocery Store
33.48776973278506,-112.08639337923985,666.6666666666666,5d52e656e3f67200083911cd,MOD Pizza,33.4870358,-112.0841826,Pizza Place
33.48776973278506,-112.08639337923985,666.6666666666666,5b33c4e1f1936e002ce2d7c4,Orangetheory Fitness,33.48733532640289,-112.08449055772792,Gym
33.48776973278506,-112.08639337923985,666.6666666666666,5a87061d1de7652538e59b7f,Starbucks,33.48745783251377,-112.0835269011433,Coffee Shop
33.48776973278506,-112.08639337923985,666.6666666666666,5b2afca7e1f0aa002cc37bc3,Jamba Juice,33.48682000000002,-112.0835182797623,Smoothie Shop
33.48776973278506,-112.08639337923985,666.6666666666666,4e72259645dd2c5c1a83e7c7,Jersey Mike's Subs,33.48715031143547,-112.08428978919983,Sandwich Place
33.48776973278506,-112.08639337923985,666.6666666666666,4be37f84f07b0f47585af843,Phoenix College John Paul Theatre,33.4831073411444,-112.08841532189955,Theater
33.48776973278506,-112.08639337923985,666.6666666666666,5c1dc584f193c0002cda0eb1,The Louie,33.487124,-112.08250100000001,Gay Bar
33.48776973278506,-112.08639337923985,666.6666666666666,4bc7758f2f94d13addf7117f,Eric Fischl Gallery,33.48367941515803,-112.08744406700134,Art Gallery
33.48776973278506,-112.08639337923985,666.6666666666666,4c1fba80e923ef3b5ace4e54,Phoenix College Cafeteria,33.48253237236469,-112.08874007250881,Café
33.492265732785064,-112.09371344164482,666.6666666666666,4be77aa8ee96c9283d1bfdbf,Redbox,33.494954,-112.091423,Video Store
33.492265732785064,-112.09371344164482,666.6666666666666,4d5c019b5d1537042b366de7,El Y Ella Salon,33.494135415105944,-112.09111182279116,Salon / Barbershop
33.492265732785064,-112.09371344164482,666.6666666666666,4e68157d14952e0a132c2202,Lucky Kitchen,33.495492,-112.092242,Chinese Restaurant
33.492265732785064,-112.09371344164482,666.6666666666666,4b11799af964a520567d23e3,Karate Mart,33.494692,-112.09056299999999,Bar
33.492265732785064,-112.09371344164482,666.6666666666666,4bb7915398c7ef3badfa2f02,Kelly Paper,33.49520153484902,-112.08948171342854,Paper / Office Supplies Store
33.492265732785064,-112.09371344164482,666.6666666666666,4fa485a2e4b0ed028156c934,Indian School Road & 19th Avenue,33.49501529938858,-112.09990843967198,Intersection
33.48776973278506,-112.10103350404981,666.6666666666666,59f4fb4b95a72224692bdb09,Dollar Tree,33.487484,-112.099364,Discount Store
33.48776973278506,-112.10103350404981,666.6666666666666,59b7fe70588e364f7ed2b628,Family Dollar,33.48725509643555,-112.09969329833984,Discount Store
33.48776973278506,-112.10103350404981,666.6666666666666,4f51abf5e4b03be36214a84d,Empire Hookah Lounge,33.48849105834961,-112.10038757324219,Hookah Bar
33.48776973278506,-112.10103350404981,666.6666666666666,518090be498ee3c678fd36f1,La Carreta De Lily,33.486864,-112.10034,Mexican Restaurant
33.48776973278506,-112.10103350404981,666.6666666666666,531fb789498e106a872760c0,Armando's Mexican Food,33.486198,-112.099601,Mexican Restaurant
33.492265732785064,-112.10835356645478,666.6666666666666,56230d44498e469eb52bc79c,House Of Elote,33.48748867373217,-112.10615535058584,Latin American Restaurant
33.480449670380075,-112.02783288,666.6666666666666,4bed90b291380f475119a018,El Nopalito,33.47964938650173,-112.02990276694769,Mexican Restaurant
33.480449670380075,-112.02783288,666.6666666666666,4b50e06bf964a520883627e3,Barb's Bakery,33.48152341562841,-112.0299105827018,Bakery
33.480449670380075,-112.02783288,666.6666666666666,4ddf2081d4c0935ddd55fd14,Cosmic Soup Recording,33.4779,-112.02988,Recording Studio
33.480449670380075,-112.02783288,666.6666666666666,5365d098498eeb439fd45554,anvil,33.48057687132571,-112.02895541927117,Gay Bar
33.480449670380075,-112.02783288,666.6666666666666,413ba880f964a520fa1a1fe3,Avanti,33.48105683098715,-112.02244093556779,Italian Restaurant
33.480449670380075,-112.02783288,666.6666666666666,4f75c8b2e4b062e51d54e66c,QuikTrip,33.4808015,-112.0333443,Convenience Store
33.480449670380075,-112.02783288,666.6666666666666,4bcb87293740b71384b86265,Long Wong's,33.4807981,-112.0208328,Fast Food Restaurant
33.480449670380075,-112.02783288,666.6666666666666,4bbd2376a0a0c9b6d1511b0f,Domino's Pizza,33.480681679208395,-112.0284153521061,Pizza Place
33.480449670380075,-112.02783288,666.6666666666666,4b586b09f964a520db5628e3,CVS pharmacy,33.480610834214204,-112.02981574698107,Pharmacy
33.480449670380075,-112.02783288,666.6666666666666,4b9a7537f964a5200fb735e3,Dunkin',33.4807044,-112.0315131,Donut Shop
33.480449670380075,-112.02783288,666.6666666666666,4ba7b458f964a52060ab39e3,Field Services Audio Repair,33.48006422220315,-112.02833890914917,Music Store
33.480449670380075,-112.02783288,666.6666666666666,4c2128983389c9b605594ffb,New China Super Buffet,33.481879,-112.02988400000001,Chinese Restaurant
33.480449670380075,-112.02783288,666.6666666666666,4b700f74f964a5206d052de3,Carl's Jr. / Green Burrito,33.480705922427866,-112.03073999995905,Fast Food Restaurant
33.480449670380075,-112.02783288,666.6666666666666,4bc1f83cf8219c74eb02b410,Julioberto's,33.48056082929723,-112.02182212168063,Mexican Restaurant
33.480449670380075,-112.02783288,666.6666666666666,4b777199f964a520cd9a2ee3,Filiberto's Mexican Food,33.48067092895508,-112.0218505859375,Mexican Restaurant
33.480449670380075,-112.02783288,666.6666666666666,4d5c1499ddac721e4a086afe,Sun Valley Stereo,33.48014,-112.02084,Auto Dealership
33.48494567038008,-112.03515294240499,666.6666666666666,535976b5498eb8ae2361cb42,Dollar Tree,33.48122182826976,-112.03731077055235,Discount Store
33.48494567038008,-112.03515294240499,666.6666666666666,5445884e498e55550f3a6611,dd's DISCOUNTS,33.481343,-112.0376,Department Store
33.48494567038008,-112.03515294240499,666.6666666666666,5bd539db2b9844002ce71a2a,Rewined Beer and Wine Bar,33.487008122767485,-112.03051149845122,Beer Bar
33.48494567038008,-112.03515294240499,666.6666666666666,4b5a17c8f964a520aeac28e3,Los Betos Mexican Food,33.488178999999995,-112.03048899999999,Mexican Restaurant
33.48494567038008,-112.03515294240499,666.6666666666666,4d5d6434bee2ec4add0d7092,GCJ Market,33.488121032714844,-112.0299072265625,Market
33.48494567038008,-112.03515294240499,666.6666666666666,4e3c9f29a809ba757bffb12b,Magic Dollar Store,33.48001763467764,-112.03795224246242,Flea Market
33.480449670380075,-112.04247300480996,666.6666666666666,56101f36498e6e7959f57867,Dig It,33.482478,-112.04737,Garden Center
33.480449670380075,-112.04247300480996,666.6666666666666,4b4546adf964a520b00926e3,Barrio Café,33.47876514873319,-112.0478416496522,Mexican Restaurant
33.480449670380075,-112.04247300480996,666.6666666666666,413ba880f964a520c91b1fe3,Middle Eastern Bakery & Deli,33.48356037620291,-112.04791009132204,Middle Eastern Restaurant
33.480449670380075,-112.04247300480996,666.6666666666666,5de71197242f6b000865e67b,Starbucks,33.48066329956055,-112.04241943359375,Coffee Shop
33.480449670380075,-112.04247300480996,666.6666666666666,4a8f70d9f964a520481520e3,Juan's Authentic Mexican Food,33.48036232076365,-112.04901347841793,Burrito Place
33.480449670380075,-112.04247300480996,666.6666666666666,4f022b3577c885c337d8d225,Catalina Sports Bar and Grill,33.481693234317056,-112.04741595384371,Sports Bar
33.480449670380075,-112.04247300480996,666.6666666666666,4b5e2368f964a520b87f29e3,Top Design Nails,33.482948812807585,-112.04801864941584,Salon / Barbershop
33.480449670380075,-112.04247300480996,666.6666666666666,4bf1ae933fa220a18d951820,Pizza Hut,33.479149,-112.046856,Pizza Place
33.480449670380075,-112.04247300480996,666.6666666666666,546bf21b498e2b3e991431c5,Nino's Greek Cafe,33.48398121829659,-112.04804323677006,Greek Restaurant
33.480449670380075,-112.04247300480996,666.6666666666666,4bcf7bdeb221c9b63422d2d0,Walgreens,33.4806052,-112.0472126,Pharmacy
33.480449670380075,-112.04247300480996,666.6666666666666,4ec825efe300719915eb0df8,The Little Park On The Canal,33.48258984179819,-112.03983855006504,Park
33.480449670380075,-112.04247300480996,666.6666666666666,4c00150d37850f47c4b2973f,Subway,33.479421026286246,-112.04690605371178,Sandwich Place
33.480449670380075,-112.04247300480996,666.6666666666666,4e5fe9dd315114bf6023b72a,Phoenix Scout Shop,33.48289196023865,-112.03798413276672,Miscellaneous Shop
33.480449670380075,-112.04247300480996,666.6666666666666,4bf854548d30d13a2c950018,Deportes America,33.4789712197471,-112.047678827215,Sporting Goods Shop
33.480449670380075,-112.04247300480996,666.6666666666666,57036647498e606022fd6fd2,Dig It Gardens,33.48248876,-112.04740884,Garden Center
33.480449670380075,-112.04247300480996,666.6666666666666,4b7ef517f964a5203b0c30e3,PLS Loan Store,33.47985236590032,-112.04797057113933,Check Cashing Service
33.480449670380075,-112.04247300480996,666.6666666666666,4f2c9a33e4b040eafe64ea97,Por Vida Gallery,33.478492075757025,-112.0478728082948,Art Gallery
33.480449670380075,-112.04247300480996,666.6666666666666,5653ce3e498edc1817545b61,Tangible Fitness,33.48031478499672,-112.04888463020323,Gym
33.480449670380075,-112.04247300480996,666.6666666666666,4ede640461af8a14bb0193eb,Gypsy Rose Tattoo,33.48012,-112.04952,Tattoo Parlor
33.48494567038008,-112.04979306721495,666.6666666666666,4e0cd8e3227100f4dfe5439a,Fat Ass Burger,33.483962266666964,-112.04805910964646,Burger Joint
33.48494567038008,-112.04979306721495,666.6666666666666,4c697098897b1b8d992faf17,Hanger Clinic: Prosthetics & Orthotics,33.48727,-112.04549,Office
33.48494567038008,-112.04979306721495,666.6666666666666,5093bf62e4b075af18401868,Thomas Road & 16th Street,33.4802029266963,-112.0476347208023,Intersection
33.480449670380075,-112.05711312961992,666.6666666666666,4babe4dbf964a520f0d23ae3,Coronado Neighborhood,33.47880911663482,-112.06198509801793,Neighborhood
33.480449670380075,-112.05711312961992,666.6666666666666,4af8be1bf964a520a30f22e3,Phoenix Country Club,33.4816208335161,-112.06370837562791,Golf Course
33.480449670380075,-112.05711312961992,666.6666666666666,4ebbe9bd4fc61a72fca46f57,Phoenix Country Club Fitness Center,33.48139226077664,-112.06001919397252,Gym
33.480449670380075,-112.05711312961992,666.6666666666666,5fe0ef5f92e3ef482c14a5e2,The Website Fixer,33.477634620390205,-112.05460041761398,Business Service
33.480449670380075,-112.05711312961992,666.6666666666666,51578f97e4b0bca30faacfd1,Circle Park,33.47846239293298,-112.06226348876953,Park
33.480449670380075,-112.05711312961992,666.6666666666666,4e418dfe62843d0c833ab291,PCC Bag Room,33.48150155148744,-112.06304423324202,Golf Course
